{
  "1" : {
    "1" : {
      "address" : "347, Vikramaditya Marg, Mansarovar Sector 11, Jhalana Chhod, Mansarovar",
      "imageRef" : "2021~October~2021-10-14~1~1",
      "isClean" : true,
      "latLng" : "26.8410958,75.7755032",
      "locality" : " Mansarovar",
      "time" : "08:59",
      "user" : "ggEpFnOpb4bmKMvNMiOxs9cdtcq1",
      "ward" : "84",
      "zone" : "Sanganer"
    },
    "2" : {
      "address" : "6/56, Sh-12, Sector 2, Hans Vihar, Kalyanpura, Mansarovar",
      "imageRef" : "2021~October~2021-10-14~1~2",
      "isClean" : true,
      "latLng" : "26.8365808,75.769405",
      "locality" : " Mansarovar",
      "time" : "08:59",
      "user" : "ggEpFnOpb4bmKMvNMiOxs9cdtcq1",
      "ward" : "84",
      "zone" : "Sanganer"
    },
    "3" : {
      "address" : "B-208, Rajendra Marg, Bapu Nagar",
      "imageRef" : "2021~October~2021-10-14~1~3",
      "isClean" : true,
      "latLng" : "26.8875165,75.8078643",
      "locality" : " Bapu Nagar",
      "time" : "10:57",
      "user" : "25XNe38bkHd2Lhktw7i0AOKBaiY2",
      "ward" : "150",
      "zone" : "Malviya Nagar"
    },
    "4" : {
      "address" : "Behind HOTEL SK GRAND and, near vivek children academy, Mahaveer Colony, Govardhan Nagar",
      "imageRef" : "2021~October~2021-10-14~1~4",
      "isClean" : true,
      "latLng" : "26.7880549,75.8157975",
      "locality" : " Govardhan Nagar",
      "time" : "11:47",
      "user" : "bKMm4RGBkcbqQ85cASW4mhP5WLy2",
      "ward" : "99",
      "zone" : "Sanganer"
    },
    "5" : {
      "address" : "Vatsalya Complex, NRI Cir, Sector 17, Pratap Nagar",
      "imageRef" : "2021~October~2021-10-14~1~5",
      "isClean" : true,
      "latLng" : "26.8087355,75.8346934",
      "locality" : " Pratap Nagar",
      "time" : "12:32",
      "user" : "Cwb1zuSlcQPQBOMfmk0hBWWYr9I3",
      "ward" : "115",
      "zone" : "Jagatpura"
    },
    "6" : {
      "address" : "104, Vishnu Garden, Sanganer",
      "imageRef" : "2021~October~2021-10-14~1~6",
      "isClean" : false,
      "latLng" : "26.8212965,75.7924941",
      "locality" : " Sanganer",
      "time" : "12:32",
      "user" : "n8U24UXDq5OckN6Yw6pdO2b0Swg2",
      "ward" : "104",
      "zone" : "Jagatpura"
    },
    "7" : {
      "address" : "30/725, Shekhawat Nagar, Ghat Ki Guni",
      "imageRef" : "2021~October~2021-10-14~1~7",
      "isClean" : true,
      "latLng" : "26.8663402,75.8226122",
      "locality" : " Ghat Ki Guni",
      "time" : "12:44",
      "user" : "umal2udO10ZJaW3ah3qMPoqGVf33",
      "ward" : "Not Found",
      "zone" : "Not Found"
    },
    "8" : {
      "address" : "RR5M+MJ3, Sector 17, Pratap Nagar",
      "imageRef" : "2021~October~2021-10-14~1~8",
      "isClean" : false,
      "latLng" : "26.8090384,75.8339718",
      "locality" : " Pratap Nagar",
      "time" : "14:10",
      "user" : "Cwb1zuSlcQPQBOMfmk0hBWWYr9I3",
      "ward" : "115",
      "zone" : "Jagatpura"
    },
    "lastKey" : "8"
  },
  "2" : {
    "1" : {
      "address" : "96, Shanti Nagar, Shanthi Nagar, Gopal Pura Mode",
      "imageRef" : "2021~October~2021-10-14~2~1",
      "isAnalysis" : "yes",
      "isClean" : true,
      "latLng" : "26.8620417,75.7868379",
      "locality" : " Gopal Pura Mode",
      "penalty" : "100",
      "time" : "08:15",
      "user" : "jAuektVgF9MuTvDHnUWjDmZwVP92",
      "ward" : "128",
      "zone" : "Malviya Nagar"
    },
    "2" : {
      "address" : "492, Rd Number 2, Shanti Nagar, Durgapura",
      "imageRef" : "2021~October~2021-10-14~2~2",
      "isAnalysis" : "yes",
      "isClean" : true,
      "latLng" : "26.8592362,75.7862921",
      "locality" : " Durgapura",
      "penalty" : "100",
      "time" : "08:16",
      "user" : "jAuektVgF9MuTvDHnUWjDmZwVP92",
      "ward" : "81",
      "zone" : "Mansarovar"
    },
    "3" : {
      "address" : "332f, Rd Number 17, Shree Ram Nagar - B, Vishal Nagar, Vishwakarma Industrial Area, V.K.I. Area",
      "imageRef" : "2021~October~2021-10-14~2~3",
      "isAnalysis" : "yes",
      "isClean" : true,
      "latLng" : "27.0000853,75.7959093",
      "locality" : " V.K.I. Area",
      "penalty" : "100",
      "time" : "08:55",
      "user" : "H5rob2uJ8jgknIAbGnblhi40tUE2",
      "ward" : "Not Found",
      "zone" : "Not Found"
    },
    "4" : {
      "address" : "332f, Rd Number 17, Shree Ram Nagar - B, Vishal Nagar, Vishwakarma Industrial Area, V.K.I. Area",
      "imageRef" : "2021~October~2021-10-14~2~4",
      "isClean" : true,
      "latLng" : "27.0000899,75.7961375",
      "locality" : " V.K.I. Area",
      "time" : "08:55",
      "user" : "H5rob2uJ8jgknIAbGnblhi40tUE2",
      "ward" : "Not Found",
      "zone" : "Not Found"
    },
    "5" : {
      "address" : "55, Moti Doongri Rd, Tilak Nagar",
      "imageRef" : "2021~October~2021-10-14~2~5",
      "isAnalysis" : "yes",
      "isClean" : false,
      "latLng" : "26.894757,75.816526",
      "locality" : " Tilak Nagar",
      "penalty" : "100",
      "time" : "09:22",
      "user" : "GPotdEk3KiOa4fqpi2UXbBOSYhh2",
      "ward" : "148",
      "zone" : "Malviya Nagar"
    },
    "6" : {
      "address" : "303902, Ramdara Colony, Dada Gurudev Nagar, Sanganer",
      "imageRef" : "2021~October~2021-10-14~2~6",
      "isClean" : true,
      "latLng" : "26.8190592,75.7733044",
      "locality" : " Sanganer",
      "time" : "09:54",
      "user" : "5ey5OTJPSaVtScapKMAk3f1NkXA3",
      "ward" : "89",
      "zone" : "Sanganer"
    },
    "7" : {
      "address" : "303902, Ramdara Colony, Dada Gurudev Nagar, Sanganer",
      "imageRef" : "2021~October~2021-10-14~2~7",
      "isClean" : false,
      "latLng" : "26.8190592,75.7733044",
      "locality" : " Sanganer",
      "time" : "09:57",
      "user" : "5ey5OTJPSaVtScapKMAk3f1NkXA3",
      "ward" : "89",
      "zone" : "Sanganer"
    },
    "8" : {
      "address" : "RQ8F+XF6, Ramdara Colony, Dada Gurudev Nagar, Sanganer",
      "imageRef" : "2021~October~2021-10-14~2~8",
      "isClean" : false,
      "latLng" : "26.8174417,75.7737465",
      "locality" : " Sanganer",
      "time" : "09:59",
      "user" : "5ey5OTJPSaVtScapKMAk3f1NkXA3",
      "ward" : "89",
      "zone" : "Sanganer"
    },
    "9" : {
      "address" : "21, near a, Ramdara Colony, Mahaveer Nagar Y, Dada Gurudev Nagar, Sanganer",
      "imageRef" : "2021~October~2021-10-14~2~9",
      "isClean" : false,
      "latLng" : "26.8172821,75.7743147",
      "locality" : " Sanganer",
      "time" : "10:02",
      "user" : "5ey5OTJPSaVtScapKMAk3f1NkXA3",
      "ward" : "89",
      "zone" : "Sanganer"
    },
    "10" : {
      "address" : "21, near a, Ramdara Colony, Mahaveer Nagar Y, Dada Gurudev Nagar, Sanganer",
      "imageRef" : "2021~October~2021-10-14~2~10",
      "isClean" : false,
      "latLng" : "26.8172821,75.7743147",
      "locality" : " Sanganer",
      "time" : "10:02",
      "user" : "5ey5OTJPSaVtScapKMAk3f1NkXA3",
      "ward" : "89",
      "zone" : "Sanganer"
    },
    "11" : {
      "address" : "22, Dada Bari Rd, Gopi Nagar, Bharave Colony, Sanganer",
      "imageRef" : "2021~October~2021-10-14~2~11",
      "isClean" : false,
      "latLng" : "26.8127475,75.7767276",
      "locality" : " Sanganer",
      "time" : "10:05",
      "user" : "5ey5OTJPSaVtScapKMAk3f1NkXA3",
      "ward" : "92",
      "zone" : "Sanganer"
    },
    "12" : {
      "address" : "22, Dada Bari Rd, Gopi Nagar, Bharave Colony, Sanganer",
      "imageRef" : "2021~October~2021-10-14~2~12",
      "isClean" : false,
      "latLng" : "26.8127475,75.7767276",
      "locality" : " Sanganer",
      "time" : "10:05",
      "user" : "5ey5OTJPSaVtScapKMAk3f1NkXA3",
      "ward" : "92",
      "zone" : "Sanganer"
    },
    "13" : {
      "address" : "Sunaaro Ki Gali, Sanganer",
      "imageRef" : "2021~October~2021-10-14~2~13",
      "isClean" : false,
      "latLng" : "26.8124847,75.7840986",
      "locality" : " Sanganer",
      "time" : "10:06",
      "user" : "5ey5OTJPSaVtScapKMAk3f1NkXA3",
      "ward" : "94",
      "zone" : "Sanganer"
    },
    "14" : {
      "address" : "Sunaaro Ki Gali, Sanganer",
      "imageRef" : "2021~October~2021-10-14~2~14",
      "isClean" : false,
      "latLng" : "26.8124847,75.7840986",
      "locality" : " Sanganer",
      "time" : "10:06",
      "user" : "5ey5OTJPSaVtScapKMAk3f1NkXA3",
      "ward" : "94",
      "zone" : "Sanganer"
    },
    "15" : {
      "address" : "70, Kankha Ki Dhani",
      "imageRef" : "2021~October~2021-10-14~2~15",
      "isClean" : true,
      "latLng" : "26.8162699,75.7700753",
      "locality" : " Kankha Ki Dhani",
      "time" : "10:07",
      "user" : "tNB8sMcY9ATZng3bqQdo27cnAyW2",
      "ward" : "88",
      "zone" : "Sanganer"
    },
    "16" : {
      "address" : "Sunaaro Ki Gali, Sanganer",
      "imageRef" : "2021~October~2021-10-14~2~16",
      "isClean" : false,
      "latLng" : "26.8124847,75.7840986",
      "locality" : " Sanganer",
      "time" : "10:07",
      "user" : "5ey5OTJPSaVtScapKMAk3f1NkXA3",
      "ward" : "94",
      "zone" : "Sanganer"
    },
    "17" : {
      "address" : "opposite gulab niwas, near panchayat samiti, Raigarh Chhota Mohalla, Dada Gurudev Nagar, Sanganer",
      "imageRef" : "2021~October~2021-10-14~2~17",
      "isClean" : false,
      "latLng" : "26.8138196,75.7843757",
      "locality" : " Sanganer",
      "time" : "10:08",
      "user" : "5ey5OTJPSaVtScapKMAk3f1NkXA3",
      "ward" : "93",
      "zone" : "Sanganer"
    },
    "18" : {
      "address" : "opposite gulab niwas, near panchayat samiti, Raigarh Chhota Mohalla, Dada Gurudev Nagar, Sanganer",
      "imageRef" : "2021~October~2021-10-14~2~18",
      "isAnalysis" : "yes",
      "isClean" : false,
      "latLng" : "26.8138196,75.7843757",
      "locality" : " Sanganer",
      "penalty" : "100",
      "time" : "10:09",
      "user" : "5ey5OTJPSaVtScapKMAk3f1NkXA3",
      "ward" : "93",
      "zone" : "Sanganer"
    },
    "19" : {
      "address" : "Road no 17 ,near payu ka khejda, bank of baroda ke pass, Vishwakarma Industrial Area",
      "imageRef" : "2021~October~2021-10-14~2~19",
      "isAnalysis" : "yes",
      "isClean" : true,
      "latLng" : "27.0049706,75.7968363",
      "locality" : " Vishwakarma Industrial Area",
      "penalty" : "100",
      "time" : "10:12",
      "user" : "H5rob2uJ8jgknIAbGnblhi40tUE2",
      "ward" : "Not Found",
      "zone" : "Not Found"
    },
    "20" : {
      "address" : "Shop No.4 Gulab Nagar, Rampura Rd, Sanganer",
      "imageRef" : "2021~October~2021-10-14~2~20",
      "isClean" : true,
      "latLng" : "26.8163677,75.7701387",
      "locality" : " Sanganer",
      "time" : "10:13",
      "user" : "vv7k1ZCHPig4lvVExLooudouHHx1",
      "ward" : "88",
      "zone" : "Sanganer"
    },
    "21" : {
      "address" : "Shop No.4 Gulab Nagar, Rampura Rd, Sanganer",
      "imageRef" : "2021~October~2021-10-14~2~21",
      "isClean" : true,
      "latLng" : "26.8163677,75.7701387",
      "locality" : " Sanganer",
      "time" : "10:14",
      "user" : "vv7k1ZCHPig4lvVExLooudouHHx1",
      "ward" : "88",
      "zone" : "Sanganer"
    },
    "22" : {
      "address" : "Divya Plaza, Nagar Nigam Rd, Gurjaron Ka Mohalla, Dada Gurudev Nagar, Sanganer",
      "imageRef" : "2021~October~2021-10-14~2~22",
      "isAnalysis" : "yes",
      "isClean" : false,
      "latLng" : "26.8186947,75.782895",
      "locality" : " Sanganer",
      "penalty" : "100",
      "time" : "10:16",
      "user" : "5ey5OTJPSaVtScapKMAk3f1NkXA3",
      "ward" : "93",
      "zone" : "Sanganer"
    },
    "23" : {
      "address" : "LNMIIT Bus Stop, Takht E Shahi Rd, Rambagh",
      "imageRef" : "2021~October~2021-10-14~2~23",
      "isAnalysis" : "yes",
      "isClean" : true,
      "latLng" : "26.8972374,75.8105567",
      "locality" : " Rambagh",
      "penalty" : "100",
      "time" : "10:34",
      "user" : "GPotdEk3KiOa4fqpi2UXbBOSYhh2",
      "ward" : "150",
      "zone" : "Malviya Nagar"
    },
    "24" : {
      "address" : "LNMIIT Bus Stop, Takht E Shahi Rd, Rambagh",
      "imageRef" : "2021~October~2021-10-14~2~24",
      "isClean" : true,
      "latLng" : "26.8972374,75.8105567",
      "locality" : " Rambagh",
      "time" : "10:34",
      "user" : "GPotdEk3KiOa4fqpi2UXbBOSYhh2",
      "ward" : "150",
      "zone" : "Malviya Nagar"
    },
    "25" : {
      "address" : "1, Moti Doongri Rd, Tilak Nagar",
      "imageRef" : "2021~October~2021-10-14~2~25",
      "isAnalysis" : "yes",
      "isClean" : false,
      "latLng" : "26.8959768,75.8175794",
      "locality" : " Tilak Nagar",
      "penalty" : "100",
      "time" : "10:50",
      "user" : "GPotdEk3KiOa4fqpi2UXbBOSYhh2",
      "ward" : "148",
      "zone" : "Malviya Nagar"
    },
    "26" : {
      "address" : "9, 9, Bhairav Path, Tilak Nagar",
      "imageRef" : "2021~October~2021-10-14~2~26",
      "isAnalysis" : "yes",
      "isClean" : true,
      "latLng" : "26.8960402,75.8173144",
      "locality" : " Tilak Nagar",
      "penalty" : "100",
      "time" : "10:52",
      "user" : "GPotdEk3KiOa4fqpi2UXbBOSYhh2",
      "ward" : "148",
      "zone" : "Malviya Nagar"
    },
    "27" : {
      "address" : "9, 9, Bhairav Path, Tilak Nagar",
      "imageRef" : "2021~October~2021-10-14~2~27",
      "isClean" : true,
      "latLng" : "26.8960402,75.8173144",
      "locality" : " Tilak Nagar",
      "time" : "10:53",
      "user" : "GPotdEk3KiOa4fqpi2UXbBOSYhh2",
      "ward" : "148",
      "zone" : "Malviya Nagar"
    },
    "28" : {
      "address" : "209C, Rajendra Marg, Bapu Nagar",
      "imageRef" : "2021~October~2021-10-14~2~28",
      "isAnalysis" : "yes",
      "isClean" : true,
      "latLng" : "26.8871387,75.8077228",
      "locality" : " Bapu Nagar",
      "penalty" : "100",
      "time" : "10:54",
      "user" : "25XNe38bkHd2Lhktw7i0AOKBaiY2",
      "ward" : "Not Found",
      "zone" : "Not Found"
    },
    "29" : {
      "address" : "209C, Rajendra Marg, Bapu Nagar",
      "imageRef" : "2021~October~2021-10-14~2~29",
      "isAnalysis" : "yes",
      "isClean" : true,
      "latLng" : "26.8871387,75.8077228",
      "locality" : " Bapu Nagar",
      "penalty" : "100",
      "time" : "10:54",
      "user" : "25XNe38bkHd2Lhktw7i0AOKBaiY2",
      "ward" : "Not Found",
      "zone" : "Not Found"
    },
    "30" : {
      "address" : "Mansarover Metro Station, Padmavti Colony, Nirman Nagar, Ranisati Nagar",
      "imageRef" : "2021~October~2021-10-14~2~30",
      "isClean" : true,
      "latLng" : "26.8795973,75.7499944",
      "locality" : " Ranisati Nagar",
      "time" : "10:54",
      "user" : "LB5ZuA5FjaclXAeRLRT2dIRkowk2",
      "ward" : "64",
      "zone" : "Jhotwara"
    },
    "31" : {
      "address" : "41A, Govind Marg, Tilak Nagar",
      "imageRef" : "2021~October~2021-10-14~2~31",
      "isAnalysis" : "yes",
      "isClean" : false,
      "latLng" : "26.8987648,75.8168978",
      "locality" : " Tilak Nagar",
      "penalty" : "100",
      "time" : "10:55",
      "user" : "GPotdEk3KiOa4fqpi2UXbBOSYhh2",
      "ward" : "148",
      "zone" : "Malviya Nagar"
    },
    "32" : {
      "address" : "WING-B, JAIPUR STOCK EXCHANGE, D-Block, Crystal Court, Malviya Nagar",
      "imageRef" : "2021~October~2021-10-14~2~32",
      "isAnalysis" : "yes",
      "isClean" : true,
      "latLng" : "26.8570103,75.8069834",
      "locality" : " Malviya Nagar",
      "penalty" : "100",
      "time" : "11:00",
      "user" : "AfGurwTzesfcNInqIkyjFGXDoub2",
      "ward" : "130",
      "zone" : "Malviya Nagar"
    },
    "33" : {
      "address" : "Jhotwara, 82,shiv Nagar, 21 south, Niwaru Road, Shanti Path, Jhotwara",
      "imageRef" : "2021~October~2021-10-14~2~33",
      "isAnalysis" : "yes",
      "isClean" : true,
      "latLng" : "26.9577392,75.7345805",
      "locality" : " Jhotwara",
      "penalty" : "100",
      "time" : "11:02",
      "user" : "ev0wnTlCHecAviBhj2QYe4lEAj13",
      "ward" : "28",
      "zone" : "Vidhyadhar"
    },
    "34" : {
      "address" : "Sawaimadhopur Puliya, Dada Gurudev Nagar, Sanganer",
      "imageRef" : "2021~October~2021-10-14~2~34",
      "isAnalysis" : "yes",
      "isClean" : true,
      "latLng" : "26.806745,75.776211",
      "locality" : " Sanganer",
      "penalty" : "100",
      "time" : "11:03",
      "user" : "HSwWpGvJO1P2lkqjZZRTT1Vt0LE3",
      "ward" : "91",
      "zone" : "Sanganer"
    },
    "35" : {
      "address" : "Jhotwara, 82,shiv Nagar, 21 south, Niwaru Road, Shanti Path, Jhotwara",
      "imageRef" : "2021~October~2021-10-14~2~35",
      "isAnalysis" : "yes",
      "isClean" : true,
      "latLng" : "26.9577392,75.7345805",
      "locality" : " Jhotwara",
      "penalty" : "100",
      "time" : "11:05",
      "user" : "ev0wnTlCHecAviBhj2QYe4lEAj13",
      "ward" : "28",
      "zone" : "Vidhyadhar"
    },
    "36" : {
      "address" : "12, New Sanganer Rd, Kalyanpura, Mansarovar",
      "imageRef" : "2021~October~2021-10-14~2~36",
      "isAnalysis" : "yes",
      "isClean" : true,
      "latLng" : "26.8284816,75.7751779",
      "locality" : " Mansarovar",
      "penalty" : "100",
      "time" : "11:06",
      "user" : "EY0cg0gEW0WKz60icDpLpkaWSij2",
      "ward" : "83",
      "zone" : "Mansarovar"
    },
    "37" : {
      "address" : "Diggi Malpura Rd, Dada Gurudev Nagar, Sanganer",
      "imageRef" : "2021~October~2021-10-14~2~37",
      "isAnalysis" : "yes",
      "isClean" : true,
      "latLng" : "26.8070823,75.7768054",
      "locality" : " Sanganer",
      "penalty" : "100",
      "time" : "11:06",
      "user" : "HSwWpGvJO1P2lkqjZZRTT1Vt0LE3",
      "ward" : "92",
      "zone" : "Sanganer"
    },
    "38" : {
      "address" : "XP7R+6GP, Laxmi Nagar III, Ward Number 7, Jhotwara",
      "imageRef" : "2021~October~2021-10-14~2~38",
      "isAnalysis" : "yes",
      "isClean" : true,
      "latLng" : "26.9634135,75.7411252",
      "locality" : " Jhotwara",
      "penalty" : "100",
      "time" : "11:07",
      "user" : "ev0wnTlCHecAviBhj2QYe4lEAj13",
      "ward" : "19",
      "zone" : "Murlipura"
    },
    "39" : {
      "address" : "Public Park- Kartarpur, 3, Govind Marg, Saini Colony, Kartarpur, Gopal Pura Mode",
      "imageRef" : "2021~October~2021-10-14~2~39",
      "isAnalysis" : "yes",
      "isClean" : true,
      "latLng" : "26.8835783,75.7794553",
      "locality" : " Gopal Pura Mode",
      "penalty" : 0,
      "time" : "11:07",
      "user" : "72pBxoOCP7O851FIa9PUtVDLnhQ2",
      "ward" : "144",
      "zone" : "Malviya Nagar"
    },
    "40" : {
      "address" : "C-374, Krishna Nagar-B, Roopnagar, Gopal Pura Mode",
      "imageRef" : "2021~October~2021-10-14~2~40",
      "isClean" : true,
      "latLng" : "26.8802846,75.7804453",
      "locality" : " Gopal Pura Mode",
      "time" : "11:07",
      "user" : "72pBxoOCP7O851FIa9PUtVDLnhQ2",
      "ward" : "78",
      "zone" : "Mansarovar"
    },
    "41" : {
      "address" : "C-3 1st Floor Near Laxmi Mandir Tel: 0141-2740935 Mobile: 9414271614, Sahakar Marg, Laxmi Colony, Lalkothi",
      "imageRef" : "2021~October~2021-10-14~2~41",
      "isClean" : true,
      "latLng" : "26.8786074,75.7970013",
      "locality" : " Lalkothi",
      "time" : "11:08",
      "user" : "IuLu0Y5oXnOBk36uubivHnKRMZE2",
      "ward" : "141",
      "zone" : "Malviya Nagar"
    },
    "42" : {
      "address" : "C-374, Krishna Nagar-B, Roopnagar, Gopal Pura Mode",
      "imageRef" : "2021~October~2021-10-14~2~42",
      "isClean" : true,
      "latLng" : "26.8802846,75.7804453",
      "locality" : " Gopal Pura Mode",
      "time" : "11:09",
      "user" : "72pBxoOCP7O851FIa9PUtVDLnhQ2",
      "ward" : "78",
      "zone" : "Mansarovar"
    },
    "43" : {
      "address" : "C-3 1st Floor Near Laxmi Mandir Tel: 0141-2740935 Mobile: 9414271614, Sahakar Marg, Laxmi Colony, Lalkothi",
      "imageRef" : "2021~October~2021-10-14~2~43",
      "isAnalysis" : "yes",
      "isClean" : true,
      "latLng" : "26.8786074,75.7970013",
      "locality" : " Lalkothi",
      "penalty" : "100",
      "time" : "11:09",
      "user" : "IuLu0Y5oXnOBk36uubivHnKRMZE2",
      "ward" : "141",
      "zone" : "Malviya Nagar"
    },
    "44" : {
      "address" : "46, Nangal Rd, Jhotwara Industrial Area, Jhotwara",
      "imageRef" : "2021~October~2021-10-14~2~44",
      "isAnalysis" : "yes",
      "isClean" : true,
      "latLng" : "26.9615835,75.7457432",
      "locality" : " Jhotwara",
      "penalty" : "100",
      "time" : "11:10",
      "user" : "ev0wnTlCHecAviBhj2QYe4lEAj13",
      "ward" : "14",
      "zone" : "Murlipura"
    },
    "45" : {
      "address" : "1, Hanuman Nagar, Sanganer",
      "imageRef" : "2021~October~2021-10-14~2~45",
      "isAnalysis" : "yes",
      "isClean" : true,
      "latLng" : "26.8081224,75.7792449",
      "locality" : " Sanganer",
      "penalty" : "100",
      "time" : "11:11",
      "user" : "HSwWpGvJO1P2lkqjZZRTT1Vt0LE3",
      "ward" : "92",
      "zone" : "Sanganer"
    },
    "46" : {
      "address" : "31/177, Kamla Nagar, Sanganer, Sector 3, Pratap Nagar",
      "imageRef" : "2021~October~2021-10-14~2~46",
      "isAnalysis" : "yes",
      "isClean" : true,
      "latLng" : "26.8192182,75.7818012",
      "locality" : " Pratap Nagar",
      "penalty" : "100",
      "time" : "11:11",
      "user" : "EY0cg0gEW0WKz60icDpLpkaWSij2",
      "ward" : "90",
      "zone" : "Sanganer"
    },
    "47" : {
      "address" : "Mansarovar, Padmavti Colony, Nirman Nagar, Ranisati Nagar",
      "imageRef" : "2021~October~2021-10-14~2~47",
      "isClean" : true,
      "latLng" : "26.8798023,75.7506459",
      "locality" : " Ranisati Nagar",
      "time" : "11:12",
      "user" : "LB5ZuA5FjaclXAeRLRT2dIRkowk2",
      "ward" : "64",
      "zone" : "Jhotwara"
    },
    "48" : {
      "address" : "26, Sinh Marg, Mahesh Nagar, Vihar",
      "imageRef" : "2021~October~2021-10-14~2~48",
      "isAnalysis" : "yes",
      "isClean" : true,
      "latLng" : "26.8755176,75.7859343",
      "locality" : " Vihar",
      "penalty" : "100",
      "time" : "11:12",
      "user" : "72pBxoOCP7O851FIa9PUtVDLnhQ2",
      "ward" : "79",
      "zone" : "Mansarovar"
    },
    "49" : {
      "address" : "Gate No.5, Bangad Parisar, SMS Hospital, Jawahar Lal Nehru Marg, Ashok Nagar",
      "imageRef" : "2021~October~2021-10-14~2~49",
      "isAnalysis" : "yes",
      "isClean" : true,
      "latLng" : "26.9054809,75.8177445",
      "locality" : " Ashok Nagar",
      "penalty" : "100",
      "time" : "11:13",
      "user" : "GPotdEk3KiOa4fqpi2UXbBOSYhh2",
      "ward" : "150",
      "zone" : "Malviya Nagar"
    },
    "50" : {
      "address" : "1, Hanuman Nagar, Sanganer",
      "imageRef" : "2021~October~2021-10-14~2~50",
      "isClean" : true,
      "latLng" : "26.8081066,75.7792263",
      "locality" : " Sanganer",
      "time" : "11:13",
      "user" : "HSwWpGvJO1P2lkqjZZRTT1Vt0LE3",
      "ward" : "92",
      "zone" : "Sanganer"
    },
    "51" : {
      "address" : "Sawai Ram Singh Rd, Gandhi Nagar",
      "imageRef" : "2021~October~2021-10-14~2~51",
      "isAnalysis" : "yes",
      "isClean" : true,
      "latLng" : "26.8789731,75.7988952",
      "locality" : " Gandhi Nagar",
      "penalty" : "100",
      "time" : "11:14",
      "user" : "IuLu0Y5oXnOBk36uubivHnKRMZE2",
      "ward" : "Not Found",
      "zone" : "Not Found"
    },
    "52" : {
      "address" : "Binjari Marg, Jhotwara Industrial Area, Jhotwara",
      "imageRef" : "2021~October~2021-10-14~2~52",
      "isClean" : true,
      "latLng" : "26.9656773,75.7441332",
      "locality" : " Jhotwara",
      "time" : "11:14",
      "user" : "ev0wnTlCHecAviBhj2QYe4lEAj13",
      "ward" : "14",
      "zone" : "Murlipura"
    },
    "53" : {
      "address" : "26, Sinh Marg, Mahesh Nagar, Vihar",
      "imageRef" : "2021~October~2021-10-14~2~53",
      "isClean" : true,
      "latLng" : "26.8755176,75.7859343",
      "locality" : " Vihar",
      "time" : "11:15",
      "user" : "72pBxoOCP7O851FIa9PUtVDLnhQ2",
      "ward" : "79",
      "zone" : "Mansarovar"
    },
    "54" : {
      "address" : "Sawai Ram Singh Rd, Gandhi Nagar",
      "imageRef" : "2021~October~2021-10-14~2~54",
      "isClean" : true,
      "latLng" : "26.8789731,75.7988952",
      "locality" : " Gandhi Nagar",
      "time" : "11:15",
      "user" : "IuLu0Y5oXnOBk36uubivHnKRMZE2",
      "ward" : "Not Found",
      "zone" : "Not Found"
    },
    "55" : {
      "address" : "Jain Hostel Rd, Nagar Nigam, Bambala",
      "imageRef" : "2021~October~2021-10-14~2~55",
      "isClean" : true,
      "latLng" : "26.8080789,75.7892899",
      "locality" : " Bambala",
      "time" : "11:15",
      "user" : "nVaYec78dlgUhRwoQnWsMMwJJs83",
      "ward" : "94",
      "zone" : "Sanganer"
    },
    "56" : {
      "address" : "Jain Hostel Rd, Nagar Nigam, Bambala",
      "imageRef" : "2021~October~2021-10-14~2~56",
      "isAnalysis" : "yes",
      "isClean" : true,
      "latLng" : "26.8080418,75.7889266",
      "locality" : " Bambala",
      "penalty" : "100",
      "time" : "11:15",
      "user" : "uUvu13vkqOhuuUgVnc6EBFOVi262",
      "ward" : "94",
      "zone" : "Sanganer"
    },
    "57" : {
      "address" : "Mansarovar, Padmavti Colony, Nirman Nagar, Ranisati Nagar",
      "imageRef" : "2021~October~2021-10-14~2~57",
      "isClean" : true,
      "latLng" : "26.8798023,75.7506459",
      "locality" : " Ranisati Nagar",
      "time" : "11:15",
      "user" : "LB5ZuA5FjaclXAeRLRT2dIRkowk2",
      "ward" : "64",
      "zone" : "Jhotwara"
    },
    "58" : {
      "address" : "Mali Samaj Kendra, Mali samaj nKendra, Sanganer, opposite Post Office, Sanganer",
      "imageRef" : "2021~October~2021-10-14~2~58",
      "isAnalysis" : "yes",
      "isClean" : true,
      "latLng" : "26.811128,75.788994",
      "locality" : " Sanganer",
      "penalty" : "100",
      "time" : "11:16",
      "user" : "nVaYec78dlgUhRwoQnWsMMwJJs83",
      "ward" : "94",
      "zone" : "Sanganer"
    },
    "59" : {
      "address" : "26, Diggi Malpura Rd, Printers Colony, Dada Gurudev Nagar, Sanganer",
      "imageRef" : "2021~October~2021-10-14~2~59",
      "isClean" : true,
      "latLng" : "26.8169759,75.7814863",
      "locality" : " Sanganer",
      "time" : "11:16",
      "user" : "EY0cg0gEW0WKz60icDpLpkaWSij2",
      "ward" : "89",
      "zone" : "Sanganer"
    },
    "60" : {
      "address" : "S-14, Arjun Nagar Phatak Rd, Mahesh Nagar, Tagore Nagar, Gopal Pura Mode",
      "imageRef" : "2021~October~2021-10-14~2~60",
      "isClean" : false,
      "latLng" : "26.8806064,75.7881038",
      "locality" : " Gopal Pura Mode",
      "time" : "11:17",
      "user" : "72pBxoOCP7O851FIa9PUtVDLnhQ2",
      "ward" : "140",
      "zone" : "Malviya Nagar"
    },
    "61" : {
      "address" : "S-14, Arjun Nagar Phatak Rd, Mahesh Nagar, Tagore Nagar, Gopal Pura Mode",
      "imageRef" : "2021~October~2021-10-14~2~61",
      "isClean" : false,
      "latLng" : "26.8806064,75.7881038",
      "locality" : " Gopal Pura Mode",
      "time" : "11:17",
      "user" : "72pBxoOCP7O851FIa9PUtVDLnhQ2",
      "ward" : "140",
      "zone" : "Malviya Nagar"
    },
    "62" : {
      "address" : "Mali Samaj Kendra, Mali samaj nKendra, Sanganer, opposite Post Office, Sanganer",
      "imageRef" : "2021~October~2021-10-14~2~62",
      "isClean" : true,
      "latLng" : "26.811128,75.788994",
      "locality" : " Sanganer",
      "time" : "11:17",
      "user" : "nVaYec78dlgUhRwoQnWsMMwJJs83",
      "ward" : "94",
      "zone" : "Sanganer"
    },
    "63" : {
      "address" : "17, 17, Sector 1, Sector 2, Hans Vihar, Mansarovar",
      "imageRef" : "2021~October~2021-10-14~2~63",
      "isClean" : true,
      "latLng" : "26.837827,75.7684795",
      "locality" : " Mansarovar",
      "time" : "11:17",
      "user" : "O4yqmOT1T8aQwXBYTqcdxr4X4bR2",
      "ward" : "83",
      "zone" : "Mansarovar"
    },
    "64" : {
      "address" : "Jain Hostel Rd, Nagar Nigam, Bambala",
      "imageRef" : "2021~October~2021-10-14~2~64",
      "isClean" : true,
      "latLng" : "26.8095202,75.7892899",
      "locality" : " Bambala",
      "time" : "11:17",
      "user" : "uUvu13vkqOhuuUgVnc6EBFOVi262",
      "ward" : "94",
      "zone" : "Sanganer"
    },
    "65" : {
      "address" : "S-14, Arjun Nagar Phatak Rd, Mahesh Nagar, Tagore Nagar, Gopal Pura Mode",
      "imageRef" : "2021~October~2021-10-14~2~65",
      "isAnalysis" : "yes",
      "isClean" : false,
      "latLng" : "26.8806064,75.7881038",
      "locality" : " Gopal Pura Mode",
      "penalty" : "100",
      "time" : "11:18",
      "user" : "72pBxoOCP7O851FIa9PUtVDLnhQ2",
      "ward" : "140",
      "zone" : "Malviya Nagar"
    },
    "66" : {
      "address" : "Bus Stop-Shiv Nagar, Benar Rd, Shiv Nagar, Murlipura Scheme, Jhotwara",
      "imageRef" : "2021~October~2021-10-14~2~66",
      "isClean" : true,
      "latLng" : "26.9694653,75.7529893",
      "locality" : " Jhotwara",
      "time" : "11:19",
      "user" : "ev0wnTlCHecAviBhj2QYe4lEAj13",
      "ward" : "14",
      "zone" : "Murlipura"
    },
    "67" : {
      "address" : "Mali Samaj Kendra, Mali samaj nKendra, Sanganer, opposite Post Office, Sanganer",
      "imageRef" : "2021~October~2021-10-14~2~67",
      "isClean" : true,
      "latLng" : "26.811128,75.788994",
      "locality" : " Sanganer",
      "time" : "11:19",
      "user" : "nVaYec78dlgUhRwoQnWsMMwJJs83",
      "ward" : "94",
      "zone" : "Sanganer"
    },
    "68" : {
      "address" : "26/27, Sikarpura Rd, Subhash Colony, Sanganer, Bambala",
      "imageRef" : "2021~October~2021-10-14~2~68",
      "isClean" : true,
      "latLng" : "26.8088736,75.7900165",
      "locality" : " Bambala",
      "time" : "11:19",
      "user" : "uUvu13vkqOhuuUgVnc6EBFOVi262",
      "ward" : "94",
      "zone" : "Sanganer"
    },
    "69" : {
      "address" : "SHOP NO. 51, KISAAN MARKET, SECOND FLOOR, FRONT OF PARDIYA HOSPITAL, Gurjaron Ka Mohalla, Dada Gurudev Nagar, Sanganer",
      "imageRef" : "2021~October~2021-10-14~2~69",
      "isClean" : true,
      "latLng" : "26.8169775,75.7815725",
      "locality" : " Sanganer",
      "time" : "11:19",
      "user" : "EY0cg0gEW0WKz60icDpLpkaWSij2",
      "ward" : "93",
      "zone" : "Sanganer"
    },
    "70" : {
      "address" : "123, 339, New Sanganer Rd, opp. Sitaram Mandir Agarwal Farm, Sector 12, Mansarovar",
      "imageRef" : "2021~October~2021-10-14~2~70",
      "isClean" : true,
      "latLng" : "26.8422466,75.7667529",
      "locality" : " Mansarovar",
      "time" : "11:20",
      "user" : "O4yqmOT1T8aQwXBYTqcdxr4X4bR2",
      "ward" : "75",
      "zone" : "Mansarovar"
    },
    "71" : {
      "address" : "298, Tonk Rd, Adarsh Basti, Madhuvan Colony, Barkat Nagar",
      "imageRef" : "2021~October~2021-10-14~2~71",
      "isClean" : true,
      "latLng" : "26.8778493,75.7949523",
      "locality" : " Barkat Nagar",
      "time" : "11:21",
      "user" : "IuLu0Y5oXnOBk36uubivHnKRMZE2",
      "ward" : "141",
      "zone" : "Malviya Nagar"
    },
    "72" : {
      "address" : "95, Kundan Nagar",
      "imageRef" : "2021~October~2021-10-14~2~72",
      "isAnalysis" : "yes",
      "isClean" : false,
      "latLng" : "26.8188246,75.7921961",
      "locality" : " Kundan Nagar",
      "penalty" : "100",
      "time" : "11:22",
      "user" : "5ey5OTJPSaVtScapKMAk3f1NkXA3",
      "ward" : "104",
      "zone" : "Jagatpura"
    },
    "73" : {
      "address" : "93, 93, Lane 6, Padmavati B Colony, Padmavti Colony, Nirman Nagar, Brijlalpura",
      "imageRef" : "2021~October~2021-10-14~2~73",
      "isClean" : true,
      "latLng" : "26.8822267,75.7527714",
      "locality" : " Brijlalpura",
      "time" : "11:22",
      "user" : "LB5ZuA5FjaclXAeRLRT2dIRkowk2",
      "ward" : "Not Found",
      "zone" : "Not Found"
    },
    "74" : {
      "address" : "72, Adarsh Krishna Nagar, Kartarpura Phatak, Imli Phatak, Near",
      "imageRef" : "2021~October~2021-10-14~2~74",
      "isAnalysis" : "yes",
      "isClean" : true,
      "latLng" : "26.8872283,75.7893188",
      "locality" : " Near",
      "penalty" : "100",
      "time" : "11:22",
      "user" : "IuLu0Y5oXnOBk36uubivHnKRMZE2",
      "ward" : "145",
      "zone" : "Malviya Nagar"
    },
    "75" : {
      "address" : "93, 93, Lane 6, Padmavati B Colony, Padmavti Colony, Nirman Nagar, Brijlalpura",
      "imageRef" : "2021~October~2021-10-14~2~75",
      "isAnalysis" : "yes",
      "isClean" : true,
      "latLng" : "26.8822267,75.7527714",
      "locality" : " Brijlalpura",
      "penalty" : "100",
      "time" : "11:22",
      "user" : "LB5ZuA5FjaclXAeRLRT2dIRkowk2",
      "ward" : "Not Found",
      "zone" : "Not Found"
    },
    "76" : {
      "address" : "Unnamed Road, Dada Gurudev Nagar, Bambala",
      "imageRef" : "2021~October~2021-10-14~2~76",
      "isClean" : true,
      "latLng" : "26.8109731,75.7810269",
      "locality" : " Bambala",
      "time" : "11:22",
      "user" : "EY0cg0gEW0WKz60icDpLpkaWSij2",
      "ward" : "92",
      "zone" : "Sanganer"
    },
    "77" : {
      "address" : "95, Kundan Nagar",
      "imageRef" : "2021~October~2021-10-14~2~77",
      "isClean" : false,
      "latLng" : "26.8188246,75.7921961",
      "locality" : " Kundan Nagar",
      "time" : "11:22",
      "user" : "5ey5OTJPSaVtScapKMAk3f1NkXA3",
      "ward" : "104",
      "zone" : "Jagatpura"
    },
    "78" : {
      "address" : "72, Adarsh Krishna Nagar, Kartarpura Phatak, Imli Phatak, Near",
      "imageRef" : "2021~October~2021-10-14~2~78",
      "isClean" : true,
      "latLng" : "26.8872283,75.7893188",
      "locality" : " Near",
      "time" : "11:23",
      "user" : "IuLu0Y5oXnOBk36uubivHnKRMZE2",
      "ward" : "145",
      "zone" : "Malviya Nagar"
    },
    "79" : {
      "address" : "RQX7+8CJ, Mansarovar",
      "imageRef" : "2021~October~2021-10-14~2~79",
      "isClean" : true,
      "latLng" : "26.8484228,75.7635048",
      "locality" : " Mansarovar",
      "time" : "11:23",
      "user" : "O4yqmOT1T8aQwXBYTqcdxr4X4bR2",
      "ward" : "74",
      "zone" : "Mansarovar"
    },
    "80" : {
      "address" : "72, Adarsh Krishna Nagar, Kartarpura Phatak, Imli Phatak, Near",
      "imageRef" : "2021~October~2021-10-14~2~80",
      "isAnalysis" : "yes",
      "isClean" : true,
      "latLng" : "26.8872283,75.7893188",
      "locality" : " Near",
      "penalty" : "100",
      "time" : "11:24",
      "user" : "IuLu0Y5oXnOBk36uubivHnKRMZE2",
      "ward" : "145",
      "zone" : "Malviya Nagar"
    },
    "81" : {
      "address" : "4, Tonk Rd, C-Scheme, Sangram Colony, Ashok Nagar",
      "imageRef" : "2021~October~2021-10-14~2~81",
      "isClean" : true,
      "latLng" : "26.9089157,75.8152726",
      "locality" : " Ashok Nagar",
      "time" : "11:25",
      "user" : "GPotdEk3KiOa4fqpi2UXbBOSYhh2",
      "ward" : "150",
      "zone" : "Malviya Nagar"
    },
    "82" : {
      "address" : "61, Natraj Nagar, J P Colony, Tonk Phatak",
      "imageRef" : "2021~October~2021-10-14~2~82",
      "isClean" : true,
      "latLng" : "26.8861339,75.7948841",
      "locality" : " Tonk Phatak",
      "time" : "11:25",
      "user" : "IuLu0Y5oXnOBk36uubivHnKRMZE2",
      "ward" : "145",
      "zone" : "Malviya Nagar"
    },
    "83" : {
      "address" : "9587541630 8386824772, Laxmi Nagar III, Jagannath Puri, Suraj Nagar, Jhotwara",
      "imageRef" : "2021~October~2021-10-14~2~83",
      "isAnalysis" : "yes",
      "isClean" : true,
      "latLng" : "26.9448325,75.746677",
      "locality" : " Jhotwara",
      "penalty" : "100",
      "time" : "11:25",
      "user" : "q824l6Y9DwXAx5nm9I9C1cImcRo1",
      "ward" : "32",
      "zone" : "Vidhyadhar"
    },
    "84" : {
      "address" : "XQ74+7XF, Dahar Ka Balaji",
      "imageRef" : "2021~October~2021-10-14~2~84",
      "isClean" : true,
      "latLng" : "26.9632493,75.7569763",
      "locality" : " Dahar Ka Balaji",
      "time" : "11:26",
      "user" : "ev0wnTlCHecAviBhj2QYe4lEAj13",
      "ward" : "Not Found",
      "zone" : "Not Found"
    },
    "85" : {
      "address" : "61, Natraj Nagar, J P Colony, Tonk Phatak",
      "imageRef" : "2021~October~2021-10-14~2~85",
      "isAnalysis" : "yes",
      "isClean" : true,
      "latLng" : "26.8861339,75.7948841",
      "locality" : " Tonk Phatak",
      "penalty" : "100",
      "time" : "11:26",
      "user" : "IuLu0Y5oXnOBk36uubivHnKRMZE2",
      "ward" : "145",
      "zone" : "Malviya Nagar"
    },
    "86" : {
      "address" : "B-1, B-1, Hospital Rd, near SMS Hospital, Panch Batti, Sangram Colony, Ashok Nagar",
      "imageRef" : "2021~October~2021-10-14~2~86",
      "isAnalysis" : "yes",
      "isClean" : true,
      "latLng" : "26.9066677,75.8143977",
      "locality" : " Ashok Nagar",
      "penalty" : "100",
      "time" : "11:27",
      "user" : "GPotdEk3KiOa4fqpi2UXbBOSYhh2",
      "ward" : "150",
      "zone" : "Malviya Nagar"
    },
    "87" : {
      "address" : "B-1, B-1, Hospital Rd, near SMS Hospital, Panch Batti, Sangram Colony, Ashok Nagar",
      "imageRef" : "2021~October~2021-10-14~2~87",
      "isAnalysis" : "yes",
      "isClean" : false,
      "latLng" : "26.9066677,75.8143977",
      "locality" : " Ashok Nagar",
      "penalty" : "100",
      "time" : "11:27",
      "user" : "GPotdEk3KiOa4fqpi2UXbBOSYhh2",
      "ward" : "150",
      "zone" : "Malviya Nagar"
    },
    "88" : {
      "address" : "A-12B, Kings Rd, Padmavti Colony, Nirman Nagar, Brijlalpura",
      "imageRef" : "2021~October~2021-10-14~2~88",
      "isAnalysis" : "yes",
      "isClean" : true,
      "latLng" : "26.8800785,75.7513179",
      "locality" : " Brijlalpura",
      "penalty" : "100",
      "time" : "11:27",
      "user" : "LB5ZuA5FjaclXAeRLRT2dIRkowk2",
      "ward" : "64",
      "zone" : "Jhotwara"
    },
    "89" : {
      "address" : "Road, 43, Madan vihar, Dadi Ka Phatak, Dahar Ka Balaji",
      "imageRef" : "2021~October~2021-10-14~2~89",
      "isClean" : true,
      "latLng" : "26.9664401,75.7554709",
      "locality" : " Dahar Ka Balaji",
      "time" : "11:28",
      "user" : "ev0wnTlCHecAviBhj2QYe4lEAj13",
      "ward" : "14",
      "zone" : "Murlipura"
    },
    "90" : {
      "address" : "78, Sahakar Marg, Lal Kothi Scheme, Lalkothi",
      "imageRef" : "2021~October~2021-10-14~2~90",
      "isClean" : true,
      "latLng" : "26.8855678,75.7961759",
      "locality" : " Lalkothi",
      "time" : "11:28",
      "user" : "IuLu0Y5oXnOBk36uubivHnKRMZE2",
      "ward" : "142",
      "zone" : "Malviya Nagar"
    },
    "91" : {
      "address" : "Plot No 38 Krishna Nagar 160 Feet Boring Road, Kalwar Road Jhotwara Jaipur, Bismilla Colony, Jagannath Puri, Suraj Nagar, Jhotwara",
      "imageRef" : "2021~October~2021-10-14~2~91",
      "isAnalysis" : "yes",
      "isClean" : true,
      "latLng" : "26.9472209,75.7472265",
      "locality" : " Jhotwara",
      "penalty" : "100",
      "time" : "11:28",
      "user" : "q824l6Y9DwXAx5nm9I9C1cImcRo1",
      "ward" : "30",
      "zone" : "Vidhyadhar"
    },
    "92" : {
      "address" : "B-1, B-1, Hospital Rd, near SMS Hospital, Panch Batti, Sangram Colony, Ashok Nagar",
      "imageRef" : "2021~October~2021-10-14~2~92",
      "isClean" : true,
      "latLng" : "26.9066677,75.8143977",
      "locality" : " Ashok Nagar",
      "time" : "11:29",
      "user" : "GPotdEk3KiOa4fqpi2UXbBOSYhh2",
      "ward" : "150",
      "zone" : "Malviya Nagar"
    },
    "93" : {
      "address" : "2, Tonk Rd, Shatabdi Nagar, Govardhan Nagar, Jpr, Sanganer, Bambala",
      "imageRef" : "2021~October~2021-10-14~2~93",
      "isClean" : true,
      "latLng" : "26.7815646,75.8247366",
      "locality" : " Bambala",
      "time" : "11:29",
      "user" : "tjQcARGrniW8PEhtrU4ADFo4etl1",
      "ward" : "99",
      "zone" : "Sanganer"
    },
    "94" : {
      "address" : "78, Sahakar Marg, Lal Kothi Scheme, Lalkothi",
      "imageRef" : "2021~October~2021-10-14~2~94",
      "isAnalysis" : "yes",
      "isClean" : true,
      "latLng" : "26.8855678,75.7961759",
      "locality" : " Lalkothi",
      "penalty" : "100",
      "time" : "11:29",
      "user" : "IuLu0Y5oXnOBk36uubivHnKRMZE2",
      "ward" : "142",
      "zone" : "Malviya Nagar"
    },
    "95" : {
      "address" : "A-12B, Kings Rd, Padmavti Colony, Nirman Nagar, Brijlalpura",
      "imageRef" : "2021~October~2021-10-14~2~95",
      "isAnalysis" : "yes",
      "isClean" : true,
      "latLng" : "26.8800785,75.7513179",
      "locality" : " Brijlalpura",
      "penalty" : "100",
      "time" : "11:29",
      "user" : "LB5ZuA5FjaclXAeRLRT2dIRkowk2",
      "ward" : "64",
      "zone" : "Jhotwara"
    },
    "96" : {
      "address" : "21, near a, Ramdara Colony, Mahaveer Nagar Y, Dada Gurudev Nagar, Sanganer",
      "imageRef" : "2021~October~2021-10-14~2~96",
      "isClean" : true,
      "latLng" : "26.8173054,75.7738545",
      "locality" : " Sanganer",
      "time" : "11:30",
      "user" : "EY0cg0gEW0WKz60icDpLpkaWSij2",
      "ward" : "89",
      "zone" : "Sanganer"
    },
    "97" : {
      "address" : "A-12B, Kings Rd, Padmavti Colony, Nirman Nagar, Brijlalpura",
      "imageRef" : "2021~October~2021-10-14~2~97",
      "isClean" : true,
      "latLng" : "26.8800785,75.7513179",
      "locality" : " Brijlalpura",
      "time" : "11:30",
      "user" : "LB5ZuA5FjaclXAeRLRT2dIRkowk2",
      "ward" : "64",
      "zone" : "Jhotwara"
    },
    "98" : {
      "address" : "101/183, Sh-12, Ward Number 43, Sector 101, Sector 102, Mansarovar",
      "imageRef" : "2021~October~2021-10-14~2~98",
      "isClean" : true,
      "latLng" : "26.8494003,75.7634943",
      "locality" : " Mansarovar",
      "time" : "11:30",
      "user" : "O4yqmOT1T8aQwXBYTqcdxr4X4bR2",
      "ward" : "75",
      "zone" : "Mansarovar"
    },
    "99" : {
      "address" : "78, Sahakar Marg, Lal Kothi Scheme, Lalkothi",
      "imageRef" : "2021~October~2021-10-14~2~99",
      "isClean" : true,
      "latLng" : "26.8855678,75.7961759",
      "locality" : " Lalkothi",
      "time" : "11:30",
      "user" : "IuLu0Y5oXnOBk36uubivHnKRMZE2",
      "ward" : "142",
      "zone" : "Malviya Nagar"
    },
    "100" : {
      "address" : "59, 200 Feet Bypass Rd, Laxmi Nagar III, Jagannath Puri, Gopi Nagar, Jhotwara",
      "imageRef" : "2021~October~2021-10-14~2~100",
      "isClean" : true,
      "latLng" : "26.9488984,75.7459107",
      "locality" : " Jhotwara",
      "time" : "11:31",
      "user" : "q824l6Y9DwXAx5nm9I9C1cImcRo1",
      "ward" : "29",
      "zone" : "Vidhyadhar"
    },
    "101" : {
      "address" : "RQ8F+XF6, Ramdara Colony, Dada Gurudev Nagar, Sanganer",
      "imageRef" : "2021~October~2021-10-14~2~101",
      "isAnalysis" : "yes",
      "isClean" : true,
      "latLng" : "26.8174338,75.7737015",
      "locality" : " Sanganer",
      "penalty" : "100",
      "time" : "11:31",
      "user" : "EY0cg0gEW0WKz60icDpLpkaWSij2",
      "ward" : "89",
      "zone" : "Sanganer"
    },
    "102" : {
      "address" : "Shivaji Marg, Hotel Diggi Palace, Near Maharani College, Tonk Road, 17, Dusadon Ka Bagh, Sangram Colony, Ashok Nagar",
      "imageRef" : "2021~October~2021-10-14~2~102",
      "isClean" : true,
      "latLng" : "26.909417,75.8142397",
      "locality" : " Ashok Nagar",
      "time" : "11:31",
      "user" : "GPotdEk3KiOa4fqpi2UXbBOSYhh2",
      "ward" : "150",
      "zone" : "Malviya Nagar"
    },
    "103" : {
      "address" : "Ganesham-1, Basement, Opposite J.P. Phatak,, Sahakar Marg, Lalkothi",
      "imageRef" : "2021~October~2021-10-14~2~103",
      "isClean" : true,
      "latLng" : "26.8821283,75.7980372",
      "locality" : " Lalkothi",
      "time" : "11:31",
      "user" : "IuLu0Y5oXnOBk36uubivHnKRMZE2",
      "ward" : "142",
      "zone" : "Malviya Nagar"
    },
    "104" : {
      "address" : "Ganesham-1, Basement, Opposite J.P. Phatak,, Sahakar Marg, Lalkothi",
      "imageRef" : "2021~October~2021-10-14~2~104",
      "isClean" : true,
      "latLng" : "26.8821283,75.7980372",
      "locality" : " Lalkothi",
      "time" : "11:32",
      "user" : "IuLu0Y5oXnOBk36uubivHnKRMZE2",
      "ward" : "142",
      "zone" : "Malviya Nagar"
    },
    "105" : {
      "address" : "Unnamed Road, Lalkothi",
      "imageRef" : "2021~October~2021-10-14~2~105",
      "isClean" : true,
      "latLng" : "26.8825025,75.7994771",
      "locality" : " Lalkothi",
      "time" : "11:33",
      "user" : "IuLu0Y5oXnOBk36uubivHnKRMZE2",
      "ward" : "142",
      "zone" : "Malviya Nagar"
    },
    "106" : {
      "address" : "200, near Golden bakery, Laxmi Nagar III, Jagannath Puri, Shivaji Nagar, Jhotwara",
      "imageRef" : "2021~October~2021-10-14~2~106",
      "isClean" : true,
      "latLng" : "26.9487292,75.747371",
      "locality" : " Jhotwara",
      "time" : "11:33",
      "user" : "q824l6Y9DwXAx5nm9I9C1cImcRo1",
      "ward" : "29",
      "zone" : "Vidhyadhar"
    },
    "107" : {
      "address" : "plot no. 70 b, Mahaveer Colony, Shatabdi Nagar, Sitapura",
      "imageRef" : "2021~October~2021-10-14~2~107",
      "isClean" : true,
      "latLng" : "26.7866325,75.8205767",
      "locality" : " Sitapura",
      "time" : "11:34",
      "user" : "tjQcARGrniW8PEhtrU4ADFo4etl1",
      "ward" : "99",
      "zone" : "Sanganer"
    },
    "108" : {
      "address" : "Unnamed Road, Lalkothi",
      "imageRef" : "2021~October~2021-10-14~2~108",
      "isClean" : true,
      "latLng" : "26.8825025,75.7994771",
      "locality" : " Lalkothi",
      "time" : "11:35",
      "user" : "IuLu0Y5oXnOBk36uubivHnKRMZE2",
      "ward" : "142",
      "zone" : "Malviya Nagar"
    },
    "109" : {
      "address" : "Unnamed Road, Lalkothi",
      "imageRef" : "2021~October~2021-10-14~2~109",
      "isClean" : true,
      "latLng" : "26.8825025,75.7994771",
      "locality" : " Lalkothi",
      "time" : "11:35",
      "user" : "IuLu0Y5oXnOBk36uubivHnKRMZE2",
      "ward" : "142",
      "zone" : "Malviya Nagar"
    },
    "110" : {
      "address" : "503, Apex Tower, 5th Floor, Lalkothi Tonk Road,Opp. Apex Mall Kanji Restaurant, Lalkothi",
      "imageRef" : "2021~October~2021-10-14~2~110",
      "isClean" : true,
      "latLng" : "26.8852301,75.8014399",
      "locality" : " Lalkothi",
      "time" : "11:36",
      "user" : "IuLu0Y5oXnOBk36uubivHnKRMZE2",
      "ward" : "142",
      "zone" : "Malviya Nagar"
    },
    "111" : {
      "address" : "275, Maelinu Nagar, Jagannath Puri, Madina Colony, Jhotwara",
      "imageRef" : "2021~October~2021-10-14~2~111",
      "isAnalysis" : "yes",
      "isClean" : true,
      "latLng" : "26.9500828,75.749469",
      "locality" : " Jhotwara",
      "penalty" : "100",
      "time" : "11:36",
      "user" : "q824l6Y9DwXAx5nm9I9C1cImcRo1",
      "ward" : "29",
      "zone" : "Vidhyadhar"
    },
    "112" : {
      "address" : "P.NO 2A-2B OPP DADABADI, DADA GURUDEV NAGAR, SANGANER, Gopi Nagar, Dada Gurudev Nagar, Sanganer",
      "imageRef" : "2021~October~2021-10-14~2~112",
      "isClean" : true,
      "latLng" : "26.8180184,75.7755487",
      "locality" : " Sanganer",
      "time" : "11:36",
      "user" : "EY0cg0gEW0WKz60icDpLpkaWSij2",
      "ward" : "89",
      "zone" : "Sanganer"
    },
    "113" : {
      "address" : "503, Apex Tower, 5th Floor, Lalkothi Tonk Road,Opp. Apex Mall Kanji Restaurant, Lalkothi",
      "imageRef" : "2021~October~2021-10-14~2~113",
      "isClean" : true,
      "latLng" : "26.8852301,75.8014399",
      "locality" : " Lalkothi",
      "time" : "11:37",
      "user" : "IuLu0Y5oXnOBk36uubivHnKRMZE2",
      "ward" : "142",
      "zone" : "Malviya Nagar"
    },
    "114" : {
      "address" : "RRC5+GG3, Maruti Nagar",
      "imageRef" : "2021~October~2021-10-14~2~114",
      "isClean" : false,
      "latLng" : "26.8213509,75.8089185",
      "locality" : " Maruti Nagar",
      "time" : "11:37",
      "user" : "n8U24UXDq5OckN6Yw6pdO2b0Swg2",
      "ward" : "111",
      "zone" : "Jagatpura"
    },
    "115" : {
      "address" : "E-812, Satya Vihar, Krishna Nagar I, Lalkothi",
      "imageRef" : "2021~October~2021-10-14~2~115",
      "isClean" : true,
      "latLng" : "26.886813,75.8003468",
      "locality" : " Lalkothi",
      "time" : "11:38",
      "user" : "IuLu0Y5oXnOBk36uubivHnKRMZE2",
      "ward" : "142",
      "zone" : "Malviya Nagar"
    },
    "116" : {
      "address" : "E-812, Satya Vihar, Krishna Nagar I, Lalkothi",
      "imageRef" : "2021~October~2021-10-14~2~116",
      "isClean" : true,
      "latLng" : "26.886813,75.8003468",
      "locality" : " Lalkothi",
      "time" : "11:39",
      "user" : "IuLu0Y5oXnOBk36uubivHnKRMZE2",
      "ward" : "142",
      "zone" : "Malviya Nagar"
    },
    "117" : {
      "address" : "60-B, Jhotwara Industrial Area, Jhotwara",
      "imageRef" : "2021~October~2021-10-14~2~117",
      "isClean" : true,
      "latLng" : "26.9492673,75.7534001",
      "locality" : " Jhotwara",
      "time" : "11:39",
      "user" : "q824l6Y9DwXAx5nm9I9C1cImcRo1",
      "ward" : "30",
      "zone" : "Vidhyadhar"
    },
    "118" : {
      "address" : "144, Ghat Ki Guni",
      "imageRef" : "2021~October~2021-10-14~2~118",
      "isClean" : true,
      "latLng" : "26.859425,75.8251567",
      "locality" : " Ghat Ki Guni",
      "time" : "11:39",
      "user" : "w0YCfewlsAZXqrlU2EdmhEZXWw22",
      "ward" : "110",
      "zone" : "Jagatpura"
    },
    "119" : {
      "address" : "60-B, Jhotwara Industrial Area, Jhotwara",
      "imageRef" : "2021~October~2021-10-14~2~119",
      "isClean" : true,
      "latLng" : "26.9491512,75.7533783",
      "locality" : " Jhotwara",
      "time" : "11:39",
      "user" : "q824l6Y9DwXAx5nm9I9C1cImcRo1",
      "ward" : "30",
      "zone" : "Vidhyadhar"
    },
    "120" : {
      "address" : "No 67, Muhana Rd, Sumer Nagar, Mansarovar",
      "imageRef" : "2021~October~2021-10-14~2~120",
      "isClean" : true,
      "latLng" : "26.8528964,75.7558628",
      "locality" : " Mansarovar",
      "time" : "11:43",
      "user" : "O4yqmOT1T8aQwXBYTqcdxr4X4bR2",
      "ward" : "74",
      "zone" : "Mansarovar"
    },
    "121" : {
      "address" : "85-90/II, Model Town, Malviya Nagar",
      "imageRef" : "2021~October~2021-10-14~2~121",
      "isClean" : true,
      "latLng" : "26.8488689,75.8262323",
      "locality" : " Malviya Nagar",
      "time" : "11:43",
      "user" : "w0YCfewlsAZXqrlU2EdmhEZXWw22",
      "ward" : "109",
      "zone" : "Jagatpura"
    },
    "122" : {
      "address" : "85-90/II, Model Town, Malviya Nagar",
      "imageRef" : "2021~October~2021-10-14~2~122",
      "isClean" : true,
      "latLng" : "26.8488736,75.8262319",
      "locality" : " Malviya Nagar",
      "time" : "11:44",
      "user" : "w0YCfewlsAZXqrlU2EdmhEZXWw22",
      "ward" : "109",
      "zone" : "Jagatpura"
    },
    "123" : {
      "address" : "48A, Patel Vihar, Sunder Nagar",
      "imageRef" : "2021~October~2021-10-14~2~123",
      "isClean" : true,
      "latLng" : "26.8506368,75.7561097",
      "locality" : " Sunder Nagar",
      "time" : "11:45",
      "user" : "O4yqmOT1T8aQwXBYTqcdxr4X4bR2",
      "ward" : "74",
      "zone" : "Mansarovar"
    },
    "124" : {
      "address" : "THE ROYAL SUPER SPECIALITY CLINIC, ANUKAMPA APARTMENT, Model Town, Malviya Nagar",
      "imageRef" : "2021~October~2021-10-14~2~124",
      "isClean" : true,
      "latLng" : "26.8463265,75.8243622",
      "locality" : " Malviya Nagar",
      "time" : "11:45",
      "user" : "w0YCfewlsAZXqrlU2EdmhEZXWw22",
      "ward" : "109",
      "zone" : "Jagatpura"
    },
    "125" : {
      "address" : "sky diomond bulding 03, Patel Vihar, mansarover extension",
      "imageRef" : "2021~October~2021-10-14~2~125",
      "isClean" : true,
      "latLng" : "26.8506327,75.7579308",
      "locality" : " mansarover extension",
      "time" : "11:47",
      "user" : "O4yqmOT1T8aQwXBYTqcdxr4X4bR2",
      "ward" : "74",
      "zone" : "Mansarovar"
    },
    "126" : {
      "address" : "H Street Number 1, Model Town, Malviya Nagar",
      "imageRef" : "2021~October~2021-10-14~2~126",
      "isClean" : true,
      "latLng" : "26.8446559,75.8233385",
      "locality" : " Malviya Nagar",
      "time" : "11:47",
      "user" : "w0YCfewlsAZXqrlU2EdmhEZXWw22",
      "ward" : "109",
      "zone" : "Jagatpura"
    },
    "127" : {
      "address" : "OFFICE NO.2, FIRST FLOOR, VIRENDRA TOWER, NEAR CITY BUS STOP, SANGANER, Printers Colony, Dada Gurudev Nagar, Sanganer",
      "imageRef" : "2021~October~2021-10-14~2~127",
      "isClean" : true,
      "latLng" : "26.8158693,75.7832848",
      "locality" : " Sanganer",
      "time" : "11:48",
      "user" : "EY0cg0gEW0WKz60icDpLpkaWSij2",
      "ward" : "93",
      "zone" : "Sanganer"
    },
    "128" : {
      "address" : "A298, A298, Vinay Path, Triveni Nagar",
      "imageRef" : "2021~October~2021-10-14~2~128",
      "isClean" : true,
      "latLng" : "26.8644287,75.7776889",
      "locality" : " Triveni Nagar",
      "time" : "11:51",
      "user" : "36rAylHB1BS70xLwl7Qct26isRE2",
      "ward" : "80",
      "zone" : "Mansarovar"
    },
    "129" : {
      "address" : "1, Sanganer, Pratap Nagar, Bambala Institutional Area",
      "imageRef" : "2021~October~2021-10-14~2~129",
      "isAnalysis" : "yes",
      "isClean" : true,
      "latLng" : "26.7913608,75.8137474",
      "locality" : " Bambala Institutional Area",
      "penalty" : "100",
      "time" : "11:52",
      "user" : "bKMm4RGBkcbqQ85cASW4mhP5WLy2",
      "ward" : "98",
      "zone" : "Sanganer"
    },
    "130" : {
      "address" : "Shop No 28 Third Floor Plot No 2 / 25, New Sanganer Rd, opposite Ganga Marriage Garden, Sector II, Shukalpura, Mansarovar",
      "imageRef" : "2021~October~2021-10-14~2~130",
      "isClean" : true,
      "latLng" : "26.8720467,75.7500423",
      "locality" : " Mansarovar",
      "time" : "11:53",
      "user" : "LB5ZuA5FjaclXAeRLRT2dIRkowk2",
      "ward" : "69",
      "zone" : "Mansarovar"
    },
    "131" : {
      "address" : "A298, A298, Vinay Path, Triveni Nagar",
      "imageRef" : "2021~October~2021-10-14~2~131",
      "isAnalysis" : "yes",
      "isClean" : true,
      "latLng" : "26.8645058,75.7777263",
      "locality" : " Triveni Nagar",
      "penalty" : "100",
      "time" : "11:54",
      "user" : "36rAylHB1BS70xLwl7Qct26isRE2",
      "ward" : "80",
      "zone" : "Mansarovar"
    },
    "132" : {
      "address" : "J-2/34, Mahavir Marg, Panch Batti, C Scheme, Ashok Nagar",
      "imageRef" : "2021~October~2021-10-14~2~132",
      "isClean" : true,
      "latLng" : "26.9147077,75.8128456",
      "locality" : " Ashok Nagar",
      "time" : "11:54",
      "user" : "GPotdEk3KiOa4fqpi2UXbBOSYhh2",
      "ward" : "150",
      "zone" : "Malviya Nagar"
    },
    "133" : {
      "address" : "1, Sanganer, Pratap Nagar, Bambala Institutional Area",
      "imageRef" : "2021~October~2021-10-14~2~133",
      "isAnalysis" : "yes",
      "isClean" : true,
      "latLng" : "26.7913608,75.8137474",
      "locality" : " Bambala Institutional Area",
      "penalty" : "100",
      "time" : "11:55",
      "user" : "bKMm4RGBkcbqQ85cASW4mhP5WLy2",
      "ward" : "98",
      "zone" : "Sanganer"
    },
    "134" : {
      "address" : "J-2/34, Mahavir Marg, Panch Batti, C Scheme, Ashok Nagar",
      "imageRef" : "2021~October~2021-10-14~2~134",
      "isAnalysis" : "yes",
      "isClean" : true,
      "latLng" : "26.9147077,75.8128456",
      "locality" : " Ashok Nagar",
      "penalty" : "100",
      "time" : "11:55",
      "user" : "GPotdEk3KiOa4fqpi2UXbBOSYhh2",
      "ward" : "150",
      "zone" : "Malviya Nagar"
    },
    "135" : {
      "address" : "Shop No 28 Third Floor Plot No 2 / 25, New Sanganer Rd, opposite Ganga Marriage Garden, Sector II, Shukalpura, Mansarovar",
      "imageRef" : "2021~October~2021-10-14~2~135",
      "isAnalysis" : "yes",
      "isClean" : true,
      "latLng" : "26.8720467,75.7500423",
      "locality" : " Mansarovar",
      "penalty" : "100",
      "time" : "11:56",
      "user" : "LB5ZuA5FjaclXAeRLRT2dIRkowk2",
      "ward" : "69",
      "zone" : "Mansarovar"
    },
    "136" : {
      "address" : "J-2/34, Mahavir Marg, Panch Batti, C Scheme, Ashok Nagar",
      "imageRef" : "2021~October~2021-10-14~2~136",
      "isClean" : true,
      "latLng" : "26.9147077,75.8128456",
      "locality" : " Ashok Nagar",
      "time" : "11:57",
      "user" : "GPotdEk3KiOa4fqpi2UXbBOSYhh2",
      "ward" : "150",
      "zone" : "Malviya Nagar"
    },
    "137" : {
      "address" : "A298, A298, Vinay Path, Triveni Nagar",
      "imageRef" : "2021~October~2021-10-14~2~137",
      "isAnalysis" : "yes",
      "isClean" : true,
      "latLng" : "26.8645058,75.7777263",
      "locality" : " Triveni Nagar",
      "penalty" : "100",
      "time" : "12:00",
      "user" : "36rAylHB1BS70xLwl7Qct26isRE2",
      "ward" : "80",
      "zone" : "Mansarovar"
    },
    "138" : {
      "address" : "Shop No 28 Third Floor Plot No 2 / 25, New Sanganer Rd, opposite Ganga Marriage Garden, Sector II, Shukalpura, Mansarovar",
      "imageRef" : "2021~October~2021-10-14~2~138",
      "isAnalysis" : "yes",
      "isClean" : true,
      "latLng" : "26.8720467,75.7500423",
      "locality" : " Mansarovar",
      "penalty" : "100",
      "time" : "12:00",
      "user" : "LB5ZuA5FjaclXAeRLRT2dIRkowk2",
      "ward" : "69",
      "zone" : "Mansarovar"
    },
    "139" : {
      "address" : "shop no 14 kamla nehru market, Ajmeri Gate, Ashok Nagar",
      "imageRef" : "2021~October~2021-10-14~2~139",
      "isClean" : true,
      "latLng" : "26.9161064,75.8173746",
      "locality" : " Ashok Nagar",
      "time" : "12:01",
      "user" : "GPotdEk3KiOa4fqpi2UXbBOSYhh2",
      "ward" : "150",
      "zone" : "Malviya Nagar"
    },
    "140" : {
      "address" : "45-A, Vishveshariya Nagar, Shopping Centre, Vishveshvariya Nagar, Arjun Nagar",
      "imageRef" : "2021~October~2021-10-14~2~140",
      "isClean" : true,
      "latLng" : "26.8664032,75.7818177",
      "locality" : " Arjun Nagar",
      "time" : "12:02",
      "user" : "36rAylHB1BS70xLwl7Qct26isRE2",
      "ward" : "80",
      "zone" : "Mansarovar"
    },
    "141" : {
      "address" : "National Highway 52, Sikar Rd, Vishwakarma Industrial Area, Murlipura",
      "imageRef" : "2021~October~2021-10-14~2~141",
      "isAnalysis" : "yes",
      "isClean" : true,
      "latLng" : "26.9948502,75.7715583",
      "locality" : " Murlipura",
      "penalty" : "100",
      "time" : "12:03",
      "user" : "RxDvTuUUsCTs9GcCg5g0iG9fA3t2",
      "ward" : "8",
      "zone" : "Murlipura"
    },
    "142" : {
      "address" : "Shop No 28 Third Floor Plot No 2 / 25, New Sanganer Rd, opposite Ganga Marriage Garden, Sector II, Shukalpura, Mansarovar",
      "imageRef" : "2021~October~2021-10-14~2~142",
      "isClean" : true,
      "latLng" : "26.8720467,75.7500423",
      "locality" : " Mansarovar",
      "time" : "12:03",
      "user" : "LB5ZuA5FjaclXAeRLRT2dIRkowk2",
      "ward" : "69",
      "zone" : "Mansarovar"
    },
    "143" : {
      "address" : "45-A, Vishveshariya Nagar, Shopping Centre, Vishveshvariya Nagar, Arjun Nagar",
      "imageRef" : "2021~October~2021-10-14~2~143",
      "isAnalysis" : "yes",
      "isClean" : true,
      "latLng" : "26.8664032,75.7818177",
      "locality" : " Arjun Nagar",
      "penalty" : "100",
      "time" : "12:04",
      "user" : "36rAylHB1BS70xLwl7Qct26isRE2",
      "ward" : "80",
      "zone" : "Mansarovar"
    },
    "144" : {
      "address" : "Shop No 28 Third Floor Plot No 2 / 25, New Sanganer Rd, opposite Ganga Marriage Garden, Sector II, Shukalpura, Mansarovar",
      "imageRef" : "2021~October~2021-10-14~2~144",
      "isClean" : true,
      "latLng" : "26.8720467,75.7500423",
      "locality" : " Mansarovar",
      "time" : "12:04",
      "user" : "LB5ZuA5FjaclXAeRLRT2dIRkowk2",
      "ward" : "69",
      "zone" : "Mansarovar"
    },
    "145" : {
      "address" : "45-A, Vishveshariya Nagar, Shopping Centre, Vishveshvariya Nagar, Arjun Nagar",
      "imageRef" : "2021~October~2021-10-14~2~145",
      "isClean" : true,
      "latLng" : "26.8664032,75.7818177",
      "locality" : " Arjun Nagar",
      "time" : "12:05",
      "user" : "36rAylHB1BS70xLwl7Qct26isRE2",
      "ward" : "80",
      "zone" : "Mansarovar"
    },
    "146" : {
      "address" : "National Highway 52, Sikar Rd, Vishwakarma Industrial Area, Murlipura",
      "imageRef" : "2021~October~2021-10-14~2~146",
      "isClean" : true,
      "latLng" : "26.9948177,75.7715556",
      "locality" : " Murlipura",
      "time" : "12:05",
      "user" : "RxDvTuUUsCTs9GcCg5g0iG9fA3t2",
      "ward" : "8",
      "zone" : "Murlipura"
    },
    "147" : {
      "address" : "National Highway 52, Sikar Rd, Vishwakarma Industrial Area, Murlipura",
      "imageRef" : "2021~October~2021-10-14~2~147",
      "isClean" : true,
      "latLng" : "26.9948177,75.7715556",
      "locality" : " Murlipura",
      "time" : "12:06",
      "user" : "RxDvTuUUsCTs9GcCg5g0iG9fA3t2",
      "ward" : "8",
      "zone" : "Murlipura"
    },
    "148" : {
      "address" : "National Highway 52, Sikar Rd, Vishwakarma Industrial Area, Murlipura",
      "imageRef" : "2021~October~2021-10-14~2~148",
      "isClean" : true,
      "latLng" : "26.9948177,75.7715556",
      "locality" : " Murlipura",
      "time" : "12:06",
      "user" : "RxDvTuUUsCTs9GcCg5g0iG9fA3t2",
      "ward" : "8",
      "zone" : "Murlipura"
    },
    "149" : {
      "address" : "Road No 12 sikar Road Area, Vishwakarma Industrial Area",
      "imageRef" : "2021~October~2021-10-14~2~149",
      "isClean" : true,
      "latLng" : "26.9923076,75.7725815",
      "locality" : " Vishwakarma Industrial Area",
      "time" : "12:07",
      "user" : "RxDvTuUUsCTs9GcCg5g0iG9fA3t2",
      "ward" : "8",
      "zone" : "Murlipura"
    },
    "150" : {
      "address" : "Road No 12 sikar Road Area, Vishwakarma Industrial Area",
      "imageRef" : "2021~October~2021-10-14~2~150",
      "isAnalysis" : "yes",
      "isClean" : true,
      "latLng" : "26.9923076,75.7725815",
      "locality" : " Vishwakarma Industrial Area",
      "penalty" : "100",
      "time" : "12:07",
      "user" : "RxDvTuUUsCTs9GcCg5g0iG9fA3t2",
      "ward" : "8",
      "zone" : "Murlipura"
    },
    "151" : {
      "address" : "Shop No 28 Third Floor Plot No 2 / 25, New Sanganer Rd, opposite Ganga Marriage Garden, Sector II, Shukalpura, Mansarovar",
      "imageRef" : "2021~October~2021-10-14~2~151",
      "isAnalysis" : "yes",
      "isClean" : true,
      "latLng" : "26.8720467,75.7500423",
      "locality" : " Mansarovar",
      "penalty" : "100",
      "time" : "12:09",
      "user" : "LB5ZuA5FjaclXAeRLRT2dIRkowk2",
      "ward" : "69",
      "zone" : "Mansarovar"
    },
    "152" : {
      "address" : "Shop No 28 Third Floor Plot No 2 / 25, New Sanganer Rd, opposite Ganga Marriage Garden, Sector II, Shukalpura, Mansarovar",
      "imageRef" : "2021~October~2021-10-14~2~152",
      "isAnalysis" : "yes",
      "isClean" : true,
      "latLng" : "26.8720467,75.7500423",
      "locality" : " Mansarovar",
      "penalty" : "100",
      "time" : "12:11",
      "user" : "LB5ZuA5FjaclXAeRLRT2dIRkowk2",
      "ward" : "69",
      "zone" : "Mansarovar"
    },
    "153" : {
      "address" : "Shop No 28 Third Floor Plot No 2 / 25, New Sanganer Rd, opposite Ganga Marriage Garden, Sector II, Shukalpura, Mansarovar",
      "imageRef" : "2021~October~2021-10-14~2~153",
      "isClean" : true,
      "latLng" : "26.8720467,75.7500423",
      "locality" : " Mansarovar",
      "time" : "12:13",
      "user" : "LB5ZuA5FjaclXAeRLRT2dIRkowk2",
      "ward" : "69",
      "zone" : "Mansarovar"
    },
    "154" : {
      "address" : "Unnamed Road, Vishwakarma Industrial Area",
      "imageRef" : "2021~October~2021-10-14~2~154",
      "isAnalysis" : "yes",
      "isClean" : true,
      "latLng" : "26.9923393,75.7770117",
      "locality" : " Vishwakarma Industrial Area",
      "penalty" : "100",
      "time" : "12:15",
      "user" : "RxDvTuUUsCTs9GcCg5g0iG9fA3t2",
      "ward" : "8",
      "zone" : "Murlipura"
    },
    "155" : {
      "address" : "Ganga Jamuna Colony Dadi Ka Phatak Murlipura, Ganga Jamuna Colony, Murlipura",
      "imageRef" : "2021~October~2021-10-14~2~155",
      "isClean" : true,
      "latLng" : "26.9683221,75.754716",
      "locality" : " Murlipura",
      "time" : "12:16",
      "user" : "ev0wnTlCHecAviBhj2QYe4lEAj13",
      "ward" : "15",
      "zone" : "Murlipura"
    },
    "156" : {
      "address" : "281, Ghat Ki Guni",
      "imageRef" : "2021~October~2021-10-14~2~156",
      "isClean" : true,
      "latLng" : "26.8674963,75.8234047",
      "locality" : " Ghat Ki Guni",
      "time" : "12:21",
      "user" : "w0YCfewlsAZXqrlU2EdmhEZXWw22",
      "ward" : "110",
      "zone" : "Jagatpura"
    },
    "157" : {
      "address" : "F-132(F, Rd Number 12, Vishwakarma Industrial Area",
      "imageRef" : "2021~October~2021-10-14~2~157",
      "isClean" : true,
      "latLng" : "26.9926949,75.778953",
      "locality" : " Vishwakarma Industrial Area",
      "time" : "12:22",
      "user" : "RxDvTuUUsCTs9GcCg5g0iG9fA3t2",
      "ward" : "8",
      "zone" : "Murlipura"
    },
    "158" : {
      "address" : "F-132(F, Rd Number 12, Vishwakarma Industrial Area",
      "imageRef" : "2021~October~2021-10-14~2~158",
      "isAnalysis" : "yes",
      "isClean" : true,
      "latLng" : "26.9926949,75.778953",
      "locality" : " Vishwakarma Industrial Area",
      "penalty" : "100",
      "time" : "12:22",
      "user" : "RxDvTuUUsCTs9GcCg5g0iG9fA3t2",
      "ward" : "8",
      "zone" : "Murlipura"
    },
    "159" : {
      "address" : "Shop No 28 Third Floor Plot No 2 / 25, New Sanganer Rd, opposite Ganga Marriage Garden, Sector II, Shukalpura, Mansarovar",
      "imageRef" : "2021~October~2021-10-14~2~159",
      "isAnalysis" : "yes",
      "isClean" : true,
      "latLng" : "26.8720467,75.7500423",
      "locality" : " Mansarovar",
      "penalty" : "100",
      "time" : "12:23",
      "user" : "LB5ZuA5FjaclXAeRLRT2dIRkowk2",
      "ward" : "69",
      "zone" : "Mansarovar"
    },
    "160" : {
      "address" : "1, Ganga Jamuna Colony, Dahar Ka Balaji",
      "imageRef" : "2021~October~2021-10-14~2~160",
      "isClean" : true,
      "latLng" : "26.9670185,75.7594314",
      "locality" : " Dahar Ka Balaji",
      "time" : "12:25",
      "user" : "ev0wnTlCHecAviBhj2QYe4lEAj13",
      "ward" : "15",
      "zone" : "Murlipura"
    },
    "161" : {
      "address" : "A-131, Rd Number 12, near PRAGATI DHARAM KANTA, Vishwakarma Industrial Area",
      "imageRef" : "2021~October~2021-10-14~2~161",
      "isClean" : true,
      "latLng" : "26.9925518,75.7788884",
      "locality" : " Vishwakarma Industrial Area",
      "time" : "12:26",
      "user" : "RxDvTuUUsCTs9GcCg5g0iG9fA3t2",
      "ward" : "8",
      "zone" : "Murlipura"
    },
    "162" : {
      "address" : "F161/E172 road no 12, Vishwakarma Industrial Area",
      "imageRef" : "2021~October~2021-10-14~2~162",
      "isClean" : true,
      "latLng" : "26.9914004,75.7830507",
      "locality" : " Vishwakarma Industrial Area",
      "time" : "12:27",
      "user" : "RxDvTuUUsCTs9GcCg5g0iG9fA3t2",
      "ward" : "8",
      "zone" : "Murlipura"
    },
    "163" : {
      "address" : "G-501, Rd Number 12, opp. sooraj dharam kanta tata roshan motors, Vishwakarma Industrial Area",
      "imageRef" : "2021~October~2021-10-14~2~163",
      "isClean" : true,
      "latLng" : "26.9915365,75.782995",
      "locality" : " Vishwakarma Industrial Area",
      "time" : "12:29",
      "user" : "RxDvTuUUsCTs9GcCg5g0iG9fA3t2",
      "ward" : "8",
      "zone" : "Murlipura"
    },
    "164" : {
      "address" : "G-501, Rd Number 12, opp. sooraj dharam kanta tata roshan motors, Vishwakarma Industrial Area",
      "imageRef" : "2021~October~2021-10-14~2~164",
      "isClean" : true,
      "latLng" : "26.9915365,75.782995",
      "locality" : " Vishwakarma Industrial Area",
      "time" : "12:29",
      "user" : "RxDvTuUUsCTs9GcCg5g0iG9fA3t2",
      "ward" : "8",
      "zone" : "Murlipura"
    },
    "165" : {
      "address" : "V.K.I. Road Number 12, Vishwakarma Industrial Area",
      "imageRef" : "2021~October~2021-10-14~2~165",
      "isClean" : true,
      "latLng" : "26.9906415,75.7845209",
      "locality" : " Vishwakarma Industrial Area",
      "time" : "12:31",
      "user" : "RxDvTuUUsCTs9GcCg5g0iG9fA3t2",
      "ward" : "8",
      "zone" : "Murlipura"
    },
    "166" : {
      "address" : "V.K.I. Road Number 12, Vishwakarma Industrial Area",
      "imageRef" : "2021~October~2021-10-14~2~166",
      "isClean" : true,
      "latLng" : "26.9906415,75.7845209",
      "locality" : " Vishwakarma Industrial Area",
      "time" : "12:31",
      "user" : "RxDvTuUUsCTs9GcCg5g0iG9fA3t2",
      "ward" : "8",
      "zone" : "Murlipura"
    },
    "167" : {
      "address" : "23, Shiv Path, Near Airport circle,, Tonk Road Jaipur",
      "imageRef" : "2021~October~2021-10-14~2~167",
      "isClean" : false,
      "latLng" : "26.8231584,75.7958289",
      "locality" : " Tonk Road Jaipur",
      "time" : "12:31",
      "user" : "n8U24UXDq5OckN6Yw6pdO2b0Swg2",
      "ward" : "104",
      "zone" : "Jagatpura"
    },
    "168" : {
      "address" : "Plot 100, Niwaru Rd, Jhotwara Industrial Area, Jhotwara",
      "imageRef" : "2021~October~2021-10-14~2~168",
      "isClean" : true,
      "latLng" : "26.9545819,75.7520471",
      "locality" : " Jhotwara",
      "time" : "12:31",
      "user" : "q824l6Y9DwXAx5nm9I9C1cImcRo1",
      "ward" : "19",
      "zone" : "Murlipura"
    },
    "169" : {
      "address" : "RQCR+CVG, Kundan Nagar",
      "imageRef" : "2021~October~2021-10-14~2~169",
      "isClean" : true,
      "latLng" : "26.8211008,75.7919464",
      "locality" : " Kundan Nagar",
      "time" : "12:32",
      "user" : "n8U24UXDq5OckN6Yw6pdO2b0Swg2",
      "ward" : "104",
      "zone" : "Jagatpura"
    },
    "170" : {
      "address" : "XQQM+XPJ, Vishwakarma Industrial Area",
      "imageRef" : "2021~October~2021-10-14~2~170",
      "isAnalysis" : "yes",
      "isClean" : true,
      "latLng" : "26.9900125,75.784355",
      "locality" : " Vishwakarma Industrial Area",
      "penalty" : "100",
      "time" : "12:32",
      "user" : "RxDvTuUUsCTs9GcCg5g0iG9fA3t2",
      "ward" : "8",
      "zone" : "Murlipura"
    },
    "171" : {
      "address" : "68,Sindhu nagar, chauraha, Sikar Rd, Pratap Nagar, Murlipura",
      "imageRef" : "2021~October~2021-10-14~2~171",
      "isClean" : true,
      "latLng" : "26.965664,75.7654101",
      "locality" : " Murlipura",
      "time" : "12:33",
      "user" : "ev0wnTlCHecAviBhj2QYe4lEAj13",
      "ward" : "20",
      "zone" : "Murlipura"
    },
    "172" : {
      "address" : "XQQM+XPJ, Vishwakarma Industrial Area",
      "imageRef" : "2021~October~2021-10-14~2~172",
      "isClean" : true,
      "latLng" : "26.9900125,75.784355",
      "locality" : " Vishwakarma Industrial Area",
      "time" : "12:33",
      "user" : "RxDvTuUUsCTs9GcCg5g0iG9fA3t2",
      "ward" : "8",
      "zone" : "Murlipura"
    },
    "173" : {
      "address" : "104, Vishnu Garden, Sanganer",
      "imageRef" : "2021~October~2021-10-14~2~173",
      "isClean" : true,
      "latLng" : "26.8214118,75.7928287",
      "locality" : " Sanganer",
      "time" : "12:33",
      "user" : "n8U24UXDq5OckN6Yw6pdO2b0Swg2",
      "ward" : "104",
      "zone" : "Jagatpura"
    },
    "174" : {
      "address" : "92-93, Narayanpuri, Jhotwara Industrial Area, Jhotwara",
      "imageRef" : "2021~October~2021-10-14~2~174",
      "isClean" : true,
      "latLng" : "26.955266,75.7506172",
      "locality" : " Jhotwara",
      "time" : "12:34",
      "user" : "q824l6Y9DwXAx5nm9I9C1cImcRo1",
      "ward" : "19",
      "zone" : "Murlipura"
    },
    "175" : {
      "address" : "C-178A, Road No. 9J, Vishwakarma Industrial Area",
      "imageRef" : "2021~October~2021-10-14~2~175",
      "isClean" : true,
      "latLng" : "26.9883219,75.7840388",
      "locality" : " Vishwakarma Industrial Area",
      "time" : "12:34",
      "user" : "RxDvTuUUsCTs9GcCg5g0iG9fA3t2",
      "ward" : "8",
      "zone" : "Murlipura"
    },
    "176" : {
      "address" : "C-178A, Road No. 9J, Vishwakarma Industrial Area",
      "imageRef" : "2021~October~2021-10-14~2~176",
      "isClean" : true,
      "latLng" : "26.9883219,75.7840388",
      "locality" : " Vishwakarma Industrial Area",
      "time" : "12:34",
      "user" : "RxDvTuUUsCTs9GcCg5g0iG9fA3t2",
      "ward" : "8",
      "zone" : "Murlipura"
    },
    "177" : {
      "address" : "RQCV+V6R, Kundan Nagar",
      "imageRef" : "2021~October~2021-10-14~2~177",
      "isClean" : true,
      "latLng" : "26.8223768,75.7930525",
      "locality" : " Kundan Nagar",
      "time" : "12:34",
      "user" : "n8U24UXDq5OckN6Yw6pdO2b0Swg2",
      "ward" : "104",
      "zone" : "Jagatpura"
    },
    "178" : {
      "address" : "14, Diggi Malpura Rd, Dada Gurudev Nagar, Jaranwala",
      "imageRef" : "2021~October~2021-10-14~2~178",
      "isClean" : true,
      "latLng" : "26.7990865,75.7718745",
      "locality" : " Jaranwala",
      "time" : "12:35",
      "user" : "3eMmYQt2D4WQwGYQ9GLp9QV0MrX2",
      "ward" : "92",
      "zone" : "Sanganer"
    },
    "179" : {
      "address" : "121, Rd Number 9, V.K.I, Vishwakarma Industrial Area, Murlipura",
      "imageRef" : "2021~October~2021-10-14~2~179",
      "isAnalysis" : "yes",
      "isClean" : true,
      "latLng" : "26.987669,75.7839225",
      "locality" : " Murlipura",
      "penalty" : "100",
      "time" : "12:35",
      "user" : "RxDvTuUUsCTs9GcCg5g0iG9fA3t2",
      "ward" : "8",
      "zone" : "Murlipura"
    },
    "180" : {
      "address" : "C-6/93, Chitrakoot, Bhawani Nagar",
      "imageRef" : "2021~October~2021-10-14~2~180",
      "isClean" : true,
      "latLng" : "26.9607665,75.7627256",
      "locality" : " Bhawani Nagar",
      "time" : "12:36",
      "user" : "ev0wnTlCHecAviBhj2QYe4lEAj13",
      "ward" : "25",
      "zone" : "Vidhyadhar"
    },
    "181" : {
      "address" : "C-6/93, Chitrakoot, Bhawani Nagar",
      "imageRef" : "2021~October~2021-10-14~2~181",
      "isClean" : true,
      "latLng" : "26.9607665,75.7627256",
      "locality" : " Bhawani Nagar",
      "time" : "12:37",
      "user" : "ev0wnTlCHecAviBhj2QYe4lEAj13",
      "ward" : "25",
      "zone" : "Vidhyadhar"
    },
    "182" : {
      "address" : "121, Rd Number 9, V.K.I, Vishwakarma Industrial Area, Murlipura",
      "imageRef" : "2021~October~2021-10-14~2~182",
      "isClean" : true,
      "latLng" : "26.987669,75.7839225",
      "locality" : " Murlipura",
      "time" : "12:37",
      "user" : "RxDvTuUUsCTs9GcCg5g0iG9fA3t2",
      "ward" : "8",
      "zone" : "Murlipura"
    },
    "183" : {
      "address" : "C-47A, Ambabari, Vidyadhar Nagar",
      "imageRef" : "2021~October~2021-10-14~2~183",
      "isClean" : true,
      "latLng" : "26.9443265,75.7779971",
      "locality" : " Vidyadhar Nagar",
      "time" : "12:37",
      "user" : "5O4HmxdGWmcOa1J2WhJr16wb8uG3",
      "ward" : "27",
      "zone" : "Vidhyadhar"
    },
    "184" : {
      "address" : "128, Rd Number 9, Vishwakarma Industrial Area",
      "imageRef" : "2021~October~2021-10-14~2~184",
      "isClean" : true,
      "latLng" : "26.985813,75.7838864",
      "locality" : " Vishwakarma Industrial Area",
      "time" : "12:38",
      "user" : "RxDvTuUUsCTs9GcCg5g0iG9fA3t2",
      "ward" : "8",
      "zone" : "Murlipura"
    },
    "185" : {
      "address" : "54E, Tonk Rd, Sitabari, Taron Ki Koont",
      "imageRef" : "2021~October~2021-10-14~2~185",
      "isClean" : false,
      "latLng" : "26.8288205,75.7939853",
      "locality" : " Taron Ki Koont",
      "time" : "12:39",
      "user" : "n8U24UXDq5OckN6Yw6pdO2b0Swg2",
      "ward" : "104",
      "zone" : "Jagatpura"
    },
    "186" : {
      "address" : "A 172, Jhotwara Industrial Area, Jhotwara",
      "imageRef" : "2021~October~2021-10-14~2~186",
      "isClean" : true,
      "latLng" : "26.9595341,75.7497226",
      "locality" : " Jhotwara",
      "time" : "12:39",
      "user" : "q824l6Y9DwXAx5nm9I9C1cImcRo1",
      "ward" : "19",
      "zone" : "Murlipura"
    },
    "187" : {
      "address" : "Naya Bangla, Sitabari, Hardev Colony, Jagatpura",
      "imageRef" : "2021~October~2021-10-14~2~187",
      "isClean" : false,
      "latLng" : "26.8288553,75.7951006",
      "locality" : " Jagatpura",
      "time" : "12:40",
      "user" : "n8U24UXDq5OckN6Yw6pdO2b0Swg2",
      "ward" : "104",
      "zone" : "Jagatpura"
    },
    "188" : {
      "address" : "14, Diggi Malpura Rd, Dada Gurudev Nagar, Jaranwala",
      "imageRef" : "2021~October~2021-10-14~2~188",
      "isClean" : true,
      "latLng" : "26.7990865,75.7718745",
      "locality" : " Jaranwala",
      "time" : "12:40",
      "user" : "3eMmYQt2D4WQwGYQ9GLp9QV0MrX2",
      "ward" : "92",
      "zone" : "Sanganer"
    },
    "189" : {
      "address" : "F-211, Road No. 9E, Vishwakarma Industrial Area, Vishwakarma Industrial Area",
      "imageRef" : "2021~October~2021-10-14~2~189",
      "isClean" : true,
      "latLng" : "26.9851785,75.7844288",
      "locality" : " Vishwakarma Industrial Area",
      "time" : "12:42",
      "user" : "RxDvTuUUsCTs9GcCg5g0iG9fA3t2",
      "ward" : "8",
      "zone" : "Murlipura"
    },
    "190" : {
      "address" : "8, Tonk Rd, opp. gems stone park, Durga Vihar",
      "imageRef" : "2021~October~2021-10-14~2~190",
      "isClean" : true,
      "latLng" : "26.8303523,75.7950076",
      "locality" : " Durga Vihar",
      "time" : "12:42",
      "user" : "n8U24UXDq5OckN6Yw6pdO2b0Swg2",
      "ward" : "104",
      "zone" : "Jagatpura"
    },
    "191" : {
      "address" : "75, Nh-12, Chaudhary Charan Singh Park, Hardev Colony, Jagatpura",
      "imageRef" : "2021~October~2021-10-14~2~191",
      "isClean" : true,
      "latLng" : "26.8313905,75.7943442",
      "locality" : " Jagatpura",
      "time" : "12:43",
      "user" : "n8U24UXDq5OckN6Yw6pdO2b0Swg2",
      "ward" : "104",
      "zone" : "Jagatpura"
    },
    "192" : {
      "address" : "166-A, Jhotwara Industrial Area, Jhotwara",
      "imageRef" : "2021~October~2021-10-14~2~192",
      "isClean" : true,
      "latLng" : "26.9575532,75.7476615",
      "locality" : " Jhotwara",
      "time" : "12:45",
      "user" : "q824l6Y9DwXAx5nm9I9C1cImcRo1",
      "ward" : "19",
      "zone" : "Murlipura"
    },
    "193" : {
      "address" : "630a, Rd Number 6, Vishwakarma Industrial Area, Murlipura",
      "imageRef" : "2021~October~2021-10-14~2~193",
      "isClean" : true,
      "latLng" : "26.980451,75.7842038",
      "locality" : " Murlipura",
      "time" : "12:45",
      "user" : "RxDvTuUUsCTs9GcCg5g0iG9fA3t2",
      "ward" : "8",
      "zone" : "Murlipura"
    },
    "194" : {
      "address" : "630a, Rd Number 6, Vishwakarma Industrial Area, Murlipura",
      "imageRef" : "2021~October~2021-10-14~2~194",
      "isClean" : true,
      "latLng" : "26.980451,75.7842038",
      "locality" : " Murlipura",
      "time" : "12:45",
      "user" : "RxDvTuUUsCTs9GcCg5g0iG9fA3t2",
      "ward" : "8",
      "zone" : "Murlipura"
    },
    "195" : {
      "address" : "Rd Number 6, Vishwakarma Industrial Area",
      "imageRef" : "2021~October~2021-10-14~2~195",
      "isAnalysis" : "yes",
      "isClean" : true,
      "latLng" : "26.9771388,75.7846239",
      "locality" : " Vishwakarma Industrial Area",
      "penalty" : "100",
      "time" : "12:46",
      "user" : "RxDvTuUUsCTs9GcCg5g0iG9fA3t2",
      "ward" : "8",
      "zone" : "Murlipura"
    },
    "196" : {
      "address" : "1, Sector-9, Vishwakarma Industrial Area, Vidyadhar Nagar",
      "imageRef" : "2021~October~2021-10-14~2~196",
      "isClean" : true,
      "latLng" : "26.9701482,75.7823645",
      "locality" : " Vidyadhar Nagar",
      "time" : "12:47",
      "user" : "ev0wnTlCHecAviBhj2QYe4lEAj13",
      "ward" : "8",
      "zone" : "Murlipura"
    },
    "197" : {
      "address" : "Rd Number 6, Vishwakarma Industrial Area",
      "imageRef" : "2021~October~2021-10-14~2~197",
      "isAnalysis" : "yes",
      "isClean" : true,
      "latLng" : "26.9771388,75.7846239",
      "locality" : " Vishwakarma Industrial Area",
      "penalty" : "100",
      "time" : "12:48",
      "user" : "RxDvTuUUsCTs9GcCg5g0iG9fA3t2",
      "ward" : "8",
      "zone" : "Murlipura"
    },
    "198" : {
      "address" : "1, Sector-9, Vishwakarma Industrial Area, Vidyadhar Nagar",
      "imageRef" : "2021~October~2021-10-14~2~198",
      "isClean" : true,
      "latLng" : "26.9701482,75.7823645",
      "locality" : " Vidyadhar Nagar",
      "time" : "12:49",
      "user" : "ev0wnTlCHecAviBhj2QYe4lEAj13",
      "ward" : "8",
      "zone" : "Murlipura"
    },
    "199" : {
      "address" : "XP4W+XC8, Laxmi Nagar, Jhotwara Industrial Area, Jhotwara",
      "imageRef" : "2021~October~2021-10-14~2~199",
      "isAnalysis" : "yes",
      "isClean" : true,
      "latLng" : "26.9573161,75.7459295",
      "locality" : " Jhotwara",
      "penalty" : "100",
      "time" : "12:50",
      "user" : "q824l6Y9DwXAx5nm9I9C1cImcRo1",
      "ward" : "19",
      "zone" : "Murlipura"
    },
    "200" : {
      "address" : "5/93, Sector 2, Sector 6, Vidyadhar Nagar",
      "imageRef" : "2021~October~2021-10-14~2~200",
      "isAnalysis" : "yes",
      "isClean" : true,
      "latLng" : "26.9708652,75.775355",
      "locality" : " Vidyadhar Nagar",
      "penalty" : "100",
      "time" : "12:51",
      "user" : "ev0wnTlCHecAviBhj2QYe4lEAj13",
      "ward" : "8",
      "zone" : "Murlipura"
    },
    "201" : {
      "address" : "Riddhi Siddhi Tower, Sun And Moon, Sector 2, Sector 6, Vidyadhar Nagar",
      "imageRef" : "2021~October~2021-10-14~2~201",
      "isAnalysis" : "yes",
      "isClean" : true,
      "latLng" : "26.9709251,75.7741521",
      "locality" : " Vidyadhar Nagar",
      "penalty" : "100",
      "time" : "12:53",
      "user" : "ev0wnTlCHecAviBhj2QYe4lEAj13",
      "ward" : "8",
      "zone" : "Murlipura"
    },
    "202" : {
      "address" : "60, Ambabari, Vishwakarma Industrial Area, Murlipura",
      "imageRef" : "2021~October~2021-10-14~2~202",
      "isClean" : true,
      "latLng" : "26.9754732,75.7715766",
      "locality" : " Murlipura",
      "time" : "12:58",
      "user" : "ev0wnTlCHecAviBhj2QYe4lEAj13",
      "ward" : "17",
      "zone" : "Murlipura"
    },
    "203" : {
      "address" : "25, Janak Marg, Durga Vihar, Nangal Jaisabohra",
      "imageRef" : "2021~October~2021-10-14~2~203",
      "isAnalysis" : "yes",
      "isClean" : true,
      "latLng" : "26.9628921,75.7364255",
      "locality" : " Nangal Jaisabohra",
      "penalty" : "100",
      "time" : "12:58",
      "user" : "q824l6Y9DwXAx5nm9I9C1cImcRo1",
      "ward" : "Not Found",
      "zone" : "Not Found"
    },
    "204" : {
      "address" : "60, Ambabari, Vishwakarma Industrial Area, Murlipura",
      "imageRef" : "2021~October~2021-10-14~2~204",
      "isClean" : true,
      "latLng" : "26.9754732,75.7715766",
      "locality" : " Murlipura",
      "time" : "12:58",
      "user" : "ev0wnTlCHecAviBhj2QYe4lEAj13",
      "ward" : "17",
      "zone" : "Murlipura"
    },
    "205" : {
      "address" : "Dada Gurudev Nagar, Shri Ramnagar Colony, Dada Gurudev Nagar, Sanganer",
      "imageRef" : "2021~October~2021-10-14~2~205",
      "isClean" : true,
      "latLng" : "26.8125816,75.7808406",
      "locality" : " Sanganer",
      "time" : "13:00",
      "user" : "pIRcS951TUOlePNHED9DvD5qz2m2",
      "ward" : "93",
      "zone" : "Sanganer"
    },
    "206" : {
      "address" : "4B, Dalda Factory Rd, IHITC Durgapur, Durgapura",
      "imageRef" : "2021~October~2021-10-14~2~206",
      "isClean" : true,
      "latLng" : "26.8470266,75.7772904",
      "locality" : " Durgapura",
      "time" : "13:00",
      "user" : "pIRcS951TUOlePNHED9DvD5qz2m2",
      "ward" : "84",
      "zone" : "Sanganer"
    },
    "207" : {
      "address" : "4B, Dalda Factory Rd, IHITC Durgapur, Durgapura",
      "imageRef" : "2021~October~2021-10-14~2~207",
      "isAnalysis" : "yes",
      "isClean" : true,
      "latLng" : "26.8470266,75.7772904",
      "locality" : " Durgapura",
      "penalty" : "100",
      "time" : "13:01",
      "user" : "pIRcS951TUOlePNHED9DvD5qz2m2",
      "ward" : "84",
      "zone" : "Sanganer"
    },
    "208" : {
      "address" : "D-31, Gaurav Tower Marg, near Kanha Restaurant, Kalyan Colony, D-Block, Sector 4, Malviya Nagar",
      "imageRef" : "2021~October~2021-10-14~2~208",
      "isClean" : true,
      "latLng" : "26.8542321,75.8088215",
      "locality" : " Malviya Nagar",
      "time" : "13:01",
      "user" : "AfGurwTzesfcNInqIkyjFGXDoub2",
      "ward" : "130",
      "zone" : "Malviya Nagar"
    },
    "209" : {
      "address" : "70,B Sanjay Nagar, Niwaru Rd, Ganesh Nagar Vistar, Harnathapura, Jhotwara",
      "imageRef" : "2021~October~2021-10-14~2~209",
      "isAnalysis" : "yes",
      "isClean" : true,
      "latLng" : "26.9650283,75.724753",
      "locality" : " Jhotwara",
      "penalty" : "100",
      "time" : "13:06",
      "user" : "q824l6Y9DwXAx5nm9I9C1cImcRo1",
      "ward" : "43",
      "zone" : "Jhotwara"
    },
    "210" : {
      "address" : "10/862, Gaurav Tower Marg, Vidhyadhar Nagar, Siddharth Nagar, Sector 10, Malviya Nagar",
      "imageRef" : "2021~October~2021-10-14~2~210",
      "isAnalysis" : "yes",
      "isClean" : true,
      "latLng" : "26.8513209,75.8113569",
      "locality" : " Malviya Nagar",
      "penalty" : "100",
      "time" : "13:11",
      "user" : "AfGurwTzesfcNInqIkyjFGXDoub2",
      "ward" : "130",
      "zone" : "Malviya Nagar"
    },
    "211" : {
      "address" : "Rd Number 13, Vishwakarma Industrial Area",
      "imageRef" : "2021~October~2021-10-14~2~211",
      "isAnalysis" : "yes",
      "isClean" : true,
      "latLng" : "26.9950426,75.7818399",
      "locality" : " Vishwakarma Industrial Area",
      "penalty" : "100",
      "time" : "13:13",
      "user" : "H5rob2uJ8jgknIAbGnblhi40tUE2",
      "ward" : "8",
      "zone" : "Murlipura"
    },
    "212" : {
      "address" : "10/227, Gaurav Tower Marg, Vidhyadhar Nagar, Siddharth Nagar, Sector 10, Malviya Nagar",
      "imageRef" : "2021~October~2021-10-14~2~212",
      "isAnalysis" : "yes",
      "isClean" : true,
      "latLng" : "26.8504395,75.8121443",
      "locality" : " Malviya Nagar",
      "penalty" : "100",
      "time" : "13:13",
      "user" : "AfGurwTzesfcNInqIkyjFGXDoub2",
      "ward" : "130",
      "zone" : "Malviya Nagar"
    },
    "213" : {
      "address" : "B-93, 9 Number, Sikar Rd, Anaj Mandi, Murlipura",
      "imageRef" : "2021~October~2021-10-14~2~213",
      "isAnalysis" : "yes",
      "isClean" : true,
      "latLng" : "26.9880494,75.7711614",
      "locality" : " Murlipura",
      "penalty" : "100",
      "time" : "13:14",
      "user" : "ev0wnTlCHecAviBhj2QYe4lEAj13",
      "ward" : "7",
      "zone" : "Murlipura"
    },
    "214" : {
      "address" : "A-14, SN-2, GROUND FLOOR, PADAM VIHAR, OPP RAJAT PATH, New, New Sanganer Rd, Ganpatpura, Mansarovar",
      "imageRef" : "2021~October~2021-10-14~2~214",
      "isAnalysis" : "yes",
      "isClean" : true,
      "latLng" : "26.8624333,75.7535322",
      "locality" : " Mansarovar",
      "penalty" : "100",
      "time" : "13:16",
      "user" : "LB5ZuA5FjaclXAeRLRT2dIRkowk2",
      "ward" : "71",
      "zone" : "Mansarovar"
    },
    "215" : {
      "address" : "4/33, Pradhan Marg, Vidyut Abhiyanta Colony, Sector 4, Malviya Nagar",
      "imageRef" : "2021~October~2021-10-14~2~215",
      "isAnalysis" : "yes",
      "isClean" : true,
      "latLng" : "26.8490517,75.8137948",
      "locality" : " Malviya Nagar",
      "penalty" : "100",
      "time" : "13:16",
      "user" : "AfGurwTzesfcNInqIkyjFGXDoub2",
      "ward" : "132",
      "zone" : "Malviya Nagar"
    },
    "216" : {
      "address" : "Rd Number 13, Vishwakarma Industrial Area",
      "imageRef" : "2021~October~2021-10-14~2~216",
      "isAnalysis" : "yes",
      "isClean" : true,
      "latLng" : "26.9950426,75.7818399",
      "locality" : " Vishwakarma Industrial Area",
      "penalty" : "100",
      "time" : "13:17",
      "user" : "H5rob2uJ8jgknIAbGnblhi40tUE2",
      "ward" : "8",
      "zone" : "Murlipura"
    },
    "217" : {
      "address" : "Office No 502, 5th Floor, Arihant Plaza Pradhan Marg, In Front of Indian Oil Corporation Ltd Arihant plaza, Vidyut Abhiyanta Colony, Malviya Nagar",
      "imageRef" : "2021~October~2021-10-14~2~217",
      "isAnalysis" : "yes",
      "isClean" : true,
      "latLng" : "26.8511741,75.8120503",
      "locality" : " Malviya Nagar",
      "penalty" : "100",
      "time" : "13:18",
      "user" : "AfGurwTzesfcNInqIkyjFGXDoub2",
      "ward" : "130",
      "zone" : "Malviya Nagar"
    },
    "218" : {
      "address" : "C-286 Ground Floor, Pradhan Marg, Block C, Malviya Nagar",
      "imageRef" : "2021~October~2021-10-14~2~218",
      "isAnalysis" : "yes",
      "isClean" : true,
      "latLng" : "26.853684,75.8103619",
      "locality" : " Malviya Nagar",
      "penalty" : "100",
      "time" : "13:22",
      "user" : "AfGurwTzesfcNInqIkyjFGXDoub2",
      "ward" : "132",
      "zone" : "Malviya Nagar"
    },
    "219" : {
      "address" : "A-6, Dadhichi Nagar, Vishwakarma Industrial Area, Murlipura",
      "imageRef" : "2021~October~2021-10-14~2~219",
      "isAnalysis" : "yes",
      "isClean" : true,
      "latLng" : "26.9803424,75.7665852",
      "locality" : " Murlipura",
      "penalty" : "100",
      "time" : "13:24",
      "user" : "ev0wnTlCHecAviBhj2QYe4lEAj13",
      "ward" : "10",
      "zone" : "Murlipura"
    },
    "220" : {
      "address" : "II, A-91, Monika Vihar, Manyawas, Mansarovar",
      "imageRef" : "2021~October~2021-10-14~2~220",
      "isClean" : true,
      "latLng" : "26.8615693,75.7428381",
      "locality" : " Mansarovar",
      "time" : "13:25",
      "user" : "LB5ZuA5FjaclXAeRLRT2dIRkowk2",
      "ward" : "71",
      "zone" : "Mansarovar"
    },
    "221" : {
      "address" : "Khadi Gramodyog Road, Sanganer, Ganesh Colony, Kundan Nagar",
      "imageRef" : "2021~October~2021-10-14~2~221",
      "isAnalysis" : "yes",
      "isClean" : true,
      "latLng" : "26.8203907,75.7860041",
      "locality" : " Kundan Nagar",
      "penalty" : "100",
      "time" : "13:25",
      "user" : "EY0cg0gEW0WKz60icDpLpkaWSij2",
      "ward" : "90",
      "zone" : "Sanganer"
    },
    "222" : {
      "address" : "II, A-91, Monika Vihar, Manyawas, Mansarovar",
      "imageRef" : "2021~October~2021-10-14~2~222",
      "isAnalysis" : "yes",
      "isClean" : true,
      "latLng" : "26.8615693,75.7428381",
      "locality" : " Mansarovar",
      "penalty" : "100",
      "time" : "13:26",
      "user" : "LB5ZuA5FjaclXAeRLRT2dIRkowk2",
      "ward" : "71",
      "zone" : "Mansarovar"
    },
    "223" : {
      "address" : "Shop No f-10,jai hanuman plaza, sanganer ,, Ganesh Colony, Kundan Nagar",
      "imageRef" : "2021~October~2021-10-14~2~223",
      "isAnalysis" : "yes",
      "isClean" : true,
      "latLng" : "26.8204221,75.7855423",
      "locality" : " Kundan Nagar",
      "penalty" : "100",
      "time" : "13:28",
      "user" : "EY0cg0gEW0WKz60icDpLpkaWSij2",
      "ward" : "90",
      "zone" : "Sanganer"
    },
    "224" : {
      "address" : "II, A-91, Monika Vihar, Manyawas, Mansarovar",
      "imageRef" : "2021~October~2021-10-14~2~224",
      "isAnalysis" : "yes",
      "isClean" : true,
      "latLng" : "26.8615693,75.7428381",
      "locality" : " Mansarovar",
      "penalty" : "100",
      "time" : "13:32",
      "user" : "LB5ZuA5FjaclXAeRLRT2dIRkowk2",
      "ward" : "71",
      "zone" : "Mansarovar"
    },
    "225" : {
      "address" : "II, A-91, Monika Vihar, Manyawas, Mansarovar",
      "imageRef" : "2021~October~2021-10-14~2~225",
      "isAnalysis" : "yes",
      "isClean" : true,
      "latLng" : "26.8615693,75.7428381",
      "locality" : " Mansarovar",
      "penalty" : "100",
      "time" : "13:34",
      "user" : "LB5ZuA5FjaclXAeRLRT2dIRkowk2",
      "ward" : "71",
      "zone" : "Mansarovar"
    },
    "226" : {
      "address" : "52, Usha Colony, Sector 1, Malviya Nagar",
      "imageRef" : "2021~October~2021-10-14~2~226",
      "isAnalysis" : "yes",
      "isClean" : true,
      "latLng" : "26.8550478,75.8224501",
      "locality" : " Malviya Nagar",
      "penalty" : "100",
      "time" : "13:35",
      "user" : "AfGurwTzesfcNInqIkyjFGXDoub2",
      "ward" : "132",
      "zone" : "Malviya Nagar"
    },
    "227" : {
      "address" : "II, A-91, Monika Vihar, Manyawas, Mansarovar",
      "imageRef" : "2021~October~2021-10-14~2~227",
      "isClean" : true,
      "latLng" : "26.8615693,75.7428381",
      "locality" : " Mansarovar",
      "time" : "13:39",
      "user" : "LB5ZuA5FjaclXAeRLRT2dIRkowk2",
      "ward" : "71",
      "zone" : "Mansarovar"
    },
    "228" : {
      "address" : "68,Sindhu nagar, chauraha, Sikar Rd, Pratap Nagar, Murlipura",
      "imageRef" : "2021~October~2021-10-14~2~228",
      "isClean" : true,
      "latLng" : "26.9656407,75.7653648",
      "locality" : " Murlipura",
      "time" : "13:41",
      "user" : "UH4J4sV4aCW17gXmHs76xxVDWl93",
      "ward" : "20",
      "zone" : "Murlipura"
    },
    "229" : {
      "address" : "68,Sindhu nagar, chauraha, Sikar Rd, Pratap Nagar, Murlipura",
      "imageRef" : "2021~October~2021-10-14~2~229",
      "isAnalysis" : "yes",
      "isClean" : true,
      "latLng" : "26.9656407,75.7653648",
      "locality" : " Murlipura",
      "penalty" : "100",
      "time" : "13:42",
      "user" : "UH4J4sV4aCW17gXmHs76xxVDWl93",
      "ward" : "20",
      "zone" : "Murlipura"
    },
    "230" : {
      "address" : "A-630, Kalgeri Road, Govind Marg, near Rungata Hospital, Block-A, Malviya Nagar",
      "imageRef" : "2021~October~2021-10-14~2~230",
      "isAnalysis" : "yes",
      "isClean" : true,
      "latLng" : "26.8566096,75.817295",
      "locality" : " Malviya Nagar",
      "penalty" : "100",
      "time" : "13:43",
      "user" : "AfGurwTzesfcNInqIkyjFGXDoub2",
      "ward" : "132",
      "zone" : "Malviya Nagar"
    },
    "231" : {
      "address" : "II, A-91, Monika Vihar, Manyawas, Mansarovar",
      "imageRef" : "2021~October~2021-10-14~2~231",
      "isClean" : true,
      "latLng" : "26.8615693,75.7428381",
      "locality" : " Mansarovar",
      "time" : "13:44",
      "user" : "LB5ZuA5FjaclXAeRLRT2dIRkowk2",
      "ward" : "71",
      "zone" : "Mansarovar"
    },
    "232" : {
      "address" : "Near Shiv kunj Garden, Opp. Ganesh Nagar, Baypass Ke Agay,, Niwaru Rd, Jhotwara",
      "imageRef" : "2021~October~2021-10-14~2~232",
      "isClean" : true,
      "latLng" : "26.9662041,75.7224448",
      "locality" : " Jhotwara",
      "time" : "13:48",
      "user" : "q824l6Y9DwXAx5nm9I9C1cImcRo1",
      "ward" : "43",
      "zone" : "Jhotwara"
    },
    "233" : {
      "address" : "Rail Vihar 2 Block-A, Rail Vihar 2, Sector-9, Vishwakarma Industrial Area, Vidyadhar Nagar",
      "imageRef" : "2021~October~2021-10-14~2~233",
      "isClean" : true,
      "latLng" : "26.9704897,75.7825987",
      "locality" : " Vidyadhar Nagar",
      "time" : "13:49",
      "user" : "RxDvTuUUsCTs9GcCg5g0iG9fA3t2",
      "ward" : "8",
      "zone" : "Murlipura"
    },
    "234" : {
      "address" : "Rail Vihar 2 Block-A, Rail Vihar 2, Sector-9, Vishwakarma Industrial Area, Vidyadhar Nagar",
      "imageRef" : "2021~October~2021-10-14~2~234",
      "isClean" : true,
      "latLng" : "26.9704897,75.7825987",
      "locality" : " Vidyadhar Nagar",
      "time" : "13:49",
      "user" : "RxDvTuUUsCTs9GcCg5g0iG9fA3t2",
      "ward" : "8",
      "zone" : "Murlipura"
    },
    "235" : {
      "address" : "Rail Vihar 2 Block-A, Rail Vihar 2, Sector-9, Vishwakarma Industrial Area, Vidyadhar Nagar",
      "imageRef" : "2021~October~2021-10-14~2~235",
      "isClean" : true,
      "latLng" : "26.9704782,75.7825963",
      "locality" : " Vidyadhar Nagar",
      "time" : "13:53",
      "user" : "RxDvTuUUsCTs9GcCg5g0iG9fA3t2",
      "ward" : "8",
      "zone" : "Murlipura"
    },
    "236" : {
      "address" : "Rail Vihar 2 Block-A, Rail Vihar 2, Sector-9, Vishwakarma Industrial Area, Vidyadhar Nagar",
      "imageRef" : "2021~October~2021-10-14~2~236",
      "isClean" : true,
      "latLng" : "26.9704782,75.7825963",
      "locality" : " Vidyadhar Nagar",
      "time" : "13:54",
      "user" : "RxDvTuUUsCTs9GcCg5g0iG9fA3t2",
      "ward" : "8",
      "zone" : "Murlipura"
    },
    "237" : {
      "address" : "5/93, Sector 2, Sector 6, Vidyadhar Nagar",
      "imageRef" : "2021~October~2021-10-14~2~237",
      "isAnalysis" : "yes",
      "isClean" : true,
      "latLng" : "26.9708568,75.7753563",
      "locality" : " Vidyadhar Nagar",
      "penalty" : "100",
      "time" : "13:57",
      "user" : "RxDvTuUUsCTs9GcCg5g0iG9fA3t2",
      "ward" : "8",
      "zone" : "Murlipura"
    },
    "238" : {
      "address" : "B-88, Mohan Nagar, Mohru Nagar, Maniyawas",
      "imageRef" : "2021~October~2021-10-14~2~238",
      "isAnalysis" : "yes",
      "isClean" : true,
      "latLng" : "26.8762846,75.7425738",
      "locality" : " Maniyawas",
      "penalty" : "100",
      "time" : "13:57",
      "user" : "LB5ZuA5FjaclXAeRLRT2dIRkowk2",
      "ward" : "68",
      "zone" : "Mansarovar"
    },
    "239" : {
      "address" : "B-88, Mohan Nagar, Mohru Nagar, Maniyawas",
      "imageRef" : "2021~October~2021-10-14~2~239",
      "isAnalysis" : "yes",
      "isClean" : true,
      "latLng" : "26.8762846,75.7425738",
      "locality" : " Maniyawas",
      "penalty" : "100",
      "time" : "14:04",
      "user" : "LB5ZuA5FjaclXAeRLRT2dIRkowk2",
      "ward" : "68",
      "zone" : "Mansarovar"
    },
    "240" : {
      "address" : "B-88, Mohan Nagar, Mohru Nagar, Maniyawas",
      "imageRef" : "2021~October~2021-10-14~2~240",
      "isClean" : true,
      "latLng" : "26.8762846,75.7425738",
      "locality" : " Maniyawas",
      "time" : "14:07",
      "user" : "LB5ZuA5FjaclXAeRLRT2dIRkowk2",
      "ward" : "68",
      "zone" : "Mansarovar"
    },
    "241" : {
      "address" : "137, Arya Nagar, Vishwakarma Industrial Area, Murlipura",
      "imageRef" : "2021~October~2021-10-14~2~241",
      "isClean" : true,
      "latLng" : "26.97895,75.7712875",
      "locality" : " Murlipura",
      "time" : "14:10",
      "user" : "RxDvTuUUsCTs9GcCg5g0iG9fA3t2",
      "ward" : "10",
      "zone" : "Murlipura"
    },
    "242" : {
      "address" : "137, Arya Nagar, Vishwakarma Industrial Area, Murlipura",
      "imageRef" : "2021~October~2021-10-14~2~242",
      "isAnalysis" : "yes",
      "isClean" : true,
      "latLng" : "26.97895,75.7712875",
      "locality" : " Murlipura",
      "penalty" : "100",
      "time" : "14:11",
      "user" : "RxDvTuUUsCTs9GcCg5g0iG9fA3t2",
      "ward" : "10",
      "zone" : "Murlipura"
    },
    "243" : {
      "address" : "248 a pratap nagar near vadhi ka chourai, Vishwakarma Industrial Area, Murlipura",
      "imageRef" : "2021~October~2021-10-14~2~243",
      "isClean" : true,
      "latLng" : "26.9849439,75.7605434",
      "locality" : " Murlipura",
      "time" : "14:21",
      "user" : "ev0wnTlCHecAviBhj2QYe4lEAj13",
      "ward" : "7",
      "zone" : "Murlipura"
    },
    "244" : {
      "address" : "Nindar Mode, Sikar Rd, Harmada",
      "imageRef" : "2021~October~2021-10-14~2~244",
      "isClean" : true,
      "latLng" : "27.0126493,75.7691434",
      "locality" : " Harmada",
      "time" : "14:21",
      "user" : "hwFihzMiEXWnYb53htf3U6PtRkG2",
      "ward" : "3",
      "zone" : "Murlipura"
    },
    "245" : {
      "address" : "Road No. 14, Harmada",
      "imageRef" : "2021~October~2021-10-14~2~245",
      "isAnalysis" : "yes",
      "isClean" : true,
      "latLng" : "27.0126289,75.7690783",
      "locality" : " Harmada",
      "penalty" : "100",
      "time" : "14:22",
      "user" : "hwFihzMiEXWnYb53htf3U6PtRkG2",
      "ward" : "3",
      "zone" : "Murlipura"
    },