{
  "1" : {
    "1" : {
      "address" : "Plot No. 22, Kamani Rd, near KS Ford, Kumasiya, Jhotwara Industrial Area, Jhotwara",
      "imageRef" : "2021~October~2021-10-24~1~1",
      "isClean" : true,
      "latLng" : "26.9517799,75.7577683",
      "locality" : " Jhotwara",
      "time" : "18:12",
      "user" : "ev0wnTlCHecAviBhj2QYe4lEAj13",
      "ward" : "19",
      "zone" : "Murlipura"
    },
    "2" : {
      "address" : "4-263, SFS Manasarovar, Hans Vihar, RIICO Industrial Area, Mansarovar",
      "imageRef" : "2021~October~2021-10-24~1~2",
      "isClean" : true,
      "latLng" : "26.836163,75.7785751",
      "locality" : " Mansarovar",
      "time" : "18:13",
      "user" : "EY0cg0gEW0WKz60icDpLpkaWSij2",
      "ward" : "Not Found",
      "zone" : "Not Found"
    },
    "3" : {
      "address" : "4-263, SFS Manasarovar, Hans Vihar, RIICO Industrial Area, Mansarovar",
      "imageRef" : "2021~October~2021-10-24~1~3",
      "isClean" : true,
      "latLng" : "26.8361725,75.7785781",
      "locality" : " Mansarovar",
      "time" : "18:19",
      "user" : "LB5ZuA5FjaclXAeRLRT2dIRkowk2",
      "ward" : "Not Found",
      "zone" : "Not Found"
    },
    "4" : {
      "address" : "4/2 JDA Shopping Center, Chitrakoot",
      "imageRef" : "2021~October~2021-10-24~1~4",
      "isClean" : true,
      "latLng" : "26.8989259,75.7320747",
      "locality" : " Chitrakoot",
      "time" : "18:31",
      "user" : "f63WCJ0Lynd58cD0s0IXlxY2ANp2",
      "ward" : "57",
      "zone" : "Jhotwara"
    },
    "5" : {
      "address" : "4/2 JDA Shopping Center, Chitrakoot",
      "imageRef" : "2021~October~2021-10-24~1~5",
      "isClean" : true,
      "latLng" : "26.8989259,75.7320747",
      "locality" : " Chitrakoot",
      "time" : "18:31",
      "user" : "f63WCJ0Lynd58cD0s0IXlxY2ANp2",
      "ward" : "57",
      "zone" : "Jhotwara"
    },
    "6" : {
      "address" : "93, Singh Marg, Navdeep Vihar, Amrapali Circle, Vaishali Nagar",
      "imageRef" : "2021~October~2021-10-24~1~6",
      "isClean" : true,
      "latLng" : "26.8985633,75.7230882",
      "locality" : " Vaishali Nagar",
      "time" : "18:49",
      "user" : "f63WCJ0Lynd58cD0s0IXlxY2ANp2",
      "ward" : "59",
      "zone" : "Jhotwara"
    },
    "7" : {
      "address" : "93, Singh Marg, Navdeep Vihar, Amrapali Circle, Vaishali Nagar",
      "imageRef" : "2021~October~2021-10-24~1~7",
      "isClean" : true,
      "latLng" : "26.8985633,75.7230882",
      "locality" : " Vaishali Nagar",
      "time" : "18:52",
      "user" : "f63WCJ0Lynd58cD0s0IXlxY2ANp2",
      "ward" : "59",
      "zone" : "Jhotwara"
    },
    "8" : {
      "address" : "C-8 Near Tempo stand, Gandhi Path W, Girdharipura",
      "imageRef" : "2021~October~2021-10-24~1~8",
      "isClean" : true,
      "latLng" : "26.897732,75.7169203",
      "locality" : " Girdharipura",
      "time" : "18:57",
      "user" : "f63WCJ0Lynd58cD0s0IXlxY2ANp2",
      "ward" : "56",
      "zone" : "Jhotwara"
    },
    "lastKey" : "8"
  },
  "2" : {
    "1" : {
      "address" : "91, Minwara Rd, Shree Ram Nagar - A, Sunder Nagar, Panchyawala",
      "imageRef" : "2021~October~2021-10-24~2~1",
      "isClean" : true,
      "latLng" : "26.9115763,75.724683",
      "locality" : " Panchyawala",
      "time" : "17:55",
      "user" : "5O4HmxdGWmcOa1J2WhJr16wb8uG3",
      "ward" : "53",
      "zone" : "Jhotwara"
    },
    "2" : {
      "address" : "Near Dayna Restaurant, Bus Stand, Tonk Road, Sanganer, Taron Ki Koont",
      "imageRef" : "2021~October~2021-10-24~2~2",
      "isClean" : true,
      "latLng" : "26.8362387,75.793548",
      "locality" : " Taron Ki Koont",
      "time" : "18:02",
      "user" : "QMfpXg6WqQgOMlD3OHLmEVOZwiq2",
      "ward" : "87",
      "zone" : "Sanganer"
    },
    "3" : {
      "address" : "4-263, SFS Manasarovar, Hans Vihar, RIICO Industrial Area, Mansarovar",
      "imageRef" : "2021~October~2021-10-24~2~3",
      "isClean" : true,
      "latLng" : "26.8361759,75.7785856",
      "locality" : " Mansarovar",
      "time" : "18:24",
      "user" : "EY0cg0gEW0WKz60icDpLpkaWSij2",
      "ward" : "Not Found",
      "zone" : "Not Found"
    },
    "4" : {
      "address" : "HI-86/87, Hans Vihar, RIICO Industrial Area, Mansarovar",
      "imageRef" : "2021~October~2021-10-24~2~4",
      "isClean" : true,
      "latLng" : "26.8319559,75.7769224",
      "locality" : " Mansarovar",
      "time" : "18:25",
      "user" : "LB5ZuA5FjaclXAeRLRT2dIRkowk2",
      "ward" : "84",
      "zone" : "Sanganer"
    },
    "5" : {
      "address" : "Siyaram mandir park chitrakoot, 4-1, Vaishali Nagar",
      "imageRef" : "2021~October~2021-10-24~2~5",
      "isClean" : true,
      "latLng" : "26.8997879,75.7319061",
      "locality" : " Vaishali Nagar",
      "time" : "18:40",
      "user" : "f63WCJ0Lynd58cD0s0IXlxY2ANp2",
      "ward" : "57",
      "zone" : "Jhotwara"
    },
    "6" : {
      "address" : "71, Singh Marg, Jivan Vihar Colony, Amrapali Circle, Vaishali Nagar",
      "imageRef" : "2021~October~2021-10-24~2~6",
      "isClean" : true,
      "latLng" : "26.8983171,75.7293769",
      "locality" : " Vaishali Nagar",
      "time" : "18:47",
      "user" : "f63WCJ0Lynd58cD0s0IXlxY2ANp2",
      "ward" : "60",
      "zone" : "Jhotwara"
    },
    "7" : {
      "address" : "71, Singh Marg, Jivan Vihar Colony, Amrapali Circle, Vaishali Nagar",
      "imageRef" : "2021~October~2021-10-24~2~7",
      "isClean" : true,
      "latLng" : "26.8983171,75.7293769",
      "locality" : " Vaishali Nagar",
      "time" : "18:47",
      "user" : "f63WCJ0Lynd58cD0s0IXlxY2ANp2",
      "ward" : "60",
      "zone" : "Jhotwara"
    },
    "8" : {
      "address" : "C-8 Near Tempo stand, Gandhi Path W, Girdharipura",
      "imageRef" : "2021~October~2021-10-24~2~8",
      "isClean" : true,
      "latLng" : "26.897732,75.7169203",
      "locality" : " Girdharipura",
      "time" : "18:55",
      "user" : "f63WCJ0Lynd58cD0s0IXlxY2ANp2",
      "ward" : "56",
      "zone" : "Jhotwara"
    },
    "9" : {
      "address" : "C-8 Near Tempo stand, Gandhi Path W, Girdharipura",
      "imageRef" : "2021~October~2021-10-24~2~9",
      "isClean" : true,
      "latLng" : "26.897732,75.7169203",
      "locality" : " Girdharipura",
      "time" : "18:57",
      "user" : "f63WCJ0Lynd58cD0s0IXlxY2ANp2",
      "ward" : "56",
      "zone" : "Jhotwara"
    },
    "10" : {
      "address" : "Unnamed Road, Dhawas, Girdharipura",
      "imageRef" : "2021~October~2021-10-24~2~10",
      "isClean" : true,
      "latLng" : "26.8955842,75.7182351",
      "locality" : " Girdharipura",
      "time" : "19:02",
      "user" : "f63WCJ0Lynd58cD0s0IXlxY2ANp2",
      "ward" : "Not Found",
      "zone" : "Not Found"
    },
    "11" : {
      "address" : "31, Dhawas, Amrapali Circle, Vaishali Nagar",
      "imageRef" : "2021~October~2021-10-24~2~11",
      "isClean" : true,
      "latLng" : "26.8929888,75.7241671",
      "locality" : " Vaishali Nagar",
      "time" : "19:04",
      "user" : "f63WCJ0Lynd58cD0s0IXlxY2ANp2",
      "ward" : "59",
      "zone" : "Jhotwara"
    },
    "lastKey" : "11"
  }
}
