{
  "1" : {
    "1" : {
      "address" : "72/18, Ward 27, Agarwal Farm, Barh Devariya, Mansarovar",
      "imageRef" : "2021~October~2021-10-21~1~1",
      "isClean" : true,
      "latLng" : "26.8548327,75.7727209",
      "locality" : " Mansarovar",
      "time" : "08:13",
      "user" : "ggEpFnOpb4bmKMvNMiOxs9cdtcq1",
      "ward" : "Not Found",
      "zone" : "Not Found"
    },
    "2" : {
      "address" : "240, Heera Nagar Extension, Amrapali Circle, Vaishali Nagar",
      "imageRef" : "2021~October~2021-10-21~1~2",
      "isClean" : true,
      "latLng" : "26.8963906,75.7325488",
      "locality" : " Vaishali Nagar",
      "time" : "14:18",
      "user" : "0b6XWvRirOVJkEFYilWAWDwrsNX2",
      "ward" : "60",
      "zone" : "Jhotwara"
    },
    "lastKey" : "2"
  },
  "2" : {
    "1" : {
      "address" : "1, Mahavir Nagar, Nalanda Vihar, Durgapura",
      "imageRef" : "2021~October~2021-10-21~2~1",
      "isClean" : true,
      "latLng" : "26.8538961,75.7860917",
      "locality" : " Durgapura",
      "time" : "07:53",
      "user" : "jAuektVgF9MuTvDHnUWjDmZwVP92",
      "ward" : "81",
      "zone" : "Mansarovar"
    },
    "2" : {
      "address" : "9, Mahavir Nagar, Nalanda Vihar, Durgapura",
      "imageRef" : "2021~October~2021-10-21~2~2",
      "isClean" : true,
      "latLng" : "26.8535229,75.786048",
      "locality" : " Durgapura",
      "time" : "08:10",
      "user" : "jAuektVgF9MuTvDHnUWjDmZwVP92",
      "ward" : "81",
      "zone" : "Mansarovar"
    },
    "3" : {
      "address" : "14, Diggi Malpura Rd, Dada Gurudev Nagar, Jaranwala",
      "imageRef" : "2021~October~2021-10-21~2~3",
      "isClean" : true,
      "latLng" : "26.7990832,75.7718733",
      "locality" : " Jaranwala",
      "time" : "08:24",
      "user" : "3rvFxdO6TvYhrDLWd0CRqid8PM33",
      "ward" : "92",
      "zone" : "Sanganer"
    },
    "4" : {
      "address" : "14, Diggi Malpura Rd, Dada Gurudev Nagar, Jaranwala",
      "imageRef" : "2021~October~2021-10-21~2~4",
      "isClean" : true,
      "latLng" : "26.7990832,75.7718733",
      "locality" : " Jaranwala",
      "time" : "08:24",
      "user" : "3rvFxdO6TvYhrDLWd0CRqid8PM33",
      "ward" : "92",
      "zone" : "Sanganer"
    },
    "5" : {
      "address" : "VQ6P+7JC, Bajrang Vihar, Durgapura",
      "imageRef" : "2021~October~2021-10-21~2~5",
      "isClean" : true,
      "latLng" : "26.8608661,75.7866077",
      "locality" : " Durgapura",
      "time" : "08:28",
      "user" : "jAuektVgF9MuTvDHnUWjDmZwVP92",
      "ward" : "81",
      "zone" : "Mansarovar"
    },
    "6" : {
      "address" : "Vishwakarma Industrial Area",
      "imageRef" : "2021~October~2021-10-21~2~6",
      "isClean" : true,
      "latLng" : "26.9995565,75.7900927",
      "locality" : "Vishwakarma Industrial Area",
      "time" : "08:28",
      "user" : "H5rob2uJ8jgknIAbGnblhi40tUE2",
      "ward" : "Not Found",
      "zone" : "Not Found"
    },
    "7" : {
      "address" : "492, Rd Number 2, Shanti Nagar, Durgapura",
      "imageRef" : "2021~October~2021-10-21~2~7",
      "isClean" : true,
      "latLng" : "26.8591733,75.7862342",
      "locality" : " Durgapura",
      "time" : "08:29",
      "user" : "jAuektVgF9MuTvDHnUWjDmZwVP92",
      "ward" : "81",
      "zone" : "Mansarovar"
    },
    "8" : {
      "address" : "B-306, Rd No. 16, Vishwakarma Industrial Area",
      "imageRef" : "2021~October~2021-10-21~2~8",
      "isClean" : true,
      "latLng" : "26.9993844,75.7904067",
      "locality" : " Vishwakarma Industrial Area",
      "time" : "08:30",
      "user" : "H5rob2uJ8jgknIAbGnblhi40tUE2",
      "ward" : "Not Found",
      "zone" : "Not Found"
    },
    "9" : {
      "address" : "RQ9F+894, Ramdara Colony, Dada Gurudev Nagar, Sanganer",
      "imageRef" : "2021~October~2021-10-21~2~9",
      "isClean" : false,
      "latLng" : "26.8182986,75.7739868",
      "locality" : " Sanganer",
      "time" : "09:54",
      "user" : "5ey5OTJPSaVtScapKMAk3f1NkXA3",
      "ward" : "89",
      "zone" : "Sanganer"
    },
    "10" : {
      "address" : "RQ9F+894, Ramdara Colony, Dada Gurudev Nagar, Sanganer",
      "imageRef" : "2021~October~2021-10-21~2~10",
      "isClean" : false,
      "latLng" : "26.8182986,75.7739868",
      "locality" : " Sanganer",
      "time" : "09:55",
      "user" : "5ey5OTJPSaVtScapKMAk3f1NkXA3",
      "ward" : "89",
      "zone" : "Sanganer"
    },
    "11" : {
      "address" : "Main Bazar, Tripoliya Bazar, Dada Gurudev Nagar, Sanganer",
      "imageRef" : "2021~October~2021-10-21~2~11",
      "isClean" : false,
      "latLng" : "26.8124534,75.7840097",
      "locality" : " Sanganer",
      "time" : "09:55",
      "user" : "5ey5OTJPSaVtScapKMAk3f1NkXA3",
      "ward" : "94",
      "zone" : "Sanganer"
    },
    "12" : {
      "address" : "Main Bazar, Tripoliya Bazar, Dada Gurudev Nagar, Sanganer",
      "imageRef" : "2021~October~2021-10-21~2~12",
      "isClean" : false,
      "latLng" : "26.8124534,75.7840097",
      "locality" : " Sanganer",
      "time" : "09:55",
      "user" : "5ey5OTJPSaVtScapKMAk3f1NkXA3",
      "ward" : "94",
      "zone" : "Sanganer"
    },
    "13" : {
      "address" : "Main Bazar, Tripoliya Bazar, Dada Gurudev Nagar, Sanganer",
      "imageRef" : "2021~October~2021-10-21~2~13",
      "isClean" : false,
      "latLng" : "26.8124534,75.7840097",
      "locality" : " Sanganer",
      "time" : "09:57",
      "user" : "5ey5OTJPSaVtScapKMAk3f1NkXA3",
      "ward" : "94",
      "zone" : "Sanganer"
    },
    "14" : {
      "address" : "opposite gulab niwas, near panchayat samiti, Raigarh Chhota Mohalla, Dada Gurudev Nagar, Sanganer",
      "imageRef" : "2021~October~2021-10-21~2~14",
      "isClean" : false,
      "latLng" : "26.8138065,75.7843191",
      "locality" : " Sanganer",
      "time" : "09:57",
      "user" : "5ey5OTJPSaVtScapKMAk3f1NkXA3",
      "ward" : "93",
      "zone" : "Sanganer"
    },
    "15" : {
      "address" : "1209, Kishan Marg, Barkat Nagar, Van Vihar, Tonk Phatak",
      "imageRef" : "2021~October~2021-10-21~2~15",
      "isClean" : true,
      "latLng" : "26.8711328,75.7902384",
      "locality" : " Tonk Phatak",
      "time" : "10:17",
      "user" : "R2QUov9b5oMM9H74iLKfUFx1iNn2",
      "ward" : "135",
      "zone" : "Malviya Nagar"
    },
    "16" : {
      "address" : "Raj Tower, Sanganer, Pratap Nagar",
      "imageRef" : "2021~October~2021-10-21~2~16",
      "isClean" : true,
      "latLng" : "26.8072279,75.8061362",
      "locality" : " Pratap Nagar",
      "time" : "10:29",
      "user" : "QMfpXg6WqQgOMlD3OHLmEVOZwiq2",
      "ward" : "102",
      "zone" : "Sanganer"
    },
    "17" : {
      "address" : "A/216, Lalarpura",
      "imageRef" : "2021~October~2021-10-21~2~17",
      "isClean" : true,
      "latLng" : "26.8975361,75.7147454",
      "locality" : " Lalarpura",
      "time" : "10:29",
      "user" : "wtqzVbREAof4XGAD2bdmR1bCZb13",
      "ward" : "Not Found",
      "zone" : "Not Found"
    },
    "18" : {
      "address" : "Raj Tower, Sanganer, Pratap Nagar",
      "imageRef" : "2021~October~2021-10-21~2~18",
      "isClean" : true,
      "latLng" : "26.8072279,75.8061362",
      "locality" : " Pratap Nagar",
      "time" : "10:30",
      "user" : "QMfpXg6WqQgOMlD3OHLmEVOZwiq2",
      "ward" : "102",
      "zone" : "Sanganer"
    },
    "19" : {
      "address" : "181-182, Haldighati Marg, Sanganer, Pratap Nagar",
      "imageRef" : "2021~October~2021-10-21~2~19",
      "isClean" : true,
      "latLng" : "26.8052165,75.8132241",
      "locality" : " Pratap Nagar",
      "time" : "10:30",
      "user" : "QMfpXg6WqQgOMlD3OHLmEVOZwiq2",
      "ward" : "102",
      "zone" : "Sanganer"
    },
    "20" : {
      "address" : "Shyopur Road end, Haldighati Marg, Sanganer, Pratap Nagar",
      "imageRef" : "2021~October~2021-10-21~2~20",
      "isClean" : true,
      "latLng" : "26.8063694,75.8169102",
      "locality" : " Pratap Nagar",
      "time" : "10:31",
      "user" : "QMfpXg6WqQgOMlD3OHLmEVOZwiq2",
      "ward" : "102",
      "zone" : "Sanganer"
    },
    "21" : {
      "address" : "1, Haldighati Marg, near pannadhay circle, Sanganer, Pratap Nagar",
      "imageRef" : "2021~October~2021-10-21~2~21",
      "isClean" : true,
      "latLng" : "26.8067296,75.8199487",
      "locality" : " Pratap Nagar",
      "time" : "10:32",
      "user" : "QMfpXg6WqQgOMlD3OHLmEVOZwiq2",
      "ward" : "101",
      "zone" : "Sanganer"
    },
    "22" : {
      "address" : "1, Haldighati Marg, near pannadhay circle, Sanganer, Pratap Nagar",
      "imageRef" : "2021~October~2021-10-21~2~22",
      "isClean" : true,
      "latLng" : "26.8067296,75.8199487",
      "locality" : " Pratap Nagar",
      "time" : "10:33",
      "user" : "QMfpXg6WqQgOMlD3OHLmEVOZwiq2",
      "ward" : "101",
      "zone" : "Sanganer"
    },
    "23" : {
      "address" : "Haldighati Marg, Sanganer, Pratap Nagar",
      "imageRef" : "2021~October~2021-10-21~2~23",
      "isClean" : true,
      "latLng" : "26.8067042,75.8197809",
      "locality" : " Pratap Nagar",
      "time" : "10:35",
      "user" : "QMfpXg6WqQgOMlD3OHLmEVOZwiq2",
      "ward" : "101",
      "zone" : "Sanganer"
    },
    "24" : {
      "address" : "331, Patrakar Colony, Vardhman Nagar, Karni Vihar",
      "imageRef" : "2021~October~2021-10-21~2~24",
      "isClean" : true,
      "latLng" : "26.8813882,75.7407148",
      "locality" : " Karni Vihar",
      "time" : "10:41",
      "user" : "LB5ZuA5FjaclXAeRLRT2dIRkowk2",
      "ward" : "63",
      "zone" : "Jhotwara"
    },
    "25" : {
      "address" : "Plot No. 56, 1st Floor, Ayodhya I, Surya Nagar Surya Nagar, Budhsinghpura, Sheopur, Jagatpura",
      "imageRef" : "2021~October~2021-10-21~2~25",
      "isClean" : true,
      "latLng" : "26.8212757,75.8198026",
      "locality" : " Jagatpura",
      "time" : "10:41",
      "user" : "QMfpXg6WqQgOMlD3OHLmEVOZwiq2",
      "ward" : "111",
      "zone" : "Jagatpura"
    },
    "26" : {
      "address" : "Plot No. 56, 1st Floor, Ayodhya I, Surya Nagar Surya Nagar, Budhsinghpura, Sheopur, Jagatpura",
      "imageRef" : "2021~October~2021-10-21~2~26",
      "isClean" : true,
      "latLng" : "26.8212757,75.8198026",
      "locality" : " Jagatpura",
      "time" : "10:41",
      "user" : "QMfpXg6WqQgOMlD3OHLmEVOZwiq2",
      "ward" : "111",
      "zone" : "Jagatpura"
    },
    "27" : {
      "address" : "1222, Barkat Nagar, Van Vihar, Tonk Phatak",
      "imageRef" : "2021~October~2021-10-21~2~27",
      "isClean" : true,
      "latLng" : "26.8717837,75.7896948",
      "locality" : " Tonk Phatak",
      "time" : "10:43",
      "user" : "5waeDw3wRiNMnJCUYMaHckDLDmU2",
      "ward" : "135",
      "zone" : "Malviya Nagar"
    },
    "28" : {
      "address" : "76, Dhawas, Vikash Nagar-D, Amrapali Circle, Vaishali Nagar",
      "imageRef" : "2021~October~2021-10-21~2~28",
      "isClean" : true,
      "latLng" : "26.8926286,75.7254637",
      "locality" : " Vaishali Nagar",
      "time" : "10:46",
      "user" : "f63WCJ0Lynd58cD0s0IXlxY2ANp2",
      "ward" : "59",
      "zone" : "Jhotwara"
    },
    "29" : {
      "address" : "76, Dhawas, Vikash Nagar-D, Amrapali Circle, Vaishali Nagar",
      "imageRef" : "2021~October~2021-10-21~2~29",
      "isClean" : true,
      "latLng" : "26.8928541,75.7256237",
      "locality" : " Vaishali Nagar",
      "time" : "10:46",
      "user" : "f63WCJ0Lynd58cD0s0IXlxY2ANp2",
      "ward" : "59",
      "zone" : "Jhotwara"
    },
    "30" : {
      "address" : "76, Dhawas, Vikash Nagar-D, Amrapali Circle, Vaishali Nagar",
      "imageRef" : "2021~October~2021-10-21~2~30",
      "isClean" : true,
      "latLng" : "26.8928541,75.7256237",
      "locality" : " Vaishali Nagar",
      "time" : "10:48",
      "user" : "f63WCJ0Lynd58cD0s0IXlxY2ANp2",
      "ward" : "59",
      "zone" : "Jhotwara"
    },
    "31" : {
      "address" : "C-18, Shivshakti Colony, Shiv Colony, Tonk Phatak",
      "imageRef" : "2021~October~2021-10-21~2~31",
      "isClean" : true,
      "latLng" : "26.8715814,75.7922735",
      "locality" : " Tonk Phatak",
      "time" : "10:48",
      "user" : "R2QUov9b5oMM9H74iLKfUFx1iNn2",
      "ward" : "133",
      "zone" : "Malviya Nagar"
    },
    "32" : {
      "address" : "76, Dhawas, Vikash Nagar-D, Amrapali Circle, Vaishali Nagar",
      "imageRef" : "2021~October~2021-10-21~2~32",
      "isClean" : true,
      "latLng" : "26.8926248,75.7258273",
      "locality" : " Vaishali Nagar",
      "time" : "10:49",
      "user" : "f63WCJ0Lynd58cD0s0IXlxY2ANp2",
      "ward" : "59",
      "zone" : "Jhotwara"
    },
    "33" : {
      "address" : "76, Dhawas, Vikash Nagar-D, Amrapali Circle, Vaishali Nagar",
      "imageRef" : "2021~October~2021-10-21~2~33",
      "isClean" : true,
      "latLng" : "26.8928937,75.7255866",
      "locality" : " Vaishali Nagar",
      "time" : "10:49",
      "user" : "f63WCJ0Lynd58cD0s0IXlxY2ANp2",
      "ward" : "59",
      "zone" : "Jhotwara"
    },
    "34" : {
      "address" : "76, Dhawas, Vikash Nagar-D, Amrapali Circle, Vaishali Nagar",
      "imageRef" : "2021~October~2021-10-21~2~34",
      "isClean" : true,
      "latLng" : "26.8928937,75.7255866",
      "locality" : " Vaishali Nagar",
      "time" : "10:49",
      "user" : "f63WCJ0Lynd58cD0s0IXlxY2ANp2",
      "ward" : "59",
      "zone" : "Jhotwara"
    },
    "35" : {
      "address" : "411, Khatipura Rd, near Jhotwara, overbridge, Jhotwara",
      "imageRef" : "2021~October~2021-10-21~2~35",
      "isClean" : true,
      "latLng" : "26.9422146,75.7628849",
      "locality" : " Jhotwara",
      "time" : "10:50",
      "user" : "AfGurwTzesfcNInqIkyjFGXDoub2",
      "ward" : "34",
      "zone" : "Vidhyadhar"
    },
    "36" : {
      "address" : "Sonu appartment 17 plot no A31 royal city, Kalwar Rd, Shilp Colony, Jhotwara",
      "imageRef" : "2021~October~2021-10-21~2~36",
      "isClean" : true,
      "latLng" : "26.9428124,75.7593583",
      "locality" : " Jhotwara",
      "time" : "10:54",
      "user" : "AfGurwTzesfcNInqIkyjFGXDoub2",
      "ward" : "34",
      "zone" : "Vidhyadhar"
    },
    "37" : {
      "address" : "1, 200 Feet Bypass Rd, Shanti Path, Jhotwara",
      "imageRef" : "2021~October~2021-10-21~2~37",
      "isClean" : true,
      "latLng" : "26.9515241,75.7329593",
      "locality" : " Jhotwara",
      "time" : "10:56",
      "user" : "ev0wnTlCHecAviBhj2QYe4lEAj13",
      "ward" : "29",
      "zone" : "Vidhyadhar"
    },
    "38" : {
      "address" : "Unnamed Road, Lalarpura",
      "imageRef" : "2021~October~2021-10-21~2~38",
      "isClean" : true,
      "latLng" : "26.9030267,75.7016933",
      "locality" : " Lalarpura",
      "time" : "10:57",
      "user" : "5O4HmxdGWmcOa1J2WhJr16wb8uG3",
      "ward" : "53",
      "zone" : "Jhotwara"
    },
    "39" : {
      "address" : "30, Vishnu Marg, near Braj Bal School, Shakar Nagar, Indrapura, Jhotwara",
      "imageRef" : "2021~October~2021-10-21~2~39",
      "isClean" : true,
      "latLng" : "26.9401349,75.754327",
      "locality" : " Jhotwara",
      "time" : "10:58",
      "user" : "AfGurwTzesfcNInqIkyjFGXDoub2",
      "ward" : "34",
      "zone" : "Vidhyadhar"
    },
    "40" : {
      "address" : "21 South, 203,204, Niwaru Rd, Rani Colony, Shanti Path, Jhotwara",
      "imageRef" : "2021~October~2021-10-21~2~40",
      "isClean" : true,
      "latLng" : "26.957621,75.7346925",
      "locality" : " Jhotwara",
      "time" : "10:59",
      "user" : "ev0wnTlCHecAviBhj2QYe4lEAj13",
      "ward" : "28",
      "zone" : "Vidhyadhar"
    },
    "41" : {
      "address" : "Mansarover Metro Station, Padmavti Colony, Nirman Nagar, Ranisati Nagar",
      "imageRef" : "2021~October~2021-10-21~2~41",
      "isClean" : true,
      "latLng" : "26.8796322,75.7499369",
      "locality" : " Ranisati Nagar",
      "time" : "11:00",
      "user" : "LB5ZuA5FjaclXAeRLRT2dIRkowk2",
      "ward" : "64",
      "zone" : "Jhotwara"
    },
    "42" : {
      "address" : "21 South, 203,204, Niwaru Rd, Rani Colony, Shanti Path, Jhotwara",
      "imageRef" : "2021~October~2021-10-21~2~42",
      "isClean" : true,
      "latLng" : "26.957621,75.7346925",
      "locality" : " Jhotwara",
      "time" : "11:02",
      "user" : "ev0wnTlCHecAviBhj2QYe4lEAj13",
      "ward" : "28",
      "zone" : "Vidhyadhar"
    },
    "43" : {
      "address" : "Shop No. 5, Ajay Vihar, Gandhi Path W, Deepak Watika, Lalarpura",
      "imageRef" : "2021~October~2021-10-21~2~43",
      "isClean" : true,
      "latLng" : "26.9036384,75.7163077",
      "locality" : " Lalarpura",
      "time" : "11:02",
      "user" : "5O4HmxdGWmcOa1J2WhJr16wb8uG3",
      "ward" : "53",
      "zone" : "Jhotwara"
    },
    "44" : {
      "address" : "Binjari Marg, Jhotwara Industrial Area, Jhotwara",
      "imageRef" : "2021~October~2021-10-21~2~44",
      "isClean" : true,
      "latLng" : "26.9656032,75.7442573",
      "locality" : " Jhotwara",
      "time" : "11:02",
      "user" : "ev0wnTlCHecAviBhj2QYe4lEAj13",
      "ward" : "14",
      "zone" : "Murlipura"
    },
    "45" : {
      "address" : "C118, J P Colony, Chitragupta Nagar-II, Imli Phatak, Tonk Phatak",
      "imageRef" : "2021~October~2021-10-21~2~45",
      "isClean" : true,
      "latLng" : "26.8860309,75.7949091",
      "locality" : " Tonk Phatak",
      "time" : "11:03",
      "user" : "IuLu0Y5oXnOBk36uubivHnKRMZE2",
      "ward" : "145",
      "zone" : "Malviya Nagar"
    },
    "46" : {
      "address" : "19-6-20/D, Mahal Road Tirupati Nagar, Vidhyadhar Nagar, Railway Colony, Jagatpura Radhe krishna apartment, Braj Puri, Vidhyadhar Nagar, Jagatpura",
      "imageRef" : "2021~October~2021-10-21~2~46",
      "isClean" : true,
      "latLng" : "26.8257557,75.8451195",
      "locality" : " Jagatpura",
      "time" : "11:04",
      "user" : "0fwKH9Zi3hZBdTXlse3SMQJ0zjr1",
      "ward" : "116",
      "zone" : "Jagatpura"
    },
    "47" : {
      "address" : "Vardhaman Nagar, Sunder Nagar, Rani Sati Nagar, Nirman Nagar",
      "imageRef" : "2021~October~2021-10-21~2~47",
      "isClean" : true,
      "latLng" : "26.8838335,75.7405197",
      "locality" : " Nirman Nagar",
      "time" : "11:04",
      "user" : "EY0cg0gEW0WKz60icDpLpkaWSij2",
      "ward" : "64",
      "zone" : "Jhotwara"
    },
    "48" : {
      "address" : "Binjari Marg, Jhotwara Industrial Area, Jhotwara",
      "imageRef" : "2021~October~2021-10-21~2~48",
      "isClean" : true,
      "latLng" : "26.9656032,75.7442573",
      "locality" : " Jhotwara",
      "time" : "11:04",
      "user" : "ev0wnTlCHecAviBhj2QYe4lEAj13",
      "ward" : "14",
      "zone" : "Murlipura"
    },
    "49" : {
      "address" : "C118, J P Colony, Chitragupta Nagar-II, Imli Phatak, Tonk Phatak",
      "imageRef" : "2021~October~2021-10-21~2~49",
      "isClean" : true,
      "latLng" : "26.8860309,75.7949091",
      "locality" : " Tonk Phatak",
      "time" : "11:05",
      "user" : "IuLu0Y5oXnOBk36uubivHnKRMZE2",
      "ward" : "145",
      "zone" : "Malviya Nagar"
    },
    "50" : {
      "address" : "Shop No. 5, Ajay Vihar, Gandhi Path W, Deepak Watika, Lalarpura",
      "imageRef" : "2021~October~2021-10-21~2~50",
      "isClean" : true,
      "latLng" : "26.9036384,75.7163077",
      "locality" : " Lalarpura",
      "time" : "11:05",
      "user" : "5O4HmxdGWmcOa1J2WhJr16wb8uG3",
      "ward" : "53",
      "zone" : "Jhotwara"
    },
    "51" : {
      "address" : "Vardhaman Nagar, Sunder Nagar, Rani Sati Nagar, Nirman Nagar",
      "imageRef" : "2021~October~2021-10-21~2~51",
      "isClean" : true,
      "latLng" : "26.8838335,75.7405197",
      "locality" : " Nirman Nagar",
      "time" : "11:06",
      "user" : "EY0cg0gEW0WKz60icDpLpkaWSij2",
      "ward" : "64",
      "zone" : "Jhotwara"
    },
    "52" : {
      "address" : "3, Narayan Nagar Vistar, Deep Nagar, Jhotwara",
      "imageRef" : "2021~October~2021-10-21~2~52",
      "isClean" : true,
      "latLng" : "26.9654822,75.746576",
      "locality" : " Jhotwara",
      "time" : "11:07",
      "user" : "ev0wnTlCHecAviBhj2QYe4lEAj13",
      "ward" : "14",
      "zone" : "Murlipura"
    },
    "53" : {
      "address" : "6/267, Sector 6, Malviya Nagar",
      "imageRef" : "2021~October~2021-10-21~2~53",
      "isClean" : true,
      "latLng" : "26.8414456,75.8106354",
      "locality" : " Malviya Nagar",
      "time" : "11:08",
      "user" : "CL9bKpa1mUU7pn0n17oGFQJqYzy2",
      "ward" : "106",
      "zone" : "Jagatpura"
    },
    "54" : {
      "address" : "Mansarover Metro Station, Padmavti Colony, Nirman Nagar, Ranisati Nagar",
      "imageRef" : "2021~October~2021-10-21~2~54",
      "isClean" : true,
      "latLng" : "26.8796497,75.7504026",
      "locality" : " Ranisati Nagar",
      "time" : "11:09",
      "user" : "LB5ZuA5FjaclXAeRLRT2dIRkowk2",
      "ward" : "64",
      "zone" : "Jhotwara"
    },
    "55" : {
      "address" : "Vardhaman Nagar, Sunder Nagar, Rani Sati Nagar, Nirman Nagar",
      "imageRef" : "2021~October~2021-10-21~2~55",
      "isClean" : true,
      "latLng" : "26.8838335,75.7405197",
      "locality" : " Nirman Nagar",
      "time" : "11:09",
      "user" : "EY0cg0gEW0WKz60icDpLpkaWSij2",
      "ward" : "64",
      "zone" : "Jhotwara"
    },
    "56" : {
      "address" : "Jawahar Circle, Vishnu Enclave, Jawahar Circle, Malviya Nagar",
      "imageRef" : "2021~October~2021-10-21~2~56",
      "isClean" : true,
      "latLng" : "26.8423445,75.801506",
      "locality" : " Malviya Nagar",
      "time" : "11:09",
      "user" : "j7hB3Z4P3OdvSGPcavXtaHNuGBt2",
      "ward" : "125",
      "zone" : "Malviya Nagar"
    },
    "57" : {
      "address" : "298, Tonk Rd, Adarsh Basti, Madhuvan Colony, Barkat Nagar",
      "imageRef" : "2021~October~2021-10-21~2~57",
      "isClean" : true,
      "latLng" : "26.8778691,75.7949688",
      "locality" : " Barkat Nagar",
      "time" : "11:10",
      "user" : "IuLu0Y5oXnOBk36uubivHnKRMZE2",
      "ward" : "141",
      "zone" : "Malviya Nagar"
    },
    "58" : {
      "address" : "North Western Railway Head Quarters, NORTH WESTERN RAILWAY HEAD QUARTERS, Mother Teresa Colony, Malviya Nagar",
      "imageRef" : "2021~October~2021-10-21~2~58",
      "isClean" : true,
      "latLng" : "26.8413101,75.8109892",
      "locality" : " Malviya Nagar",
      "time" : "11:10",
      "user" : "CL9bKpa1mUU7pn0n17oGFQJqYzy2",
      "ward" : "106",
      "zone" : "Jagatpura"
    },
    "59" : {
      "address" : "Vardhaman Nagar, Sunder Nagar, Rani Sati Nagar, Nirman Nagar",
      "imageRef" : "2021~October~2021-10-21~2~59",
      "isClean" : true,
      "latLng" : "26.8838335,75.7405197",
      "locality" : " Nirman Nagar",
      "time" : "11:10",
      "user" : "EY0cg0gEW0WKz60icDpLpkaWSij2",
      "ward" : "64",
      "zone" : "Jhotwara"
    },
    "60" : {
      "address" : "3, Narayan Nagar Vistar, Deep Nagar, Jhotwara",
      "imageRef" : "2021~October~2021-10-21~2~60",
      "isClean" : true,
      "latLng" : "26.9654822,75.746576",
      "locality" : " Jhotwara",
      "time" : "11:10",
      "user" : "ev0wnTlCHecAviBhj2QYe4lEAj13",
      "ward" : "14",
      "zone" : "Murlipura"
    },
    "61" : {
      "address" : "A-62, Girdhar Marg, Ashok Vihar, Sector 11, Malviya Nagar",
      "imageRef" : "2021~October~2021-10-21~2~61",
      "isClean" : true,
      "latLng" : "26.843046,75.8143965",
      "locality" : " Malviya Nagar",
      "time" : "11:10",
      "user" : "CL9bKpa1mUU7pn0n17oGFQJqYzy2",
      "ward" : "126",
      "zone" : "Malviya Nagar"
    },
    "62" : {
      "address" : "1, Girdhar Marg, Ashok Vihar, Sector 11, Malviya Nagar",
      "imageRef" : "2021~October~2021-10-21~2~62",
      "isClean" : true,
      "latLng" : "26.8432583,75.8144501",
      "locality" : " Malviya Nagar",
      "time" : "11:11",
      "user" : "j7hB3Z4P3OdvSGPcavXtaHNuGBt2",
      "ward" : "126",
      "zone" : "Malviya Nagar"
    },
    "63" : {
      "address" : "4, Chitragupt Nagar 1st, Kidwai Nagar, Tonk Phatak",
      "imageRef" : "2021~October~2021-10-21~2~63",
      "isClean" : true,
      "latLng" : "26.8870131,75.7893015",
      "locality" : " Tonk Phatak",
      "time" : "11:12",
      "user" : "IuLu0Y5oXnOBk36uubivHnKRMZE2",
      "ward" : "145",
      "zone" : "Malviya Nagar"
    },
    "64" : {
      "address" : "129, Padmavti Colony, Nirman Nagar, Brijlalpura",
      "imageRef" : "2021~October~2021-10-21~2~64",
      "isClean" : true,
      "latLng" : "26.881415,75.7498442",
      "locality" : " Brijlalpura",
      "time" : "11:12",
      "user" : "LB5ZuA5FjaclXAeRLRT2dIRkowk2",
      "ward" : "64",
      "zone" : "Jhotwara"
    },
    "65" : {
      "address" : "1, Girdhar Marg, Ashok Vihar, Sector 11, Malviya Nagar",
      "imageRef" : "2021~October~2021-10-21~2~65",
      "isClean" : true,
      "latLng" : "26.8432583,75.8144501",
      "locality" : " Malviya Nagar",
      "time" : "11:12",
      "user" : "j7hB3Z4P3OdvSGPcavXtaHNuGBt2",
      "ward" : "126",
      "zone" : "Malviya Nagar"
    },
    "66" : {
      "address" : "B/7/A, Dadi Ka Phatak, Murlipura",
      "imageRef" : "2021~October~2021-10-21~2~66",
      "isClean" : true,
      "latLng" : "26.968372,75.75535",
      "locality" : " Murlipura",
      "time" : "11:12",
      "user" : "ev0wnTlCHecAviBhj2QYe4lEAj13",
      "ward" : "15",
      "zone" : "Murlipura"
    },
    "67" : {
      "address" : "33, Chitragupta Nagar-II, Kidwai Nagar, Tonk Phatak",
      "imageRef" : "2021~October~2021-10-21~2~67",
      "isClean" : true,
      "latLng" : "26.8873126,75.7933515",
      "locality" : " Tonk Phatak",
      "time" : "11:13",
      "user" : "IuLu0Y5oXnOBk36uubivHnKRMZE2",
      "ward" : "145",
      "zone" : "Malviya Nagar"
    },
    "68" : {
      "address" : "A-62, Girdhar Marg, Ashok Vihar, Sector 11, Malviya Nagar",
      "imageRef" : "2021~October~2021-10-21~2~68",
      "isClean" : true,
      "latLng" : "26.843046,75.8143965",
      "locality" : " Malviya Nagar",
      "time" : "11:13",
      "user" : "CL9bKpa1mUU7pn0n17oGFQJqYzy2",
      "ward" : "126",
      "zone" : "Malviya Nagar"
    },
    "69" : {
      "address" : "Vardhaman Nagar, Sunder Nagar, Rani Sati Nagar, Nirman Nagar",
      "imageRef" : "2021~October~2021-10-21~2~69",
      "isClean" : true,
      "latLng" : "26.8838335,75.7405197",
      "locality" : " Nirman Nagar",
      "time" : "11:13",
      "user" : "EY0cg0gEW0WKz60icDpLpkaWSij2",
      "ward" : "64",
      "zone" : "Jhotwara"
    },
    "70" : {
      "address" : "B/7/A, Dadi Ka Phatak, Murlipura",
      "imageRef" : "2021~October~2021-10-21~2~70",
      "isClean" : true,
      "latLng" : "26.968372,75.75535",
      "locality" : " Murlipura",
      "time" : "11:13",
      "user" : "ev0wnTlCHecAviBhj2QYe4lEAj13",
      "ward" : "15",
      "zone" : "Murlipura"
    },
    "71" : {
      "address" : "211, Sector 15, Sector 12, Malviya Nagar",
      "imageRef" : "2021~October~2021-10-21~2~71",
      "isClean" : true,
      "latLng" : "26.8438423,75.8112316",
      "locality" : " Malviya Nagar",
      "time" : "11:13",
      "user" : "CL9bKpa1mUU7pn0n17oGFQJqYzy2",
      "ward" : "126",
      "zone" : "Malviya Nagar"
    },
    "72" : {
      "address" : "plot no. 165 , jhotwara post office building , hanuman vatika ke saamne main kanta chauraha, Kalwar Rd, Laxmi Nagar III, Jagannath Puri, Suraj Nagar, Jhotwara",
      "imageRef" : "2021~October~2021-10-21~2~72",
      "isClean" : true,
      "latLng" : "26.9447673,75.7466531",
      "locality" : " Jhotwara",
      "time" : "11:13",
      "user" : "AfGurwTzesfcNInqIkyjFGXDoub2",
      "ward" : "32",
      "zone" : "Vidhyadhar"
    },
    "73" : {
      "address" : "Housing Board building 15/225-15/232, Sector 15, Sector 12, Malviya Nagar",
      "imageRef" : "2021~October~2021-10-21~2~73",
      "isClean" : true,
      "latLng" : "26.843821,75.8106849",
      "locality" : " Malviya Nagar",
      "time" : "11:13",
      "user" : "CL9bKpa1mUU7pn0n17oGFQJqYzy2",
      "ward" : "126",
      "zone" : "Malviya Nagar"
    },
    "74" : {
      "address" : "D 33, Ajmer Rd, Moti Nagar, Sanjay Nagar",
      "imageRef" : "2021~October~2021-10-21~2~74",
      "isClean" : true,
      "latLng" : "26.9000591,75.748365",
      "locality" : " Sanjay Nagar",
      "time" : "11:13",
      "user" : "UY2ftoJANGUZ4TfdOQnEA7mb6l82",
      "ward" : "58",
      "zone" : "Jhotwara"
    },
    "75" : {
      "address" : "Unnamed Road, Vidhyadhar Nagar, Jagatpura",
      "imageRef" : "2021~October~2021-10-21~2~75",
      "isClean" : true,
      "latLng" : "26.8273161,75.8437723",
      "locality" : " Jagatpura",
      "time" : "11:14",
      "user" : "0fwKH9Zi3hZBdTXlse3SMQJ0zjr1",
      "ward" : "116",
      "zone" : "Jagatpura"
    },
    "76" : {
      "address" : "sharma autocare Sector 12 Rd, Girdhar Marg, Sector 12, Malviya Nagar",
      "imageRef" : "2021~October~2021-10-21~2~76",
      "isClean" : true,
      "latLng" : "26.8441235,75.8137145",
      "locality" : " Malviya Nagar",
      "time" : "11:14",
      "user" : "j7hB3Z4P3OdvSGPcavXtaHNuGBt2",
      "ward" : "126",
      "zone" : "Malviya Nagar"
    },
    "77" : {
      "address" : "33, Chitragupta Nagar-II, Kidwai Nagar, Tonk Phatak",
      "imageRef" : "2021~October~2021-10-21~2~77",
      "isClean" : true,
      "latLng" : "26.8873126,75.7933515",
      "locality" : " Tonk Phatak",
      "time" : "11:14",
      "user" : "IuLu0Y5oXnOBk36uubivHnKRMZE2",
      "ward" : "145",
      "zone" : "Malviya Nagar"
    },
    "78" : {
      "address" : "C118, J P Colony, Chitragupta Nagar-II, Imli Phatak, Tonk Phatak",
      "imageRef" : "2021~October~2021-10-21~2~78",
      "isClean" : true,
      "latLng" : "26.8860283,75.7948953",
      "locality" : " Tonk Phatak",
      "time" : "11:15",
      "user" : "IuLu0Y5oXnOBk36uubivHnKRMZE2",
      "ward" : "145",
      "zone" : "Malviya Nagar"
    },
    "79" : {
      "address" : "sharma autocare Sector 12 Rd, Girdhar Marg, Sector 12, Malviya Nagar",
      "imageRef" : "2021~October~2021-10-21~2~79",
      "isClean" : true,
      "latLng" : "26.8441235,75.8137145",
      "locality" : " Malviya Nagar",
      "time" : "11:15",
      "user" : "j7hB3Z4P3OdvSGPcavXtaHNuGBt2",
      "ward" : "126",
      "zone" : "Malviya Nagar"
    },
    "80" : {
      "address" : "C118, J P Colony, Chitragupta Nagar-II, Imli Phatak, Tonk Phatak",
      "imageRef" : "2021~October~2021-10-21~2~80",
      "isClean" : true,
      "latLng" : "26.8860283,75.7948953",
      "locality" : " Tonk Phatak",
      "time" : "11:15",
      "user" : "IuLu0Y5oXnOBk36uubivHnKRMZE2",
      "ward" : "145",
      "zone" : "Malviya Nagar"
    },
    "81" : {
      "address" : "74, Kings Rd, Padmawati Colony 2, Padmavti Colony, Nirman Nagar, Brijlalpura",
      "imageRef" : "2021~October~2021-10-21~2~81",
      "isClean" : true,
      "latLng" : "26.8822137,75.7526598",
      "locality" : " Brijlalpura",
      "time" : "11:15",
      "user" : "LB5ZuA5FjaclXAeRLRT2dIRkowk2",
      "ward" : "Not Found",
      "zone" : "Not Found"
    },
    "82" : {
      "address" : "35, Ganga Jamuna Colony, Dahar Ka Balaji",
      "imageRef" : "2021~October~2021-10-21~2~82",
      "isClean" : true,
      "latLng" : "26.9668765,75.7611464",
      "locality" : " Dahar Ka Balaji",
      "time" : "11:16",
      "user" : "ev0wnTlCHecAviBhj2QYe4lEAj13",
      "ward" : "18",
      "zone" : "Murlipura"
    },
    "83" : {
      "address" : "Unnamed Road, Vidhyadhar Nagar, Jagatpura",
      "imageRef" : "2021~October~2021-10-21~2~83",
      "isClean" : true,
      "latLng" : "26.8273161,75.8437723",
      "locality" : " Jagatpura",
      "time" : "11:16",
      "user" : "0fwKH9Zi3hZBdTXlse3SMQJ0zjr1",
      "ward" : "116",
      "zone" : "Jagatpura"
    },
    "84" : {
      "address" : "33, Hanuman Nagar, Bambala",
      "imageRef" : "2021~October~2021-10-21~2~84",
      "isClean" : true,
      "latLng" : "26.8094423,75.7807464",
      "locality" : " Bambala",
      "time" : "11:17",
      "user" : "EY0cg0gEW0WKz60icDpLpkaWSij2",
      "ward" : "92",
      "zone" : "Sanganer"
    },
    "85" : {
      "address" : "61A, Gandhi Path W, Chitrakoot",
      "imageRef" : "2021~October~2021-10-21~2~85",
      "isClean" : true,
      "latLng" : "26.9050711,75.7242199",
      "locality" : " Chitrakoot",
      "time" : "11:17",
      "user" : "lesTp06fnmbFxUpdCWwLQu8Q5Uz1",
      "ward" : "53",
      "zone" : "Jhotwara"
    },
    "86" : {
      "address" : "sharma autocare Sector 12 Rd, Girdhar Marg, Sector 12, Malviya Nagar",
      "imageRef" : "2021~October~2021-10-21~2~86",
      "isClean" : true,
      "latLng" : "26.8441235,75.8137145",
      "locality" : " Malviya Nagar",
      "time" : "11:17",
      "user" : "j7hB3Z4P3OdvSGPcavXtaHNuGBt2",
      "ward" : "126",
      "zone" : "Malviya Nagar"
    },
    "87" : {
      "address" : "D 33, Ajmer Rd, Moti Nagar, Sanjay Nagar",
      "imageRef" : "2021~October~2021-10-21~2~87",
      "isClean" : true,
      "latLng" : "26.9000591,75.748365",
      "locality" : " Sanjay Nagar",
      "time" : "11:17",
      "user" : "UY2ftoJANGUZ4TfdOQnEA7mb6l82",
      "ward" : "58",
      "zone" : "Jhotwara"
    },
    "88" : {
      "address" : "plot no. 165 , jhotwara post office building , hanuman vatika ke saamne main kanta chauraha, Kalwar Rd, Laxmi Nagar III, Jagannath Puri, Suraj Nagar, Jhotwara",
      "imageRef" : "2021~October~2021-10-21~2~88",
      "isClean" : true,
      "latLng" : "26.9448618,75.7465818",
      "locality" : " Jhotwara",
      "time" : "11:18",
      "user" : "AfGurwTzesfcNInqIkyjFGXDoub2",
      "ward" : "32",
      "zone" : "Vidhyadhar"
    },
    "89" : {
      "address" : "74, Kings Rd, Padmawati Colony 2, Padmavti Colony, Nirman Nagar, Brijlalpura",
      "imageRef" : "2021~October~2021-10-21~2~89",
      "isClean" : true,
      "latLng" : "26.8822137,75.7526598",
      "locality" : " Brijlalpura",
      "time" : "11:18",
      "user" : "LB5ZuA5FjaclXAeRLRT2dIRkowk2",
      "ward" : "Not Found",
      "zone" : "Not Found"
    },
    "90" : {
      "address" : "D 33, Ajmer Rd, Moti Nagar, Sanjay Nagar",
      "imageRef" : "2021~October~2021-10-21~2~90",
      "isClean" : true,
      "latLng" : "26.9000591,75.748365",
      "locality" : " Sanjay Nagar",
      "time" : "11:18",
      "user" : "UY2ftoJANGUZ4TfdOQnEA7mb6l82",
      "ward" : "58",
      "zone" : "Jhotwara"
    },
    "91" : {
      "address" : "4/35, Vidyut Abhiyanta Colony, Sector 4, Malviya Nagar",
      "imageRef" : "2021~October~2021-10-21~2~91",
      "isClean" : true,
      "latLng" : "26.849227,75.8140317",
      "locality" : " Malviya Nagar",
      "time" : "11:18",
      "user" : "j7hB3Z4P3OdvSGPcavXtaHNuGBt2",
      "ward" : "132",
      "zone" : "Malviya Nagar"
    },
    "92" : {
      "address" : "35, Ganga Jamuna Colony, Dahar Ka Balaji",
      "imageRef" : "2021~October~2021-10-21~2~92",
      "isClean" : true,
      "latLng" : "26.9668765,75.7611464",
      "locality" : " Dahar Ka Balaji",
      "time" : "11:18",
      "user" : "ev0wnTlCHecAviBhj2QYe4lEAj13",
      "ward" : "18",
      "zone" : "Murlipura"
    },
    "93" : {
      "address" : "B-47, Jhotwara Road, Lalarpura",
      "imageRef" : "2021~October~2021-10-21~2~93",
      "isClean" : true,
      "latLng" : "26.9083399,75.7278112",
      "locality" : " Lalarpura",
      "time" : "11:18",
      "user" : "lesTp06fnmbFxUpdCWwLQu8Q5Uz1",
      "ward" : "53",
      "zone" : "Jhotwara"
    },
    "94" : {
      "address" : "14-19, Lal Kothi Scheme, Lalkothi",
      "imageRef" : "2021~October~2021-10-21~2~94",
      "isClean" : true,
      "latLng" : "26.8861142,75.7965687",
      "locality" : " Lalkothi",
      "time" : "11:19",
      "user" : "IuLu0Y5oXnOBk36uubivHnKRMZE2",
      "ward" : "142",
      "zone" : "Malviya Nagar"
    },
    "95" : {
      "address" : "33, Hanuman Nagar, Bambala",
      "imageRef" : "2021~October~2021-10-21~2~95",
      "isClean" : true,
      "latLng" : "26.8094423,75.7807464",
      "locality" : " Bambala",
      "time" : "11:19",
      "user" : "EY0cg0gEW0WKz60icDpLpkaWSij2",
      "ward" : "92",
      "zone" : "Sanganer"
    },
    "96" : {
      "address" : "14-19, Lal Kothi Scheme, Lalkothi",
      "imageRef" : "2021~October~2021-10-21~2~96",
      "isClean" : true,
      "latLng" : "26.8861142,75.7965687",
      "locality" : " Lalkothi",
      "time" : "11:19",
      "user" : "IuLu0Y5oXnOBk36uubivHnKRMZE2",
      "ward" : "142",
      "zone" : "Malviya Nagar"
    },
    "97" : {
      "address" : "D 33, Ajmer Rd, Moti Nagar, Sanjay Nagar",
      "imageRef" : "2021~October~2021-10-21~2~97",
      "isClean" : true,
      "latLng" : "26.9000591,75.748365",
      "locality" : " Sanjay Nagar",
      "time" : "11:19",
      "user" : "UY2ftoJANGUZ4TfdOQnEA7mb6l82",
      "ward" : "58",
      "zone" : "Jhotwara"
    },
    "98" : {
      "address" : "B-47, Jhotwara Road, Lalarpura",
      "imageRef" : "2021~October~2021-10-21~2~98",
      "isClean" : true,
      "latLng" : "26.9083399,75.7278112",
      "locality" : " Lalarpura",
      "time" : "11:20",
      "user" : "lesTp06fnmbFxUpdCWwLQu8Q5Uz1",
      "ward" : "53",
      "zone" : "Jhotwara"
    },
    "99" : {
      "address" : "plot no. 62, Vishnu vihar. 200 ft bypass, Ajmer Rd, Dhawas, Vikash Nagar-D, Heerapura, Vaishali Nagar",
      "imageRef" : "2021~October~2021-10-21~2~99",
      "isClean" : true,
      "latLng" : "26.8923765,75.7252911",
      "locality" : " Vaishali Nagar",
      "time" : "11:20",
      "user" : "f63WCJ0Lynd58cD0s0IXlxY2ANp2",
      "ward" : "59",
      "zone" : "Jhotwara"
    },
    "100" : {
      "address" : "Unnamed Road, Vidhyadhar Nagar, Jagatpura",
      "imageRef" : "2021~October~2021-10-21~2~100",
      "isClean" : true,
      "latLng" : "26.8273161,75.8437723",
      "locality" : " Jagatpura",
      "time" : "11:20",
      "user" : "0fwKH9Zi3hZBdTXlse3SMQJ0zjr1",
      "ward" : "116",
      "zone" : "Jagatpura"
    },
    "101" : {
      "address" : "106, Jhotwara Rd, Sanjay Nagar, Jagannath Puri, Suraj Nagar, Jhotwara",
      "imageRef" : "2021~October~2021-10-21~2~101",
      "isClean" : true,
      "latLng" : "26.9471262,75.7469555",
      "locality" : " Jhotwara",
      "time" : "11:21",
      "user" : "AfGurwTzesfcNInqIkyjFGXDoub2",
      "ward" : "32",
      "zone" : "Vidhyadhar"
    },
    "102" : {
      "address" : "33, Hanuman Nagar, Bambala",
      "imageRef" : "2021~October~2021-10-21~2~102",
      "isClean" : true,
      "latLng" : "26.8094423,75.7807464",
      "locality" : " Bambala",
      "time" : "11:21",
      "user" : "EY0cg0gEW0WKz60icDpLpkaWSij2",
      "ward" : "92",
      "zone" : "Sanganer"
    },
    "103" : {
      "address" : "14-19, Lal Kothi Scheme, Lalkothi",
      "imageRef" : "2021~October~2021-10-21~2~103",
      "isClean" : true,
      "latLng" : "26.8861142,75.7965687",
      "locality" : " Lalkothi",
      "time" : "11:21",
      "user" : "IuLu0Y5oXnOBk36uubivHnKRMZE2",
      "ward" : "142",
      "zone" : "Malviya Nagar"
    },
    "104" : {
      "address" : "33, Hanuman Nagar, Bambala",
      "imageRef" : "2021~October~2021-10-21~2~104",
      "isClean" : true,
      "latLng" : "26.8094423,75.7807464",
      "locality" : " Bambala",
      "time" : "11:22",
      "user" : "EY0cg0gEW0WKz60icDpLpkaWSij2",
      "ward" : "92",
      "zone" : "Sanganer"
    },
    "105" : {
      "address" : "VQMX+2F8, Lalkothi",
      "imageRef" : "2021~October~2021-10-21~2~105",
      "isClean" : true,
      "latLng" : "26.8825401,75.7983957",
      "locality" : " Lalkothi",
      "time" : "11:22",
      "user" : "IuLu0Y5oXnOBk36uubivHnKRMZE2",
      "ward" : "142",
      "zone" : "Malviya Nagar"
    },
    "106" : {
      "address" : "Unnamed Road, Sanganer, Bambala",
      "imageRef" : "2021~October~2021-10-21~2~106",
      "isClean" : true,
      "latLng" : "26.796325,75.8013604",
      "locality" : " Bambala",
      "time" : "11:22",
      "user" : "bKMm4RGBkcbqQ85cASW4mhP5WLy2",
      "ward" : "98",
      "zone" : "Sanganer"
    },
    "107" : {
      "address" : "B-47, Jhotwara Road, Lalarpura",
      "imageRef" : "2021~October~2021-10-21~2~107",
      "isClean" : true,
      "latLng" : "26.9083399,75.7278112",
      "locality" : " Lalarpura",
      "time" : "11:22",
      "user" : "lesTp06fnmbFxUpdCWwLQu8Q5Uz1",
      "ward" : "53",
      "zone" : "Jhotwara"
    },
    "108" : {
      "address" : "VQMX+2F8, Lalkothi",
      "imageRef" : "2021~October~2021-10-21~2~108",
      "isClean" : true,
      "latLng" : "26.8825401,75.7983957",
      "locality" : " Lalkothi",
      "time" : "11:23",
      "user" : "IuLu0Y5oXnOBk36uubivHnKRMZE2",
      "ward" : "142",
      "zone" : "Malviya Nagar"
    },
    "109" : {
      "address" : "Jagatpura Rd, Mayapuri, Jagatpura",
      "imageRef" : "2021~October~2021-10-21~2~109",
      "isClean" : true,
      "latLng" : "26.8356428,75.8299721",
      "locality" : " Jagatpura",
      "time" : "11:23",
      "user" : "0fwKH9Zi3hZBdTXlse3SMQJ0zjr1",
      "ward" : "112",
      "zone" : "Jagatpura"
    },
    "110" : {
      "address" : "33, Hanuman Nagar, Bambala",
      "imageRef" : "2021~October~2021-10-21~2~110",
      "isClean" : true,
      "latLng" : "26.8094423,75.7807464",
      "locality" : " Bambala",
      "time" : "11:23",
      "user" : "EY0cg0gEW0WKz60icDpLpkaWSij2",
      "ward" : "92",
      "zone" : "Sanganer"
    },
    "111" : {
      "address" : "Jagatpura Rd, Mayapuri, Jagatpura",
      "imageRef" : "2021~October~2021-10-21~2~111",
      "isClean" : false,
      "latLng" : "26.8356428,75.8299721",
      "locality" : " Jagatpura",
      "time" : "11:24",
      "user" : "0fwKH9Zi3hZBdTXlse3SMQJ0zjr1",
      "ward" : "112",
      "zone" : "Jagatpura"
    },
    "112" : {
      "address" : "Pashu Dhan Bhavan, Sawai Ram Singh Rd, Lalkothi",
      "imageRef" : "2021~October~2021-10-21~2~112",
      "isClean" : true,
      "latLng" : "26.8831898,75.8000247",
      "locality" : " Lalkothi",
      "time" : "11:24",
      "user" : "IuLu0Y5oXnOBk36uubivHnKRMZE2",
      "ward" : "142",
      "zone" : "Malviya Nagar"
    },
    "113" : {
      "address" : "Pashu Dhan Bhavan, Sawai Ram Singh Rd, Lalkothi",
      "imageRef" : "2021~October~2021-10-21~2~113",
      "isClean" : true,
      "latLng" : "26.8831898,75.8000247",
      "locality" : " Lalkothi",
      "time" : "11:25",
      "user" : "IuLu0Y5oXnOBk36uubivHnKRMZE2",
      "ward" : "142",
      "zone" : "Malviya Nagar"
    },
    "114" : {
      "address" : "D 33, Ajmer Rd, Moti Nagar, Sanjay Nagar",
      "imageRef" : "2021~October~2021-10-21~2~114",
      "isClean" : true,
      "latLng" : "26.9000591,75.748365",
      "locality" : " Sanjay Nagar",
      "time" : "11:25",
      "user" : "UY2ftoJANGUZ4TfdOQnEA7mb6l82",
      "ward" : "58",
      "zone" : "Jhotwara"
    },
    "115" : {
      "address" : "ARUN YOGA CLASSES,,53 Shri ram nagar-D,near hotel palak paradise, Tara Nagar, Jhotwara",
      "imageRef" : "2021~October~2021-10-21~2~115",
      "isClean" : true,
      "latLng" : "26.9374778,75.7323191",
      "locality" : " Jhotwara",
      "time" : "11:25",
      "user" : "5O4HmxdGWmcOa1J2WhJr16wb8uG3",
      "ward" : "39",
      "zone" : "Vidhyadhar"
    },
    "116" : {
      "address" : "1, Shree Ram Nagar - A, RIICO Industrial Area, Bindayaka",
      "imageRef" : "2021~October~2021-10-21~2~116",
      "isClean" : true,
      "latLng" : "26.9113558,75.7181216",
      "locality" : " Bindayaka",
      "time" : "11:25",
      "user" : "lesTp06fnmbFxUpdCWwLQu8Q5Uz1",
      "ward" : "53",
      "zone" : "Jhotwara"
    },
    "117" : {
      "address" : "90, Tagore Marg, Sanjay Nagar, Jagannath Puri, Suraj Nagar, Jhotwara",
      "imageRef" : "2021~October~2021-10-21~2~117",
      "isClean" : true,
      "latLng" : "26.9456524,75.7467921",
      "locality" : " Jhotwara",
      "time" : "11:25",
      "user" : "AfGurwTzesfcNInqIkyjFGXDoub2",
      "ward" : "32",
      "zone" : "Vidhyadhar"
    },
    "118" : {
      "address" : "Pashu Dhan Bhavan, Sawai Ram Singh Rd, Lalkothi",
      "imageRef" : "2021~October~2021-10-21~2~118",
      "isClean" : true,
      "latLng" : "26.8831898,75.8000247",
      "locality" : " Lalkothi",
      "time" : "11:27",
      "user" : "IuLu0Y5oXnOBk36uubivHnKRMZE2",
      "ward" : "142",
      "zone" : "Malviya Nagar"
    },
    "119" : {
      "address" : "C-97, Satya Vihar, Lal Kothi Scheme, Lalkothi",
      "imageRef" : "2021~October~2021-10-21~2~119",
      "isClean" : true,
      "latLng" : "26.8896885,75.7983516",
      "locality" : " Lalkothi",
      "time" : "11:27",
      "user" : "IuLu0Y5oXnOBk36uubivHnKRMZE2",
      "ward" : "142",
      "zone" : "Malviya Nagar"
    },
    "120" : {
      "address" : "58, Gandhi Path W, Chandravatika - C, Lalarpura",
      "imageRef" : "2021~October~2021-10-21~2~120",
      "isClean" : true,
      "latLng" : "26.9047366,75.7188869",
      "locality" : " Lalarpura",
      "time" : "11:28",
      "user" : "lesTp06fnmbFxUpdCWwLQu8Q5Uz1",
      "ward" : "53",
      "zone" : "Jhotwara"
    },
    "121" : {
      "address" : "plot no. 62, Vishnu vihar. 200 ft bypass, Ajmer Rd, Dhawas, Vikash Nagar-D, Heerapura, Vaishali Nagar",
      "imageRef" : "2021~October~2021-10-21~2~121",
      "isClean" : true,
      "latLng" : "26.8923614,75.7253101",
      "locality" : " Vaishali Nagar",
      "time" : "11:33",
      "user" : "f63WCJ0Lynd58cD0s0IXlxY2ANp2",
      "ward" : "59",
      "zone" : "Jhotwara"
    },
    "122" : {
      "address" : "plot no. 62, Vishnu vihar. 200 ft bypass, Ajmer Rd, Dhawas, Vikash Nagar-D, Heerapura, Vaishali Nagar",
      "imageRef" : "2021~October~2021-10-21~2~122",
      "isClean" : true,
      "latLng" : "26.8923614,75.7253101",
      "locality" : " Vaishali Nagar",
      "time" : "11:33",
      "user" : "f63WCJ0Lynd58cD0s0IXlxY2ANp2",
      "ward" : "59",
      "zone" : "Jhotwara"
    },
    "123" : {
      "address" : "279, Singh Marg, Navdeep Vihar, Bhairav Nagar, Lalarpura",
      "imageRef" : "2021~October~2021-10-21~2~123",
      "isClean" : true,
      "latLng" : "26.8988578,75.7235962",
      "locality" : " Lalarpura",
      "time" : "11:33",
      "user" : "f63WCJ0Lynd58cD0s0IXlxY2ANp2",
      "ward" : "59",
      "zone" : "Jhotwara"
    },
    "124" : {
      "address" : "279, Singh Marg, Navdeep Vihar, Bhairav Nagar, Lalarpura",
      "imageRef" : "2021~October~2021-10-21~2~124",
      "isClean" : true,
      "latLng" : "26.8988578,75.7235962",
      "locality" : " Lalarpura",
      "time" : "11:34",
      "user" : "f63WCJ0Lynd58cD0s0IXlxY2ANp2",
      "ward" : "59",
      "zone" : "Jhotwara"
    },
    "125" : {
      "address" : "279, Singh Marg, Navdeep Vihar, Bhairav Nagar, Lalarpura",
      "imageRef" : "2021~October~2021-10-21~2~125",
      "isClean" : true,
      "latLng" : "26.8988578,75.7235962",
      "locality" : " Lalarpura",
      "time" : "11:34",
      "user" : "f63WCJ0Lynd58cD0s0IXlxY2ANp2",
      "ward" : "59",
      "zone" : "Jhotwara"
    },
    "126" : {
      "address" : "A-305, Raavi Path, Tara Nagar-A, Tara Nagar, Jhotwara",
      "imageRef" : "2021~October~2021-10-21~2~126",
      "isClean" : true,
      "latLng" : "26.9342267,75.7424139",
      "locality" : " Jhotwara",
      "time" : "11:34",
      "user" : "q824l6Y9DwXAx5nm9I9C1cImcRo1",
      "ward" : "39",
      "zone" : "Vidhyadhar"
    },
    "127" : {
      "address" : "279, Singh Marg, Navdeep Vihar, Bhairav Nagar, Lalarpura",
      "imageRef" : "2021~October~2021-10-21~2~127",
      "isClean" : true,
      "latLng" : "26.8987983,75.7235596",
      "locality" : " Lalarpura",
      "time" : "11:35",
      "user" : "f63WCJ0Lynd58cD0s0IXlxY2ANp2",
      "ward" : "59",
      "zone" : "Jhotwara"
    },
    "128" : {
      "address" : "52a/a, Amrapali Circle, Vaishali Nagar",
      "imageRef" : "2021~October~2021-10-21~2~128",
      "isClean" : true,
      "latLng" : "26.8980807,75.7230003",
      "locality" : " Vaishali Nagar",
      "time" : "11:35",
      "user" : "f63WCJ0Lynd58cD0s0IXlxY2ANp2",
      "ward" : "59",
      "zone" : "Jhotwara"
    },
    "129" : {
      "address" : "220 Sanjay Nagar D 200 Feet Road 31 No Bus Stand, Chaki Wali Gali, Shanti Path, Jhotwara",
      "imageRef" : "2021~October~2021-10-21~2~129",
      "isClean" : true,
      "latLng" : "26.9502495,75.7367805",
      "locality" : " Jhotwara",
      "time" : "11:36",
      "user" : "5O4HmxdGWmcOa1J2WhJr16wb8uG3",
      "ward" : "29",
      "zone" : "Vidhyadhar"
    },
    "130" : {
      "address" : "52a/a, Amrapali Circle, Vaishali Nagar",
      "imageRef" : "2021~October~2021-10-21~2~130",
      "isClean" : true,
      "latLng" : "26.8980807,75.7230003",
      "locality" : " Vaishali Nagar",
      "time" : "11:36",
      "user" : "f63WCJ0Lynd58cD0s0IXlxY2ANp2",
      "ward" : "59",
      "zone" : "Jhotwara"
    },
    "131" : {
      "address" : "52a/a, Amrapali Circle, Vaishali Nagar",
      "imageRef" : "2021~October~2021-10-21~2~131",
      "isClean" : true,
      "latLng" : "26.8980807,75.7230003",
      "locality" : " Vaishali Nagar",
      "time" : "11:36",
      "user" : "f63WCJ0Lynd58cD0s0IXlxY2ANp2",
      "ward" : "59",
      "zone" : "Jhotwara"
    },
    "132" : {
      "address" : "40-a, Vikas Nagar-B, Heerapura, Girdharipura",
      "imageRef" : "2021~October~2021-10-21~2~132",
      "isClean" : true,
      "latLng" : "26.8986396,75.7219268",
      "locality" : " Girdharipura",
      "time" : "11:37",
      "user" : "f63WCJ0Lynd58cD0s0IXlxY2ANp2",
      "ward" : "59",
      "zone" : "Jhotwara"
    },
    "133" : {
      "address" : "Bhura Patel Marg, Bhairav Nagar, Ayodhya Nagar",
      "imageRef" : "2021~October~2021-10-21~2~133",
      "isClean" : true,
      "latLng" : "26.9027764,75.7213074",
      "locality" : " Ayodhya Nagar",
      "time" : "11:39",
      "user" : "f63WCJ0Lynd58cD0s0IXlxY2ANp2",
      "ward" : "56",
      "zone" : "Jhotwara"
    },
    "134" : {
      "address" : "28, Satyandranath Vidyarthi Marg, Sector 12, Malviya Nagar",
      "imageRef" : "2021~October~2021-10-21~2~134",
      "isClean" : true,
      "latLng" : "26.846098,75.8084021",
      "locality" : " Malviya Nagar",
      "time" : "11:40",
      "user" : "CL9bKpa1mUU7pn0n17oGFQJqYzy2",
      "ward" : "126",
      "zone" : "Malviya Nagar"
    },
    "135" : {
      "address" : "Bhura Patel Marg, Bhairav Nagar, Ayodhya Nagar",
      "imageRef" : "2021~October~2021-10-21~2~135",
      "isClean" : true,
      "latLng" : "26.9027764,75.7213074",
      "locality" : " Ayodhya Nagar",
      "time" : "11:40",
      "user" : "f63WCJ0Lynd58cD0s0IXlxY2ANp2",
      "ward" : "56",
      "zone" : "Jhotwara"
    },
    "136" : {
      "address" : "220 Sanjay Nagar D 200 Feet Road 31 No Bus Stand, Chaki Wali Gali, Shanti Path, Jhotwara",
      "imageRef" : "2021~October~2021-10-21~2~136",
      "isClean" : true,
      "latLng" : "26.9501516,75.7367738",
      "locality" : " Jhotwara",
      "time" : "11:40",
      "user" : "5O4HmxdGWmcOa1J2WhJr16wb8uG3",
      "ward" : "32",
      "zone" : "Vidhyadhar"
    },
    "137" : {
      "address" : "Laxmi Tower, Main Market, Nagar Nigam Rd, near K.K.Electrical, Raigarh Chhota Mohalla, Dada Gurudev Nagar, Sanganer",
      "imageRef" : "2021~October~2021-10-21~2~137",
      "isClean" : true,
      "latLng" : "26.8127297,75.7844187",
      "locality" : " Sanganer",
      "time" : "11:40",
      "user" : "EY0cg0gEW0WKz60icDpLpkaWSij2",
      "ward" : "93",
      "zone" : "Sanganer"
    },
    "138" : {
      "address" : "A-12C, Kings Rd, Padmavti Colony, Nirman Nagar, Brijlalpura",
      "imageRef" : "2021~October~2021-10-21~2~138",
      "isClean" : true,
      "latLng" : "26.8801657,75.7515399",
      "locality" : " Brijlalpura",
      "time" : "11:41",
      "user" : "LB5ZuA5FjaclXAeRLRT2dIRkowk2",
      "ward" : "Not Found",
      "zone" : "Not Found"
    },
    "139" : {
      "address" : "A-12C, Kings Rd, Padmavti Colony, Nirman Nagar, Brijlalpura",
      "imageRef" : "2021~October~2021-10-21~2~139",
      "isClean" : true,
      "latLng" : "26.8801657,75.7515399",
      "locality" : " Brijlalpura",
      "time" : "11:41",
      "user" : "LB5ZuA5FjaclXAeRLRT2dIRkowk2",
      "ward" : "Not Found",
      "zone" : "Not Found"
    },
    "140" : {
      "address" : "Bhura Patel Marg, Bhairav Nagar, Ayodhya Nagar",
      "imageRef" : "2021~October~2021-10-21~2~140",
      "isClean" : true,
      "latLng" : "26.9027764,75.7213074",
      "locality" : " Ayodhya Nagar",
      "time" : "11:41",
      "user" : "f63WCJ0Lynd58cD0s0IXlxY2ANp2",
      "ward" : "56",
      "zone" : "Jhotwara"
    },
    "141" : {
      "address" : "293 sanjay nagar 200 feet road joshi marg, near, Kalwar Rd, Shanti Path, Jhotwara",
      "imageRef" : "2021~October~2021-10-21~2~141",
      "isClean" : true,
      "latLng" : "26.9502094,75.7364633",
      "locality" : " Jhotwara",
      "time" : "11:42",
      "user" : "5O4HmxdGWmcOa1J2WhJr16wb8uG3",
      "ward" : "Not Found",
      "zone" : "Not Found"
    },
    "142" : {
      "address" : "293 sanjay nagar 200 feet road joshi marg, near, Kalwar Rd, Shanti Path, Jhotwara",
      "imageRef" : "2021~October~2021-10-21~2~142",
      "isClean" : true,
      "latLng" : "26.9502094,75.7364633",
      "locality" : " Jhotwara",
      "time" : "11:42",
      "user" : "5O4HmxdGWmcOa1J2WhJr16wb8uG3",
      "ward" : "Not Found",
      "zone" : "Not Found"
    },
    "143" : {
      "address" : "32, 200   , Shivaji Nagar, Jagannath Puri, Suraj Nagar, Jhotwara",
      "imageRef" : "2021~October~2021-10-21~2~143",
      "isClean" : true,
      "latLng" : "26.9494599,75.7406942",
      "locality" : " Jhotwara",
      "time" : "11:42",
      "user" : "AfGurwTzesfcNInqIkyjFGXDoub2",
      "ward" : "32",
      "zone" : "Vidhyadhar"
    },
    "144" : {
      "address" : "C182, Bhura Patel Marg, Kanha Vihar, Bhairav Nagar, Lalarpura",
      "imageRef" : "2021~October~2021-10-21~2~144",
      "isClean" : true,
      "latLng" : "26.9028166,75.7214124",
      "locality" : " Lalarpura",
      "time" : "11:43",
      "user" : "f63WCJ0Lynd58cD0s0IXlxY2ANp2",
      "ward" : "56",
      "zone" : "Jhotwara"
    },
    "145" : {
      "address" : "Platinum Height, M D Height, Lalarpura",
      "imageRef" : "2021~October~2021-10-21~2~145",
      "isClean" : true,
      "latLng" : "26.9006279,75.7162101",
      "locality" : " Lalarpura",
      "time" : "11:43",
      "user" : "f63WCJ0Lynd58cD0s0IXlxY2ANp2",
      "ward" : "56",
      "zone" : "Jhotwara"
    },
    "146" : {
      "address" : "Shop No. 416/2, 80ft. Road, Kanta Choraha, Jhotwara,, Laxmi Nagar III, Jagannath Puri, Suraj Nagar, Jhotwara",
      "imageRef" : "2021~October~2021-10-21~2~146",
      "isClean" : true,
      "latLng" : "26.9469971,75.7441415",
      "locality" : " Jhotwara",
      "time" : "11:45",
      "user" : "AfGurwTzesfcNInqIkyjFGXDoub2",
      "ward" : "32",
      "zone" : "Vidhyadhar"
    },
    "147" : {
      "address" : "188, Shiv Shakti Nagar, Brijlalpura",
      "imageRef" : "2021~October~2021-10-21~2~147",
      "isClean" : true,
      "latLng" : "26.8800244,75.754555",
      "locality" : " Brijlalpura",
      "time" : "11:45",
      "user" : "LB5ZuA5FjaclXAeRLRT2dIRkowk2",
      "ward" : "Not Found",
      "zone" : "Not Found"
    },
    "148" : {
      "address" : "188, Shiv Shakti Nagar, Brijlalpura",
      "imageRef" : "2021~October~2021-10-21~2~148",
      "isClean" : true,
      "latLng" : "26.8800244,75.754555",
      "locality" : " Brijlalpura",
      "time" : "11:46",
      "user" : "LB5ZuA5FjaclXAeRLRT2dIRkowk2",
      "ward" : "Not Found",
      "zone" : "Not Found"
    },
    "149" : {
      "address" : "Shop No S-5, VKI Road no 14 Near Express highway flyover (service lane, opposite Milan Cinema, Vishwakarma Industrial Area",
      "imageRef" : "2021~October~2021-10-21~2~149",
      "isClean" : true,
      "latLng" : "26.9983178,75.7722748",
      "locality" : " Vishwakarma Industrial Area",
      "time" : "11:46",
      "user" : "RxDvTuUUsCTs9GcCg5g0iG9fA3t2",
      "ward" : "8",
      "zone" : "Murlipura"
    },
    "150" : {
      "address" : "188, Shiv Shakti Nagar, Brijlalpura",
      "imageRef" : "2021~October~2021-10-21~2~150",
      "isClean" : true,
      "latLng" : "26.8800244,75.754555",
      "locality" : " Brijlalpura",
      "time" : "11:46",
      "user" : "LB5ZuA5FjaclXAeRLRT2dIRkowk2",
      "ward" : "Not Found",
      "zone" : "Not Found"
    },
    "151" : {
      "address" : "50-51, Shanti Path, Niwaru",
      "imageRef" : "2021~October~2021-10-21~2~151",
      "isClean" : true,
      "latLng" : "26.956157,75.7334914",
      "locality" : " Niwaru",
      "time" : "11:46",
      "user" : "5O4HmxdGWmcOa1J2WhJr16wb8uG3",
      "ward" : "28",
      "zone" : "Vidhyadhar"
    },
    "152" : {
      "address" : "Genius Park, engneers colony, panchywala, Sirsi Rd, Commander Colony, Kanakpura",
      "imageRef" : "2021~October~2021-10-21~2~152",
      "isClean" : true,
      "latLng" : "26.9208029,75.7219824",
      "locality" : " Kanakpura",
      "time" : "11:46",
      "user" : "q824l6Y9DwXAx5nm9I9C1cImcRo1",
      "ward" : "51",
      "zone" : "Jhotwara"
    },
    "153" : {
      "address" : "S-47, Kanha Parisar, Riico Commercial Complex, Road No. 14, V.K.I, Vishwakarma Industrial Area",
      "imageRef" : "2021~October~2021-10-21~2~153",
      "isClean" : true,
      "latLng" : "26.9977183,75.7731392",
      "locality" : " Vishwakarma Industrial Area",
      "time" : "11:47",
      "user" : "RxDvTuUUsCTs9GcCg5g0iG9fA3t2",
      "ward" : "8",
      "zone" : "Murlipura"
    },
    "154" : {
      "address" : "S-47, Kanha Parisar, Riico Commercial Complex, Road No. 14, V.K.I, Vishwakarma Industrial Area",
      "imageRef" : "2021~October~2021-10-21~2~154",
      "isClean" : true,
      "latLng" : "26.9977183,75.7731392",
      "locality" : " Vishwakarma Industrial Area",
      "time" : "11:48",
      "user" : "RxDvTuUUsCTs9GcCg5g0iG9fA3t2",
      "ward" : "8",
      "zone" : "Murlipura"
    },
    "155" : {
      "address" : "G839 A, Road No. 14, Vishwakarma Industrial Area",
      "imageRef" : "2021~October~2021-10-21~2~155",
      "isClean" : true,
      "latLng" : "26.9974447,75.7755382",
      "locality" : " Vishwakarma Industrial Area",
      "time" : "11:48",
      "user" : "RxDvTuUUsCTs9GcCg5g0iG9fA3t2",
      "ward" : "8",
      "zone" : "Murlipura"
    },
    "156" : {
      "address" : "47, Lalarpura",
      "imageRef" : "2021~October~2021-10-21~2~156",
      "isClean" : true,
      "latLng" : "26.9016406,75.7097515",
      "locality" : " Lalarpura",
      "time" : "11:49",
      "user" : "f63WCJ0Lynd58cD0s0IXlxY2ANp2",
      "ward" : "53",
      "zone" : "Jhotwara"
    },
    "157" : {
      "address" : "47, Lalarpura",
      "imageRef" : "2021~October~2021-10-21~2~157",
      "isClean" : true,
      "latLng" : "26.9016406,75.7097515",
      "locality" : " Lalarpura",
      "time" : "11:49",
      "user" : "f63WCJ0Lynd58cD0s0IXlxY2ANp2",
      "ward" : "53",
      "zone" : "Jhotwara"
    },
    "158" : {
      "address" : "47, Lalarpura",
      "imageRef" : "2021~October~2021-10-21~2~158",
      "isClean" : true,
      "latLng" : "26.9016406,75.7097515",
      "locality" : " Lalarpura",
      "time" : "11:49",
      "user" : "f63WCJ0Lynd58cD0s0IXlxY2ANp2",
      "ward" : "53",
      "zone" : "Jhotwara"
    },
    "159" : {
      "address" : "108, Lalarpura Rd, Lalarpura",
      "imageRef" : "2021~October~2021-10-21~2~159",
      "isClean" : true,
      "latLng" : "26.9013892,75.7087065",
      "locality" : " Lalarpura",
      "time" : "11:50",
      "user" : "f63WCJ0Lynd58cD0s0IXlxY2ANp2",
      "ward" : "53",
      "zone" : "Jhotwara"
    },
    "160" : {
      "address" : "108, Lalarpura Rd, Lalarpura",
      "imageRef" : "2021~October~2021-10-21~2~160",
      "isClean" : true,
      "latLng" : "26.9013932,75.70874",
      "locality" : " Lalarpura",
      "time" : "11:50",
      "user" : "f63WCJ0Lynd58cD0s0IXlxY2ANp2",
      "ward" : "53",
      "zone" : "Jhotwara"
    },
    "161" : {
      "address" : "Binjari Marg, Jhotwara Industrial Area, Jhotwara",
      "imageRef" : "2021~October~2021-10-21~2~161",
      "isClean" : true,
      "latLng" : "26.9656275,75.744246",
      "locality" : " Jhotwara",
      "time" : "11:53",
      "user" : "5O4HmxdGWmcOa1J2WhJr16wb8uG3",
      "ward" : "14",
      "zone" : "Murlipura"
    },
    "162" : {
      "address" : "108, Lalarpura Rd, Lalarpura",
      "imageRef" : "2021~October~2021-10-21~2~162",
      "isClean" : true,
      "latLng" : "26.9013932,75.70874",
      "locality" : " Lalarpura",
      "time" : "11:54",
      "user" : "f63WCJ0Lynd58cD0s0IXlxY2ANp2",
      "ward" : "53",
      "zone" : "Jhotwara"
    },
    "163" : {
      "address" : "135, Lalarpura Rd, Lalarpura",
      "imageRef" : "2021~October~2021-10-21~2~163",
      "isClean" : true,
      "latLng" : "26.9000813,75.7006059",
      "locality" : " Lalarpura",
      "time" : "11:56",
      "user" : "f63WCJ0Lynd58cD0s0IXlxY2ANp2",
      "ward" : "49",
      "zone" : "Jhotwara"
    },
    "164" : {
      "address" : "15, Vaishali Marg W, Panchyawala",
      "imageRef" : "2021~October~2021-10-21~2~164",
      "isClean" : true,
      "latLng" : "26.9155737,75.7133474",
      "locality" : " Panchyawala",
      "time" : "11:56",
      "user" : "q824l6Y9DwXAx5nm9I9C1cImcRo1",
      "ward" : "50",
      "zone" : "Jhotwara"
    },
    "165" : {
      "address" : "VPV5+RP8, Girdharipura",
      "imageRef" : "2021~October~2021-10-21~2~165",
      "isClean" : true,
      "latLng" : "26.8945485,75.7091964",
      "locality" : " Girdharipura",
      "time" : "11:57",
      "user" : "6pFOzrMFSuYzWrErwLkFWURXMsK2",
      "ward" : "49",
      "zone" : "Jhotwara"
    },
    "166" : {
      "address" : "DCM Ajmer Road, Shivgyan Height, Vivekanand Marg, Uma Colony, Shanti Nagar, DCM",
      "imageRef" : "2021~October~2021-10-21~2~166",
      "isClean" : true,
      "latLng" : "26.8932383,75.7466264",
      "locality" : " DCM",
      "time" : "11:57",
      "user" : "6pFOzrMFSuYzWrErwLkFWURXMsK2",
      "ward" : "64",
      "zone" : "Jhotwara"
    },
    "167" : {
      "address" : "DCM Ajmer Road, Shivgyan Height, Vivekanand Marg, Uma Colony, Shanti Nagar, DCM",
      "imageRef" : "2021~October~2021-10-21~2~167",
      "isClean" : true,
      "latLng" : "26.8932383,75.7466264",
      "locality" : " DCM",
      "time" : "11:58",
      "user" : "6pFOzrMFSuYzWrErwLkFWURXMsK2",
      "ward" : "64",
      "zone" : "Jhotwara"
    },
    "168" : {
      "address" : "135, Lalarpura Rd, Lalarpura",
      "imageRef" : "2021~October~2021-10-21~2~168",
      "isClean" : true,
      "latLng" : "26.9000813,75.7006059",
      "locality" : " Lalarpura",
      "time" : "11:59",
      "user" : "f63WCJ0Lynd58cD0s0IXlxY2ANp2",
      "ward" : "49",
      "zone" : "Jhotwara"
    },
    "169" : {
      "address" : "135, Lalarpura Rd, Lalarpura",
      "imageRef" : "2021~October~2021-10-21~2~169",
      "isClean" : true,
      "latLng" : "26.9000813,75.7006059",
      "locality" : " Lalarpura",
      "time" : "11:59",
      "user" : "f63WCJ0Lynd58cD0s0IXlxY2ANp2",
      "ward" : "49",
      "zone" : "Jhotwara"
    },
    "170" : {
      "address" : "VQQ3+JQ6, Nirman Nagar, Brijlalpura",
      "imageRef" : "2021~October~2021-10-21~2~170",
      "isClean" : true,
      "latLng" : "26.8890265,75.7543467",
      "locality" : " Brijlalpura",
      "time" : "12:01",
      "user" : "6pFOzrMFSuYzWrErwLkFWURXMsK2",
      "ward" : "Not Found",
      "zone" : "Not Found"
    },
    "171" : {
      "address" : "G-17A, Rangoli Plaza, Panchyawala",
      "imageRef" : "2021~October~2021-10-21~2~171",
      "isClean" : true,
      "latLng" : "26.9090384,75.7127337",
      "locality" : " Panchyawala",
      "time" : "12:01",
      "user" : "q824l6Y9DwXAx5nm9I9C1cImcRo1",
      "ward" : "50",
      "zone" : "Jhotwara"
    },
    "172" : {
      "address" : "VQQ3+JQ6, Nirman Nagar, Brijlalpura",
      "imageRef" : "2021~October~2021-10-21~2~172",
      "isClean" : true,
      "latLng" : "26.8890265,75.7543467",
      "locality" : " Brijlalpura",
      "time" : "12:01",
      "user" : "6pFOzrMFSuYzWrErwLkFWURXMsK2",
      "ward" : "Not Found",
      "zone" : "Not Found"
    },
    "173" : {
      "address" : "VQQ3+JQ6, Nirman Nagar, Brijlalpura",
      "imageRef" : "2021~October~2021-10-21~2~173",
      "isClean" : true,
      "latLng" : "26.8890265,75.7543467",
      "locality" : " Brijlalpura",
      "time" : "12:01",
      "user" : "6pFOzrMFSuYzWrErwLkFWURXMsK2",
      "ward" : "Not Found",
      "zone" : "Not Found"
    },
    "174" : {
      "address" : "1, Shree Ram Nagar - A, RIICO Industrial Area, Bindayaka",
      "imageRef" : "2021~October~2021-10-21~2~174",
      "isClean" : true,
      "latLng" : "26.9113099,75.7181349",
      "locality" : " Bindayaka",
      "time" : "12:03",
      "user" : "q824l6Y9DwXAx5nm9I9C1cImcRo1",
      "ward" : "53",
      "zone" : "Jhotwara"
    },
    "175" : {
      "address" : "Shop No. A-17, Inaysk Vihar, Gandhi Path W, Lalarpura",
      "imageRef" : "2021~October~2021-10-21~2~175",
      "isClean" : true,
      "latLng" : "26.9021963,75.7128512",
      "locality" : " Lalarpura",
      "time" : "12:03",
      "user" : "f63WCJ0Lynd58cD0s0IXlxY2ANp2",
      "ward" : "53",
      "zone" : "Jhotwara"
    },
    "176" : {
      "address" : "Shop No. A-17, Inaysk Vihar, Gandhi Path W, Lalarpura",
      "imageRef" : "2021~October~2021-10-21~2~176",
      "isClean" : true,
      "latLng" : "26.9021963,75.7128512",
      "locality" : " Lalarpura",
      "time" : "12:05",
      "user" : "f63WCJ0Lynd58cD0s0IXlxY2ANp2",
      "ward" : "53",
      "zone" : "Jhotwara"
    },
    "177" : {
      "address" : "VQQ3+9H5, Nirman Nagar, Brijlalpura",
      "imageRef" : "2021~October~2021-10-21~2~177",
      "isClean" : true,
      "latLng" : "26.8885228,75.753868",
      "locality" : " Brijlalpura",
      "time" : "12:06",
      "user" : "6pFOzrMFSuYzWrErwLkFWURXMsK2",
      "ward" : "Not Found",
      "zone" : "Not Found"
    },
    "178" : {
      "address" : "S-7, Gopalpura Bypass Rd, Gangaram Nagar, New Aatish Market, Shanthi Nagar, Mansarovar",
      "imageRef" : "2021~October~2021-10-21~2~178",
      "isClean" : true,
      "latLng" : "26.8798607,75.7600399",
      "locality" : " Mansarovar",
      "time" : "12:06",
      "user" : "LB5ZuA5FjaclXAeRLRT2dIRkowk2",
      "ward" : "Not Found",
      "zone" : "Not Found"
    },
    "179" : {
      "address" : "D-21A, Shree Ram Nagar - A, Lalarpura",
      "imageRef" : "2021~October~2021-10-21~2~179",
      "isClean" : true,
      "latLng" : "26.90939,75.7267912",
      "locality" : " Lalarpura",
      "time" : "12:07",
      "user" : "q824l6Y9DwXAx5nm9I9C1cImcRo1",
      "ward" : "53",
      "zone" : "Jhotwara"
    },
    "180" : {
      "address" : "VQQ3+9H5, Nirman Nagar, Brijlalpura",
      "imageRef" : "2021~October~2021-10-21~2~180",
      "isClean" : true,
      "latLng" : "26.8885228,75.753868",
      "locality" : " Brijlalpura",
      "time" : "12:07",
      "user" : "6pFOzrMFSuYzWrErwLkFWURXMsK2",
      "ward" : "Not Found",
      "zone" : "Not Found"
    },
    "181" : {
      "address" : "262, Gangaram Nagar, New Aatish Market, Shanthi Nagar, Mansarovar",
      "imageRef" : "2021~October~2021-10-21~2~181",
      "isClean" : true,
      "latLng" : "26.879016,75.7588376",
      "locality" : " Mansarovar",
      "time" : "12:08",
      "user" : "6pFOzrMFSuYzWrErwLkFWURXMsK2",
      "ward" : "Not Found",
      "zone" : "Not Found"
    },
    "182" : {
      "address" : "S-7, Gopalpura Bypass Rd, Gangaram Nagar, New Aatish Market, Shanthi Nagar, Mansarovar",
      "imageRef" : "2021~October~2021-10-21~2~182",
      "isClean" : true,
      "latLng" : "26.8798607,75.7600399",
      "locality" : " Mansarovar",
      "time" : "12:08",
      "user" : "LB5ZuA5FjaclXAeRLRT2dIRkowk2",
      "ward" : "Not Found",
      "zone" : "Not Found"
    },
    "183" : {
      "address" : "262, Gangaram Nagar, New Aatish Market, Shanthi Nagar, Mansarovar",
      "imageRef" : "2021~October~2021-10-21~2~183",
      "isClean" : true,
      "latLng" : "26.879016,75.7588376",
      "locality" : " Mansarovar",
      "time" : "12:08",
      "user" : "6pFOzrMFSuYzWrErwLkFWURXMsK2",
      "ward" : "Not Found",
      "zone" : "Not Found"
    },
    "184" : {
      "address" : "S-7, Gopalpura Bypass Rd, Gangaram Nagar, New Aatish Market, Shanthi Nagar, Mansarovar",
      "imageRef" : "2021~October~2021-10-21~2~184",
      "isClean" : true,
      "latLng" : "26.8798607,75.7600399",
      "locality" : " Mansarovar",
      "time" : "12:08",
      "user" : "LB5ZuA5FjaclXAeRLRT2dIRkowk2",
      "ward" : "Not Found",
      "zone" : "Not Found"
    },
    "185" : {
      "address" : "Classic Tower, Gangaram Nagar, New Aatish Market, Shanthi Nagar, Mansarovar",
      "imageRef" : "2021~October~2021-10-21~2~185",
      "isClean" : true,
      "latLng" : "26.8787454,75.7588787",
      "locality" : " Mansarovar",
      "time" : "12:08",
      "user" : "6pFOzrMFSuYzWrErwLkFWURXMsK2",
      "ward" : "Not Found",
      "zone" : "Not Found"
    },
    "186" : {
      "address" : "Classic Tower, Gangaram Nagar, New Aatish Market, Shanthi Nagar, Mansarovar",
      "imageRef" : "2021~October~2021-10-21~2~186",
      "isClean" : true,
      "latLng" : "26.8787454,75.7588787",
      "locality" : " Mansarovar",
      "time" : "12:09",
      "user" : "6pFOzrMFSuYzWrErwLkFWURXMsK2",
      "ward" : "Not Found",
      "zone" : "Not Found"
    },
    "187" : {
      "address" : "Classic Tower, Gangaram Nagar, New Aatish Market, Shanthi Nagar, Mansarovar",
      "imageRef" : "2021~October~2021-10-21~2~187",
      "isClean" : true,
      "latLng" : "26.8787454,75.7588787",
      "locality" : " Mansarovar",
      "time" : "12:09",
      "user" : "6pFOzrMFSuYzWrErwLkFWURXMsK2",
      "ward" : "Not Found",
      "zone" : "Not Found"
    },
    "188" : {
      "address" : "258-259, Triveni Nagar, New Aatish Market, Shanthi Nagar, Mansarovar",
      "imageRef" : "2021~October~2021-10-21~2~188",
      "isClean" : true,
      "latLng" : "26.8786034,75.759178",
      "locality" : " Mansarovar",
      "time" : "12:09",
      "user" : "6pFOzrMFSuYzWrErwLkFWURXMsK2",
      "ward" : "Not Found",
      "zone" : "Not Found"
    },
    "189" : {
      "address" : "pl 5, Maa Hinglaj Nagar, Lalarpura",
      "imageRef" : "2021~October~2021-10-21~2~189",
      "isClean" : true,
      "latLng" : "26.904603,75.7184026",
      "locality" : " Lalarpura",
      "time" : "12:10",
      "user" : "f63WCJ0Lynd58cD0s0IXlxY2ANp2",
      "ward" : "53",
      "zone" : "Jhotwara"
    },
    "190" : {
      "address" : "pl 5, Maa Hinglaj Nagar, Lalarpura",
      "imageRef" : "2021~October~2021-10-21~2~190",
      "isClean" : true,
      "latLng" : "26.904603,75.7184026",
      "locality" : " Lalarpura",
      "time" : "12:10",
      "user" : "f63WCJ0Lynd58cD0s0IXlxY2ANp2",
      "ward" : "53",
      "zone" : "Jhotwara"
    },
    "191" : {
      "address" : "258-259, Triveni Nagar, New Aatish Market, Shanthi Nagar, Mansarovar",
      "imageRef" : "2021~October~2021-10-21~2~191",
      "isClean" : true,
      "latLng" : "26.8786034,75.759178",
      "locality" : " Mansarovar",
      "time" : "12:10",
      "user" : "6pFOzrMFSuYzWrErwLkFWURXMsK2",
      "ward" : "Not Found",
      "zone" : "Not Found"
    },
    "192" : {
      "address" : "258-259, Triveni Nagar, New Aatish Market, Shanthi Nagar, Mansarovar",
      "imageRef" : "2021~October~2021-10-21~2~192",
      "isClean" : true,
      "latLng" : "26.8786034,75.759178",
      "locality" : " Mansarovar",
      "time" : "12:11",
      "user" : "6pFOzrMFSuYzWrErwLkFWURXMsK2",
      "ward" : "Not Found",
      "zone" : "Not Found"
    },
    "193" : {
      "address" : "pl 5, Maa Hinglaj Nagar, Lalarpura",
      "imageRef" : "2021~October~2021-10-21~2~193",
      "isClean" : true,
      "latLng" : "26.904603,75.7184026",
      "locality" : " Lalarpura",
      "time" : "12:11",
      "user" : "f63WCJ0Lynd58cD0s0IXlxY2ANp2",
      "ward" : "53",
      "zone" : "Jhotwara"
    },
    "194" : {
      "address" : "pl 5, Maa Hinglaj Nagar, Lalarpura",
      "imageRef" : "2021~October~2021-10-21~2~194",
      "isClean" : true,
      "latLng" : "26.9047389,75.7184056",
      "locality" : " Lalarpura",
      "time" : "12:11",
      "user" : "f63WCJ0Lynd58cD0s0IXlxY2ANp2",
      "ward" : "53",
      "zone" : "Jhotwara"
    },
    "195" : {
      "address" : "Giant Centre, Sunny Trade Center, Gangaram Nagar, New Aatish Market, Shanthi Nagar, Mansarovar",
      "imageRef" : "2021~October~2021-10-21~2~195",
      "isClean" : true,
      "latLng" : "26.8774776,75.7602476",
      "locality" : " Mansarovar",
      "time" : "12:11",
      "user" : "6pFOzrMFSuYzWrErwLkFWURXMsK2",
      "ward" : "Not Found",
      "zone" : "Not Found"
    },
    "196" : {
      "address" : "27, Lalarpura",
      "imageRef" : "2021~October~2021-10-21~2~196",
      "isClean" : true,
      "latLng" : "26.905645,75.723788",
      "locality" : " Lalarpura",
      "time" : "12:11",
      "user" : "q824l6Y9DwXAx5nm9I9C1cImcRo1",
      "ward" : "53",
      "zone" : "Jhotwara"
    },
    "197" : {
      "address" : "Giant Centre, Sunny Trade Center, Gangaram Nagar, New Aatish Market, Shanthi Nagar, Mansarovar",
      "imageRef" : "2021~October~2021-10-21~2~197",
      "isClean" : true,
      "latLng" : "26.8774776,75.7602476",
      "locality" : " Mansarovar",
      "time" : "12:11",
      "user" : "6pFOzrMFSuYzWrErwLkFWURXMsK2",
      "ward" : "Not Found",
      "zone" : "Not Found"
    },
    "198" : {
      "address" : "Lalarpura Rd, Maa Hinglaj Nagar, Lalarpura",
      "imageRef" : "2021~October~2021-10-21~2~198",
      "isClean" : true,
      "latLng" : "26.9051536,75.7186822",
      "locality" : " Lalarpura",
      "time" : "12:12",
      "user" : "f63WCJ0Lynd58cD0s0IXlxY2ANp2",
      "ward" : "53",
      "zone" : "Jhotwara"
    },
    "199" : {
      "address" : "Giant Centre, Sunny Trade Center, Gangaram Nagar, New Aatish Market, Shanthi Nagar, Mansarovar",
      "imageRef" : "2021~October~2021-10-21~2~199",
      "isClean" : true,
      "latLng" : "26.8773554,75.760254",
      "locality" : " Mansarovar",
      "time" : "12:12",
      "user" : "6pFOzrMFSuYzWrErwLkFWURXMsK2",
      "ward" : "Not Found",
      "zone" : "Not Found"
    },
    "200" : {
      "address" : "Lalarpura Rd, Maa Hinglaj Nagar, Lalarpura",
      "imageRef" : "2021~October~2021-10-21~2~200",
      "isClean" : true,
      "latLng" : "26.9051536,75.7186822",
      "locality" : " Lalarpura",
      "time" : "12:13",
      "user" : "f63WCJ0Lynd58cD0s0IXlxY2ANp2",
      "ward" : "53",
      "zone" : "Jhotwara"
    },
    "201" : {
      "address" : "Lalarpura Rd, Maa Hinglaj Nagar, Lalarpura",
      "imageRef" : "2021~October~2021-10-21~2~201",
      "isClean" : true,
      "latLng" : "26.9051536,75.7186822",
      "locality" : " Lalarpura",
      "time" : "12:13",
      "user" : "f63WCJ0Lynd58cD0s0IXlxY2ANp2",
      "ward" : "53",
      "zone" : "Jhotwara"
    },
    "202" : {
      "address" : "Lalarpura Rd, Maa Hinglaj Nagar, Lalarpura",
      "imageRef" : "2021~October~2021-10-21~2~202",
      "isClean" : true,
      "latLng" : "26.9047633,75.7187861",
      "locality" : " Lalarpura",
      "time" : "12:15",
      "user" : "q824l6Y9DwXAx5nm9I9C1cImcRo1",
      "ward" : "53",
      "zone" : "Jhotwara"
    },
    "203" : {
      "address" : "rajasthan silindar fectory, vishwkarma Road Number 14 k pass, Vishwakarma Industrial Area",
      "imageRef" : "2021~October~2021-10-21~2~203",
      "isClean" : true,
      "latLng" : "26.9970469,75.7787703",
      "locality" : " Vishwakarma Industrial Area",
      "time" : "12:15",
      "user" : "RxDvTuUUsCTs9GcCg5g0iG9fA3t2",
      "ward" : "8",
      "zone" : "Murlipura"
    },
    "204" : {
      "address" : "rajasthan silindar fectory, vishwkarma Road Number 14 k pass, Vishwakarma Industrial Area",
      "imageRef" : "2021~October~2021-10-21~2~204",
      "isClean" : true,
      "latLng" : "26.997039,75.7788154",
      "locality" : " Vishwakarma Industrial Area",
      "time" : "12:16",
      "user" : "RxDvTuUUsCTs9GcCg5g0iG9fA3t2",
      "ward" : "8",
      "zone" : "Murlipura"
    },
    "205" : {
      "address" : "rajasthan silindar fectory, vishwkarma Road Number 14 k pass, Vishwakarma Industrial Area",
      "imageRef" : "2021~October~2021-10-21~2~205",
      "isClean" : true,
      "latLng" : "26.997039,75.7788154",
      "locality" : " Vishwakarma Industrial Area",
      "time" : "12:16",
      "user" : "RxDvTuUUsCTs9GcCg5g0iG9fA3t2",
      "ward" : "8",
      "zone" : "Murlipura"
    },
    "206" : {
      "address" : "Jagatpura Railway Crossing, Model Town, Jagatpura",
      "imageRef" : "2021~October~2021-10-21~2~206",
      "isClean" : true,
      "latLng" : "26.8358648,75.8351252",
      "locality" : " Jagatpura",
      "time" : "12:17",
      "user" : "Zl574btXdCeog078wmeikCUVorl1",
      "ward" : "109",
      "zone" : "Jagatpura"
    },
    "207" : {
      "address" : "Jagatpura Railway Crossing, Model Town, Jagatpura",
      "imageRef" : "2021~October~2021-10-21~2~207",
      "isClean" : true,
      "latLng" : "26.8358648,75.8351252",
      "locality" : " Jagatpura",
      "time" : "12:17",
      "user" : "Zl574btXdCeog078wmeikCUVorl1",
      "ward" : "109",
      "zone" : "Jagatpura"
    },
    "208" : {
      "address" : "39, near City of golden domes, Prem Vihar, Jagatpura",
      "imageRef" : "2021~October~2021-10-21~2~208",
      "isClean" : true,
      "latLng" : "26.83205,75.8343813",
      "locality" : " Jagatpura",
      "time" : "12:18",
      "user" : "Zl574btXdCeog078wmeikCUVorl1",
      "ward" : "112",
      "zone" : "Jagatpura"
    },
    "209" : {
      "address" : "rajasthan silindar fectory, vishwkarma Road Number 14 k pass, Vishwakarma Industrial Area",
      "imageRef" : "2021~October~2021-10-21~2~209",
      "isClean" : true,
      "latLng" : "26.997039,75.7788154",
      "locality" : " Vishwakarma Industrial Area",
      "time" : "12:18",
      "user" : "RxDvTuUUsCTs9GcCg5g0iG9fA3t2",
      "ward" : "8",
      "zone" : "Murlipura"
    },
    "210" : {
      "address" : "4, Jagatpura",
      "imageRef" : "2021~October~2021-10-21~2~210",
      "isClean" : true,
      "latLng" : "26.8317474,75.8346711",
      "locality" : " Jagatpura",
      "time" : "12:19",
      "user" : "Zl574btXdCeog078wmeikCUVorl1",
      "ward" : "112",
      "zone" : "Jagatpura"
    },
    "211" : {
      "address" : "H-779, Rd Number 13, Opp. Priya Kanta, Vishwakarma Industrial Area",
      "imageRef" : "2021~October~2021-10-21~2~211",
      "isClean" : true,
      "latLng" : "26.9937974,75.7769301",
      "locality" : " Vishwakarma Industrial Area",
      "time" : "12:19",
      "user" : "RxDvTuUUsCTs9GcCg5g0iG9fA3t2",
      "ward" : "8",
      "zone" : "Murlipura"
    },
    "212" : {
      "address" : "H-779, Rd Number 13, Opp. Priya Kanta, Vishwakarma Industrial Area",
      "imageRef" : "2021~October~2021-10-21~2~212",
      "isClean" : true,
      "latLng" : "26.9937974,75.7769301",
      "locality" : " Vishwakarma Industrial Area",
      "time" : "12:20",
      "user" : "RxDvTuUUsCTs9GcCg5g0iG9fA3t2",
      "ward" : "8",
      "zone" : "Murlipura"
    },
    "213" : {
      "address" : "Unnamed Road, Vishwakarma Industrial Area",
      "imageRef" : "2021~October~2021-10-21~2~213",
      "isClean" : true,
      "latLng" : "26.9940175,75.7747871",
      "locality" : " Vishwakarma Industrial Area",
      "time" : "12:20",
      "user" : "RxDvTuUUsCTs9GcCg5g0iG9fA3t2",
      "ward" : "8",
      "zone" : "Murlipura"
    },
    "214" : {
      "address" : "4, Jagatpura",
      "imageRef" : "2021~October~2021-10-21~2~214",
      "isClean" : true,
      "latLng" : "26.8317474,75.8346711",
      "locality" : " Jagatpura",
      "time" : "12:20",
      "user" : "Zl574btXdCeog078wmeikCUVorl1",
      "ward" : "112",
      "zone" : "Jagatpura"
    },
    "215" : {
      "address" : "Unnamed Road, Vishwakarma Industrial Area",
      "imageRef" : "2021~October~2021-10-21~2~215",
      "isClean" : true,
      "latLng" : "26.9940175,75.7747871",
      "locality" : " Vishwakarma Industrial Area",
      "time" : "12:21",
      "user" : "RxDvTuUUsCTs9GcCg5g0iG9fA3t2",
      "ward" : "8",
      "zone" : "Murlipura"
    },
    "216" : {
      "address" : "S-7, Gopalpura Bypass Rd, Gangaram Nagar, New Aatish Market, Shanthi Nagar, Mansarovar",
      "imageRef" : "2021~October~2021-10-21~2~216",
      "isClean" : true,
      "latLng" : "26.8798607,75.7600399",
      "locality" : " Mansarovar",
      "time" : "12:21",
      "user" : "LB5ZuA5FjaclXAeRLRT2dIRkowk2",
      "ward" : "Not Found",
      "zone" : "Not Found"
    },
    "217" : {
      "address" : "30, Mayapuri, Jagatpura",
      "imageRef" : "2021~October~2021-10-21~2~217",
      "isClean" : true,
      "latLng" : "26.8288052,75.8336038",
      "locality" : " Jagatpura",
      "time" : "12:21",
      "user" : "Zl574btXdCeog078wmeikCUVorl1",
      "ward" : "105",
      "zone" : "Jagatpura"
    },
    "218" : {
      "address" : "Unnamed Road, Vishwakarma Industrial Area",
      "imageRef" : "2021~October~2021-10-21~2~218",
      "isClean" : true,
      "latLng" : "26.9940175,75.7747871",
      "locality" : " Vishwakarma Industrial Area",
      "time" : "12:22",
      "user" : "RxDvTuUUsCTs9GcCg5g0iG9fA3t2",
      "ward" : "8",
      "zone" : "Murlipura"
    },
    "219" : {
      "address" : "G-445(I, Sikar Rd, Vishwakarma Industrial Area",
      "imageRef" : "2021~October~2021-10-21~2~219",
      "isClean" : true,
      "latLng" : "26.9922579,75.7729411",
      "locality" : " Vishwakarma Industrial Area",
      "time" : "12:22",
      "user" : "RxDvTuUUsCTs9GcCg5g0iG9fA3t2",
      "ward" : "8",
      "zone" : "Murlipura"
    },
    "220" : {
      "address" : "G-445(I, Sikar Rd, Vishwakarma Industrial Area",
      "imageRef" : "2021~October~2021-10-21~2~220",
      "isClean" : true,
      "latLng" : "26.9922579,75.7729411",
      "locality" : " Vishwakarma Industrial Area",
      "time" : "12:23",
      "user" : "RxDvTuUUsCTs9GcCg5g0iG9fA3t2",
      "ward" : "8",
      "zone" : "Murlipura"
    },
    "221" : {
      "address" : "G-445(I, Sikar Rd, Vishwakarma Industrial Area",
      "imageRef" : "2021~October~2021-10-21~2~221",
      "isClean" : true,
      "latLng" : "26.9922579,75.7729411",
      "locality" : " Vishwakarma Industrial Area",
      "time" : "12:25",
      "user" : "RxDvTuUUsCTs9GcCg5g0iG9fA3t2",
      "ward" : "8",
      "zone" : "Murlipura"
    },
    "222" : {
      "address" : "OFFICE NO. 308, 3RD FLOOR, NORTH AVENUE, V.K.I., ROAD, NO. 9, Sikar Rd, Vishwakarma Industrial Area",
      "imageRef" : "2021~October~2021-10-21~2~222",
      "isClean" : true,
      "latLng" : "26.9891445,75.7737498",
      "locality" : " Vishwakarma Industrial Area",
      "time" : "12:26",
      "user" : "RxDvTuUUsCTs9GcCg5g0iG9fA3t2",
      "ward" : "8",
      "zone" : "Murlipura"
    },
    "223" : {
      "address" : "OFFICE NO. 308, 3RD FLOOR, NORTH AVENUE, V.K.I., ROAD, NO. 9, Sikar Rd, Vishwakarma Industrial Area",
      "imageRef" : "2021~October~2021-10-21~2~223",
      "isClean" : true,
      "latLng" : "26.9891445,75.7737498",
      "locality" : " Vishwakarma Industrial Area",
      "time" : "12:26",
      "user" : "RxDvTuUUsCTs9GcCg5g0iG9fA3t2",
      "ward" : "8",
      "zone" : "Murlipura"
    },
    "224" : {
      "address" : "XQQF+FR9, Vishwakarma Industrial Area",
      "imageRef" : "2021~October~2021-10-21~2~224",
      "isClean" : true,
      "latLng" : "26.9887115,75.7746659",
      "locality" : " Vishwakarma Industrial Area",
      "time" : "12:27",
      "user" : "RxDvTuUUsCTs9GcCg5g0iG9fA3t2",
      "ward" : "8",
      "zone" : "Murlipura"
    },
    "225" : {
      "address" : "XQQF+FR9, Vishwakarma Industrial Area",
      "imageRef" : "2021~October~2021-10-21~2~225",
      "isClean" : true,
      "latLng" : "26.9887115,75.7746659",
      "locality" : " Vishwakarma Industrial Area",
      "time" : "12:27",
      "user" : "RxDvTuUUsCTs9GcCg5g0iG9fA3t2",
      "ward" : "8",
      "zone" : "Murlipura"
    },
    "226" : {
      "address" : "30, Mayapuri, Jagatpura",
      "imageRef" : "2021~October~2021-10-21~2~226",
      "isClean" : true,
      "latLng" : "26.8288052,75.8336038",
      "locality" : " Jagatpura",
      "time" : "12:27",
      "user" : "Zl574btXdCeog078wmeikCUVorl1",
      "ward" : "105",
      "zone" : "Jagatpura"
    },
    "227" : {
      "address" : "XQQF+FR9, Vishwakarma Industrial Area",
      "imageRef" : "2021~October~2021-10-21~2~227",
      "isClean" : true,
      "latLng" : "26.9887115,75.7746659",
      "locality" : " Vishwakarma Industrial Area",
      "time" : "12:27",
      "user" : "RxDvTuUUsCTs9GcCg5g0iG9fA3t2",
      "ward" : "8",
      "zone" : "Murlipura"
    },
    "228" : {
      "address" : "2, Khadi Gramodyog Rd, Kundan Nagar",
      "imageRef" : "2021~October~2021-10-21~2~228",
      "isClean" : true,
      "latLng" : "26.8202122,75.7861302",
      "locality" : " Kundan Nagar",
      "time" : "12:28",
      "user" : "EY0cg0gEW0WKz60icDpLpkaWSij2",
      "ward" : "90",
      "zone" : "Sanganer"
    },
    "229" : {
      "address" : "XQQG+HRG, Vishwakarma Industrial Area",
      "imageRef" : "2021~October~2021-10-21~2~229",
      "isClean" : true,
      "latLng" : "26.9889367,75.7768615",
      "locality" : " Vishwakarma Industrial Area",
      "time" : "12:28",
      "user" : "RxDvTuUUsCTs9GcCg5g0iG9fA3t2",
      "ward" : "8",
      "zone" : "Murlipura"
    },
    "230" : {
      "address" : "2, Khadi Gramodyog Rd, Kundan Nagar",
      "imageRef" : "2021~October~2021-10-21~2~230",
      "isClean" : true,
      "latLng" : "26.8202122,75.7861302",
      "locality" : " Kundan Nagar",
      "time" : "12:28",
      "user" : "EY0cg0gEW0WKz60icDpLpkaWSij2",
      "ward" : "90",
      "zone" : "Sanganer"
    },
    "231" : {
      "address" : "2, Khadi Gramodyog Rd, Kundan Nagar",
      "imageRef" : "2021~October~2021-10-21~2~231",
      "isClean" : true,
      "latLng" : "26.8202122,75.7861302",
      "locality" : " Kundan Nagar",
      "time" : "12:29",
      "user" : "EY0cg0gEW0WKz60icDpLpkaWSij2",
      "ward" : "90",
      "zone" : "Sanganer"
    },
    "232" : {
      "address" : "XQQG+HRG, Vishwakarma Industrial Area",
      "imageRef" : "2021~October~2021-10-21~2~232",
      "isClean" : true,
      "latLng" : "26.9889367,75.7768615",
      "locality" : " Vishwakarma Industrial Area",
      "time" : "12:29",
      "user" : "RxDvTuUUsCTs9GcCg5g0iG9fA3t2",
      "ward" : "8",
      "zone" : "Murlipura"
    },
    "233" : {
      "address" : "2, Khadi Gramodyog Rd, Kundan Nagar",
      "imageRef" : "2021~October~2021-10-21~2~233",
      "isClean" : true,
      "latLng" : "26.8202122,75.7861302",
      "locality" : " Kundan Nagar",
      "time" : "12:29",
      "user" : "EY0cg0gEW0WKz60icDpLpkaWSij2",
      "ward" : "90",
      "zone" : "Sanganer"
    },
    "234" : {
      "address" : "2, Khadi Gramodyog Rd, Kundan Nagar",
      "imageRef" : "2021~October~2021-10-21~2~234",
      "isClean" : true,
      "latLng" : "26.8202122,75.7861302",
      "locality" : " Kundan Nagar",
      "time" : "12:30",
      "user" : "EY0cg0gEW0WKz60icDpLpkaWSij2",
      "ward" : "90",
      "zone" : "Sanganer"
    },
    "235" : {
      "address" : "XQQH+6PQ, Vishwakarma Industrial Area",
      "imageRef" : "2021~October~2021-10-21~2~235",
      "isClean" : true,
      "latLng" : "26.9879528,75.7792493",
      "locality" : " Vishwakarma Industrial Area",
      "time" : "12:31",
      "user" : "RxDvTuUUsCTs9GcCg5g0iG9fA3t2",
      "ward" : "8",
      "zone" : "Murlipura"
    },
    "236" : {
      "address" : "XQQH+6PQ, Vishwakarma Industrial Area",
      "imageRef" : "2021~October~2021-10-21~2~236",
      "isClean" : true,
      "latLng" : "26.9879528,75.7792493",
      "locality" : " Vishwakarma Industrial Area",
      "time" : "12:32",
      "user" : "RxDvTuUUsCTs9GcCg5g0iG9fA3t2",
      "ward" : "8",
      "zone" : "Murlipura"
    },
    "237" : {
      "address" : "XQQH+6PQ, Vishwakarma Industrial Area",
      "imageRef" : "2021~October~2021-10-21~2~237",
      "isClean" : true,
      "latLng" : "26.9879528,75.7792493",
      "locality" : " Vishwakarma Industrial Area",
      "time" : "12:32",
      "user" : "RxDvTuUUsCTs9GcCg5g0iG9fA3t2",
      "ward" : "8",
      "zone" : "Murlipura"
    },
    "238" : {
      "address" : "M D Height, M D Height, Lalarpura",
      "imageRef" : "2021~October~2021-10-21~2~238",
      "isClean" : true,
      "latLng" : "26.9000178,75.7161878",
      "locality" : " Lalarpura",
      "time" : "12:34",
      "user" : "q824l6Y9DwXAx5nm9I9C1cImcRo1",
      "ward" : "Not Found",
      "zone" : "Not Found"
    },
    "239" : {
      "address" : "C-113, Rd Number 8, Vishwakarma Industrial Area",
      "imageRef" : "2021~October~2021-10-21~2~239",
      "isClean" : true,
      "latLng" : "26.9847876,75.7758623",
      "locality" : " Vishwakarma Industrial Area",
      "time" : "12:34",
      "user" : "RxDvTuUUsCTs9GcCg5g0iG9fA3t2",
      "ward" : "8",
      "zone" : "Murlipura"
    },
    "240" : {
      "address" : "S-7, Gopalpura Bypass Rd, Gangaram Nagar, New Aatish Market, Shanthi Nagar, Mansarovar",
      "imageRef" : "2021~October~2021-10-21~2~240",
      "isClean" : true,
      "latLng" : "26.8798607,75.7600399",
      "locality" : " Mansarovar",
      "time" : "12:35",
      "user" : "LB5ZuA5FjaclXAeRLRT2dIRkowk2",
      "ward" : "Not Found",
      "zone" : "Not Found"
    },
    "241" : {
      "address" : "29, Pradhan Path, Vinoba Vihar, Model Town, Jagatpura",
      "imageRef" : "2021~October~2021-10-21~2~241",
      "isClean" : true,
      "latLng" : "26.8452155,75.8210933",
      "locality" : " Jagatpura",
      "time" : "12:37",
      "user" : "w0YCfewlsAZXqrlU2EdmhEZXWw22",
      "ward" : "109",
      "zone" : "Jagatpura"
    },
    "242" : {
      "address" : "29, Pradhan Path, Vinoba Vihar, Model Town, Jagatpura",
      "imageRef" : "2021~October~2021-10-21~2~242",
      "isClean" : true,
      "latLng" : "26.845333,75.8209452",
      "locality" : " Jagatpura",
      "time" : "12:37",
      "user" : "w0YCfewlsAZXqrlU2EdmhEZXWw22",
      "ward" : "109",
      "zone" : "Jagatpura"
    },
    "243" : {
      "address" : "Plot No.77 neelkanth vihar c lalarpura, Girdharipura",
      "imageRef" : "2021~October~2021-10-21~2~243",
      "isClean" : true,
      "latLng" : "26.8974628,75.7169774",
      "locality" : " Girdharipura",
      "time" : "12:38",
      "user" : "q824l6Y9DwXAx5nm9I9C1cImcRo1",
      "ward" : "Not Found",
      "zone" : "Not Found"
    },
    "244" : {
      "address" : "S-7, Gopalpura Bypass Rd, Gangaram Nagar, New Aatish Market, Shanthi Nagar, Mansarovar",
      "imageRef" : "2021~October~2021-10-21~2~244",
      "isClean" : true,
      "latLng" : "26.8798607,75.7600399",
      "locality" : " Mansarovar",
      "time" : "12:38",
      "user" : "LB5ZuA5FjaclXAeRLRT2dIRkowk2",
      "ward" : "Not Found",
      "zone" : "Not Found"
    },
    "245" : {
      "address" : "THE ROYAL SUPER SPECIALITY CLINIC, ANUKAMPA APARTMENT, Model Town, Malviya Nagar",
      "imageRef" : "2021~October~2021-10-21~2~245",
      "isClean" : true,
      "latLng" : "26.8463783,75.824285",
      "locality" : " Malviya Nagar",
      "time" : "12:39",
      "user" : "w0YCfewlsAZXqrlU2EdmhEZXWw22",
      "ward" : "109",
      "zone" : "Jagatpura"
    },
    "246" : {
      "address" : "Unnamed Road, Dhawas, Girdharipura",
      "imageRef" : "2021~October~2021-10-21~2~246",
      "isClean" : true,
      "latLng" : "26.8952775,75.7181296",
      "locality" : " Girdharipura",
      "time" : "12:40",
      "user" : "q824l6Y9DwXAx5nm9I9C1cImcRo1",
      "ward" : "Not Found",
      "zone" : "Not Found"
    },
    "247" : {
      "address" : "3, Sikar Rd, Vishwakarma Industrial Area",
      "imageRef" : "2021~October~2021-10-21~2~247",
      "isClean" : true,
      "latLng" : "26.9791252,75.7741934",
      "locality" : " Vishwakarma Industrial Area",
      "time" : "12:40",
      "user" : "RxDvTuUUsCTs9GcCg5g0iG9fA3t2",
      "ward" : "8",
      "zone" : "Murlipura"
    },
    "248" : {
      "address" : "S-7, Gopalpura Bypass Rd, Gangaram Nagar, New Aatish Market, Shanthi Nagar, Mansarovar",
      "imageRef" : "2021~October~2021-10-21~2~248",
      "isClean" : true,
      "latLng" : "26.8798607,75.7600399",
      "locality" : " Mansarovar",
      "time" : "12:40",
      "user" : "LB5ZuA5FjaclXAeRLRT2dIRkowk2",
      "ward" : "Not Found",
      "zone" : "Not Found"
    },
    "249" : {
      "address" : "THE ROYAL SUPER SPECIALITY CLINIC, ANUKAMPA APARTMENT, Model Town, Malviya Nagar",
      "imageRef" : "2021~October~2021-10-21~2~249",
      "isClean" : true,
      "latLng" : "26.8463783,75.824285",
      "locality" : " Malviya Nagar",
      "time" : "12:40",
      "user" : "w0YCfewlsAZXqrlU2EdmhEZXWw22",
      "ward" : "109",
      "zone" : "Jagatpura"
    },
    "250" : {
      "address" : "3, Sikar Rd, Vishwakarma Industrial Area",
      "imageRef" : "2021~October~2021-10-21~2~250",
      "isClean" : true,
      "latLng" : "26.9791252,75.7741934",
      "locality" : " Vishwakarma Industrial Area",
      "time" : "12:41",
      "user" : "RxDvTuUUsCTs9GcCg5g0iG9fA3t2",
      "ward" : "8",
      "zone" : "Murlipura"
    },
    "251" : {
      "address" : "3, Sikar Rd, Vishwakarma Industrial Area",
      "imageRef" : "2021~October~2021-10-21~2~251",
      "isClean" : true,
      "latLng" : "26.9791252,75.7741934",
      "locality" : " Vishwakarma Industrial Area",
      "time" : "12:41",
      "user" : "RxDvTuUUsCTs9GcCg5g0iG9fA3t2",
      "ward" : "8",
      "zone" : "Murlipura"
    },
    "252" : {
      "address" : "Daak Colony / Balaji Mod, Model Town, Malviya Nagar",
      "imageRef" : "2021~October~2021-10-21~2~252",
      "isClean" : true,
      "latLng" : "26.8489107,75.8262044",
      "locality" : " Malviya Nagar",
      "time" : "12:42",
      "user" : "w0YCfewlsAZXqrlU2EdmhEZXWw22",
      "ward" : "109",
      "zone" : "Jagatpura"
    },
    "253" : {
      "address" : "E-18, Dhawas, Janki Vihar, Heerapura",
      "imageRef" : "2021~October~2021-10-21~2~253",
      "isClean" : true,
      "latLng" : "26.8944398,75.7201352",
      "locality" : " Heerapura",
      "time" : "12:42",
      "user" : "q824l6Y9DwXAx5nm9I9C1cImcRo1",
      "ward" : "59",
      "zone" : "Jhotwara"
    },
    "254" : {
      "address" : "E-56A, Road No. 5, Sikar Road, Vishwakarma Industrial Area",
      "imageRef" : "2021~October~2021-10-21~2~254",
      "isClean" : true,
      "latLng" : "26.9792057,75.7754685",
      "locality" : " Vishwakarma Industrial Area",
      "time" : "12:42",
      "user" : "RxDvTuUUsCTs9GcCg5g0iG9fA3t2",
      "ward" : "8",
      "zone" : "Murlipura"
    },
    "255" : {
      "address" : "E-56A, Road No. 5, Sikar Road, Vishwakarma Industrial Area",
      "imageRef" : "2021~October~2021-10-21~2~255",
      "isClean" : true,
      "latLng" : "26.9792057,75.7754685",
      "locality" : " Vishwakarma Industrial Area",
      "time" : "12:43",
      "user" : "RxDvTuUUsCTs9GcCg5g0iG9fA3t2",
      "ward" : "8",
      "zone" : "Murlipura"
    },
    "256" : {
      "address" : "E-56A, Road No. 5, Sikar Road, Vishwakarma Industrial Area",
      "imageRef" : "2021~October~2021-10-21~2~256",
      "isClean" : true,
      "latLng" : "26.9792057,75.7754685",
      "locality" : " Vishwakarma Industrial Area",
      "time" : "12:43",
      "user" : "RxDvTuUUsCTs9GcCg5g0iG9fA3t2",
      "ward" : "8",
      "zone" : "Murlipura"
    },
    "257" : {
      "address" : "AAKRATI DEVELOPER (P) LTD, 1 - 2 - 3, Ajmer Rd, Janki Vihar, PRN",
      "imageRef" : "2021~October~2021-10-21~2~257",
      "isClean" : true,
      "latLng" : "26.8927561,75.722653",
      "locality" : " PRN",
      "time" : "12:44",
      "user" : "q824l6Y9DwXAx5nm9I9C1cImcRo1",
      "ward" : "59",
      "zone" : "Jhotwara"
    },
    "258" : {
      "address" : "Unnamed Road, Vishwakarma Industrial Area",
      "imageRef" : "2021~October~2021-10-21~2~258",
      "isClean" : true,
      "latLng" : "26.9765341,75.7776319",
      "locality" : " Vishwakarma Industrial Area",
      "time" : "12:44",
      "user" : "RxDvTuUUsCTs9GcCg5g0iG9fA3t2",
      "ward" : "8",
      "zone" : "Murlipura"
    },
    "259" : {
      "address" : "507, Champa Nagar, Shanthi Nagar, Mansarovar",
      "imageRef" : "2021~October~2021-10-21~2~259",
      "isClean" : true,
      "latLng" : "26.8712191,75.76322",
      "locality" : " Mansarovar",
      "time" : "12:44",
      "user" : "6pFOzrMFSuYzWrErwLkFWURXMsK2",
      "ward" : "Not Found",
      "zone" : "Not Found"
    },
    "260" : {
      "address" : "507, Champa Nagar, Shanthi Nagar, Mansarovar",
      "imageRef" : "2021~October~2021-10-21~2~260",
      "isClean" : true,
      "latLng" : "26.8712191,75.76322",
      "locality" : " Mansarovar",
      "time" : "12:44",
      "user" : "6pFOzrMFSuYzWrErwLkFWURXMsK2",
      "ward" : "Not Found",
      "zone" : "Not Found"
    },
    "261" : {
      "address" : "507, Champa Nagar, Shanthi Nagar, Mansarovar",
      "imageRef" : "2021~October~2021-10-21~2~261",
      "isClean" : true,
      "latLng" : "26.8712191,75.76322",
      "locality" : " Mansarovar",
      "time" : "12:45",
      "user" : "6pFOzrMFSuYzWrErwLkFWURXMsK2",
      "ward" : "Not Found",
      "zone" : "Not Found"
    },
    "262" : {
      "address" : "7, Shanti Nagar Rd, Shanthi Nagar, Mansarovar",
      "imageRef" : "2021~October~2021-10-21~2~262",
      "isClean" : true,
      "latLng" : "26.8713005,75.7633872",
      "locality" : " Mansarovar",
      "time" : "12:45",
      "user" : "6pFOzrMFSuYzWrErwLkFWURXMsK2",
      "ward" : "Not Found",
      "zone" : "Not Found"
    },
    "263" : {
      "address" : "7, Shanti Nagar Rd, Shanthi Nagar, Mansarovar",
      "imageRef" : "2021~October~2021-10-21~2~263",
      "isClean" : true,
      "latLng" : "26.8713005,75.7633872",
      "locality" : " Mansarovar",
      "time" : "12:46",
      "user" : "6pFOzrMFSuYzWrErwLkFWURXMsK2",
      "ward" : "Not Found",
      "zone" : "Not Found"
    },
    "264" : {
      "address" : "BLOCK-3, NABARD STAFF QUARTERS, Model Town, Malviya Nagar",
      "imageRef" : "2021~October~2021-10-21~2~264",
      "isClean" : true,
      "latLng" : "26.848875,75.8258309",
      "locality" : " Malviya Nagar",
      "time" : "12:46",
      "user" : "w0YCfewlsAZXqrlU2EdmhEZXWw22",
      "ward" : "109",
      "zone" : "Jagatpura"
    },
    "265" : {
      "address" : "RJ13 vilaa, Janakpuri, Rj13",
      "imageRef" : "2021~October~2021-10-21~2~265",
      "isClean" : true,
      "latLng" : "26.8206928,75.8034573",
      "locality" : " Rj13",
      "time" : "12:47",
      "user" : "QMfpXg6WqQgOMlD3OHLmEVOZwiq2",
      "ward" : "105",
      "zone" : "Jagatpura"
    },
    "266" : {
      "address" : "Unnamed Road, Vishwakarma Industrial Area",
      "imageRef" : "2021~October~2021-10-21~2~266",
      "isClean" : true,
      "latLng" : "26.9765341,75.7776319",
      "locality" : " Vishwakarma Industrial Area",
      "time" : "12:47",
      "user" : "RxDvTuUUsCTs9GcCg5g0iG9fA3t2",
      "ward" : "8",
      "zone" : "Murlipura"
    },
    "267" : {
      "address" : "1, Sector-9, Vishwakarma Industrial Area, Vidyadhar Nagar",
      "imageRef" : "2021~October~2021-10-21~2~267",
      "isClean" : true,
      "latLng" : "26.9699841,75.7817834",
      "locality" : " Vidyadhar Nagar",
      "time" : "12:48",
      "user" : "RxDvTuUUsCTs9GcCg5g0iG9fA3t2",
      "ward" : "8",
      "zone" : "Murlipura"
    },