{
  "2" : {
    "1" : {
      "address" : "B2/5, Saraswati Marg, Arpit Nagar, Chitrakoot",
      "imageRef" : "2021~October~2021-10-11~2~1",
      "isAnalysis" : "yes",
      "isClean" : true,
      "latLng" : "26.9053054,75.7326062",
      "locality" : " Chitrakoot",
      "penalty" : "100",
      "time" : "10:35",
      "user" : "5O4HmxdGWmcOa1J2WhJr16wb8uG3",
      "ward" : "57",
      "zone" : "Jhotwara"
    },
    "2" : {
      "address" : "36,Nemi Nagar,Ram Marg,Lane no-2,Gandhi Path, Girnar Colony South, Vaishali Nagar",
      "imageRef" : "2021~October~2021-10-11~2~2",
      "isAnalysis" : "yes",
      "isClean" : true,
      "latLng" : "26.9055917,75.7424184",
      "locality" : " Vaishali Nagar",
      "penalty" : "100",
      "time" : "10:38",
      "user" : "5O4HmxdGWmcOa1J2WhJr16wb8uG3",
      "ward" : "54",
      "zone" : "Jhotwara"
    },
    "3" : {
      "address" : "Jhotwara, 82,shiv Nagar, 21 south, Niwaru Road, Shanti Path, Jhotwara",
      "imageRef" : "2021~October~2021-10-11~2~3",
      "isAnalysis" : "yes",
      "isClean" : true,
      "latLng" : "26.9577153,75.7344421",
      "locality" : " Jhotwara",
      "penalty" : "100",
      "time" : "10:49",
      "user" : "ev0wnTlCHecAviBhj2QYe4lEAj13",
      "ward" : "28",
      "zone" : "Vidhyadhar"
    },
    "4" : {
      "address" : "160-A, Niwaru Rd, 21 South Colony, Shanti Path, Jhotwara",
      "imageRef" : "2021~October~2021-10-11~2~4",
      "isAnalysis" : "yes",
      "isClean" : true,
      "latLng" : "26.9552196,75.7347867",
      "locality" : " Jhotwara",
      "penalty" : "100",
      "time" : "10:51",
      "user" : "ev0wnTlCHecAviBhj2QYe4lEAj13",
      "ward" : "28",
      "zone" : "Vidhyadhar"
    },
    "5" : {
      "address" : "77, Laxmi Nagar III, Ward Number 7, Jhotwara Industrial Area, Jhotwara",
      "imageRef" : "2021~October~2021-10-11~2~5",
      "isAnalysis" : "yes",
      "isClean" : true,
      "latLng" : "26.9628113,75.7404468",
      "locality" : " Jhotwara",
      "penalty" : "100",
      "time" : "10:53",
      "user" : "ev0wnTlCHecAviBhj2QYe4lEAj13",
      "ward" : "19",
      "zone" : "Murlipura"
    },
    "6" : {
      "address" : "77, Laxmi Nagar III, Ward Number 7, Jhotwara Industrial Area, Jhotwara",
      "imageRef" : "2021~October~2021-10-11~2~6",
      "isAnalysis" : "yes",
      "isClean" : true,
      "latLng" : "26.9628113,75.7404468",
      "locality" : " Jhotwara",
      "penalty" : "100",
      "time" : "10:54",
      "user" : "ev0wnTlCHecAviBhj2QYe4lEAj13",
      "ward" : "19",
      "zone" : "Murlipura"
    },
    "7" : {
      "address" : "Road, 43, Madan vihar, Dadi Ka Phatak, Dahar Ka Balaji",
      "imageRef" : "2021~October~2021-10-11~2~7",
      "isAnalysis" : "yes",
      "isClean" : true,
      "latLng" : "26.9660654,75.75531",
      "locality" : " Dahar Ka Balaji",
      "penalty" : "100",
      "time" : "11:00",
      "user" : "ev0wnTlCHecAviBhj2QYe4lEAj13",
      "ward" : "14",
      "zone" : "Murlipura"
    },
    "8" : {
      "address" : "Road, 43, Madan vihar, Dadi Ka Phatak, Dahar Ka Balaji",
      "imageRef" : "2021~October~2021-10-11~2~8",
      "isAnalysis" : "yes",
      "isClean" : true,
      "latLng" : "26.9660654,75.75531",
      "locality" : " Dahar Ka Balaji",
      "penalty" : "100",
      "time" : "11:01",
      "user" : "ev0wnTlCHecAviBhj2QYe4lEAj13",
      "ward" : "14",
      "zone" : "Murlipura"
    },
    "9" : {
      "address" : "49, Binjari Marg, Anand Vihar-A, Durga Vihar, Vikash Nagar, Jhotwara",
      "imageRef" : "2021~October~2021-10-11~2~9",
      "isAnalysis" : "yes",
      "isClean" : true,
      "latLng" : "26.9644908,75.7556994",
      "locality" : " Jhotwara",
      "penalty" : "100",
      "time" : "11:04",
      "user" : "ev0wnTlCHecAviBhj2QYe4lEAj13",
      "ward" : "14",
      "zone" : "Murlipura"
    },
    "10" : {
      "address" : "49, Binjari Marg, Anand Vihar-A, Durga Vihar, Vikash Nagar, Jhotwara",
      "imageRef" : "2021~October~2021-10-11~2~10",
      "isAnalysis" : "yes",
      "isClean" : true,
      "latLng" : "26.9644908,75.7556994",
      "locality" : " Jhotwara",
      "penalty" : "100",
      "time" : "11:05",
      "user" : "ev0wnTlCHecAviBhj2QYe4lEAj13",
      "ward" : "14",
      "zone" : "Murlipura"
    },
    "11" : {
      "address" : "Unnamed Road, Saraswati Nagar Extension, Chainpura, Jagatpura",
      "imageRef" : "2021~October~2021-10-11~2~11",
      "isClean" : true,
      "latLng" : "26.8405833,75.8090967",
      "locality" : " Jagatpura",
      "time" : "11:09",
      "user" : "IfTaCIc9ildHleifFcUvTbvprz43",
      "ward" : "106",
      "zone" : "Jagatpura"
    },
    "12" : {
      "address" : "E 55 Sarswati Nagar, Sidharth Nagar - B Jawahar Circle, Airport Rd, Siddharth Nagar, Chainpura, Malviya Nagar",
      "imageRef" : "2021~October~2021-10-11~2~12",
      "isAnalysis" : "yes",
      "isClean" : true,
      "latLng" : "26.8345667,75.8069283",
      "locality" : " Malviya Nagar",
      "penalty" : "100",
      "time" : "11:15",
      "user" : "IfTaCIc9ildHleifFcUvTbvprz43",
      "ward" : "106",
      "zone" : "Jagatpura"
    },
    "13" : {
      "address" : "Unnamed Road, Moji Nagar, Bajaj Nagar",
      "imageRef" : "2021~October~2021-10-11~2~13",
      "isAnalysis" : "yes",
      "isClean" : true,
      "latLng" : "26.8570089,75.8069796",
      "locality" : " Bajaj Nagar",
      "penalty" : "100",
      "time" : "11:21",
      "user" : "AfGurwTzesfcNInqIkyjFGXDoub2",
      "ward" : "130",
      "zone" : "Malviya Nagar"
    },
    "14" : {
      "address" : "3, Sangam Colony, Harmada",
      "imageRef" : "2021~October~2021-10-11~2~14",
      "isClean" : true,
      "latLng" : "26.9972826,75.7686485",
      "locality" : " Harmada",
      "time" : "11:21",
      "user" : "ev0wnTlCHecAviBhj2QYe4lEAj13",
      "ward" : "3",
      "zone" : "Murlipura"
    },
    "15" : {
      "address" : "86/166, Ajmer Rd, Vardhman Nagar B, Vardhman Nagar, Karni Vihar",
      "imageRef" : "2021~October~2021-10-11~2~15",
      "isAnalysis" : "yes",
      "isClean" : true,
      "latLng" : "26.8842324,75.7358638",
      "locality" : " Karni Vihar",
      "penalty" : "100",
      "time" : "11:28",
      "user" : "EY0cg0gEW0WKz60icDpLpkaWSij2",
      "ward" : "63",
      "zone" : "Jhotwara"
    },
    "16" : {
      "address" : "318-A, Gandhi Path W, Maa Hinglaj Nagar, Lalarpura",
      "imageRef" : "2021~October~2021-10-11~2~16",
      "isAnalysis" : "yes",
      "isClean" : true,
      "latLng" : "26.9070055,75.7246105",
      "locality" : " Lalarpura",
      "penalty" : "100",
      "time" : "11:28",
      "user" : "5O4HmxdGWmcOa1J2WhJr16wb8uG3",
      "ward" : "53",
      "zone" : "Jhotwara"
    },
    "17" : {
      "address" : "D31, D31, Acharya Tulsi Cir, near Kanha Restaurant, Kalyan Colony, D-Block, Sector 9, Malviya Nagar",
      "imageRef" : "2021~October~2021-10-11~2~17",
      "isAnalysis" : "yes",
      "isClean" : true,
      "latLng" : "26.8542384,75.8089007",
      "locality" : " Malviya Nagar",
      "penalty" : "100",
      "time" : "11:28",
      "user" : "AfGurwTzesfcNInqIkyjFGXDoub2",
      "ward" : "130",
      "zone" : "Malviya Nagar"
    },
    "18" : {
      "address" : "201, Gaurav Tower, Malviya Nagar, Vidhyadhar Nagar, Vidyut Abhiyanta Colony, Malviya Nagar",
      "imageRef" : "2021~October~2021-10-11~2~18",
      "isClean" : true,
      "latLng" : "26.8510252,75.811634",
      "locality" : " Malviya Nagar",
      "time" : "11:31",
      "user" : "AfGurwTzesfcNInqIkyjFGXDoub2",
      "ward" : "130",
      "zone" : "Malviya Nagar"
    },
    "19" : {
      "address" : "plot no 1, New Sanganer Rd, Kusal Nagar, Dada Gurudev Nagar, Sanganer",
      "imageRef" : "2021~October~2021-10-11~2~19",
      "isAnalysis" : "yes",
      "isClean" : true,
      "latLng" : "26.8252131,75.7783996",
      "locality" : " Sanganer",
      "penalty" : "100",
      "time" : "11:31",
      "user" : "EY0cg0gEW0WKz60icDpLpkaWSij2",
      "ward" : "89",
      "zone" : "Sanganer"
    },
    "20" : {
      "address" : "2, New Karni Colony, Harmada",
      "imageRef" : "2021~October~2021-10-11~2~20",
      "isClean" : true,
      "latLng" : "27.0137403,75.7715633",
      "locality" : " Harmada",
      "time" : "11:32",
      "user" : "ev0wnTlCHecAviBhj2QYe4lEAj13",
      "ward" : "4",
      "zone" : "Murlipura"
    },
    "21" : {
      "address" : "Shop No 28 - 29 Near Hanuman Dhaba Deher Ka Balaji Sikar Road, Sector 2, Radha Govind Colony, Vidyadhar Nagar",
      "imageRef" : "2021~October~2021-10-11~2~21",
      "isAnalysis" : "yes",
      "isClean" : true,
      "latLng" : "26.9540223,75.7715918",
      "locality" : " Vidyadhar Nagar",
      "penalty" : "100",
      "time" : "11:32",
      "user" : "OeCnghJYjVcG0jAsX9gPY6vGDnl2",
      "ward" : "26",
      "zone" : "Vidhyadhar"
    },
    "22" : {
      "address" : "2, New Karni Colony, Harmada",
      "imageRef" : "2021~October~2021-10-11~2~22",
      "isClean" : true,
      "latLng" : "27.0137403,75.7715633",
      "locality" : " Harmada",
      "time" : "11:33",
      "user" : "ev0wnTlCHecAviBhj2QYe4lEAj13",
      "ward" : "4",
      "zone" : "Murlipura"
    },
    "23" : {
      "address" : "Shop No 28 - 29 Near Hanuman Dhaba Deher Ka Balaji Sikar Road, Sector 2, Radha Govind Colony, Vidyadhar Nagar",
      "imageRef" : "2021~October~2021-10-11~2~23",
      "isAnalysis" : "yes",
      "isClean" : true,
      "latLng" : "26.9540223,75.7715918",
      "locality" : " Vidyadhar Nagar",
      "penalty" : "100",
      "time" : "11:33",
      "user" : "OeCnghJYjVcG0jAsX9gPY6vGDnl2",
      "ward" : "26",
      "zone" : "Vidhyadhar"
    },
    "24" : {
      "address" : "Samyak Creation, 26, Kalyan Colony, Aacharya Tulsi Marg, Opp. Gaurav Towers, Malviya Nagar, beside Dominoes, Vidhyadhar Nagar, Sector 10, Malviya Nagar",
      "imageRef" : "2021~October~2021-10-11~2~24",
      "isAnalysis" : "yes",
      "isClean" : true,
      "latLng" : "26.8503135,75.8122147",
      "locality" : " Malviya Nagar",
      "penalty" : "100",
      "time" : "11:34",
      "user" : "AfGurwTzesfcNInqIkyjFGXDoub2",
      "ward" : "130",
      "zone" : "Malviya Nagar"
    },
    "25" : {
      "address" : "1/4, Parasram Nagar, Dahar Ka Balaji",
      "imageRef" : "2021~October~2021-10-11~2~25",
      "isAnalysis" : "yes",
      "isClean" : true,
      "latLng" : "26.9530101,75.7713357",
      "locality" : " Dahar Ka Balaji",
      "penalty" : "100",
      "time" : "11:34",
      "user" : "OeCnghJYjVcG0jAsX9gPY6vGDnl2",
      "ward" : "25",
      "zone" : "Vidhyadhar"
    },
    "26" : {
      "address" : "32-A, Asind Nagar, Sanganer",
      "imageRef" : "2021~October~2021-10-11~2~26",
      "isAnalysis" : "yes",
      "isClean" : true,
      "latLng" : "26.8201943,75.7814433",
      "locality" : " Sanganer",
      "penalty" : "100",
      "time" : "11:34",
      "user" : "EY0cg0gEW0WKz60icDpLpkaWSij2",
      "ward" : "90",
      "zone" : "Sanganer"
    },
    "27" : {
      "address" : "4/5-6, Sikar Rd, Parasram Nagar, Dahar Ka Balaji",
      "imageRef" : "2021~October~2021-10-11~2~27",
      "isClean" : true,
      "latLng" : "26.9531932,75.7710925",
      "locality" : " Dahar Ka Balaji",
      "time" : "11:35",
      "user" : "RxDvTuUUsCTs9GcCg5g0iG9fA3t2",
      "ward" : "25",
      "zone" : "Vidhyadhar"
    },
    "28" : {
      "address" : "1/4, Parasram Nagar, Dahar Ka Balaji",
      "imageRef" : "2021~October~2021-10-11~2~28",
      "isClean" : true,
      "latLng" : "26.9530101,75.7713357",
      "locality" : " Dahar Ka Balaji",
      "time" : "11:35",
      "user" : "OeCnghJYjVcG0jAsX9gPY6vGDnl2",
      "ward" : "25",
      "zone" : "Vidhyadhar"
    },
    "29" : {
      "address" : "4/5-6, Sikar Rd, Parasram Nagar, Dahar Ka Balaji",
      "imageRef" : "2021~October~2021-10-11~2~29",
      "isClean" : true,
      "latLng" : "26.9531932,75.7710925",
      "locality" : " Dahar Ka Balaji",
      "time" : "11:35",
      "user" : "RxDvTuUUsCTs9GcCg5g0iG9fA3t2",
      "ward" : "25",
      "zone" : "Vidhyadhar"
    },
    "30" : {
      "address" : "4/5-6, Sikar Rd, Parasram Nagar, Dahar Ka Balaji",
      "imageRef" : "2021~October~2021-10-11~2~30",
      "isAnalysis" : "yes",
      "isClean" : true,
      "latLng" : "26.9531932,75.7710925",
      "locality" : " Dahar Ka Balaji",
      "penalty" : "100",
      "time" : "11:35",
      "user" : "RxDvTuUUsCTs9GcCg5g0iG9fA3t2",
      "ward" : "25",
      "zone" : "Vidhyadhar"
    },
    "31" : {
      "address" : "1/4, Parasram Nagar, Dahar Ka Balaji",
      "imageRef" : "2021~October~2021-10-11~2~31",
      "isAnalysis" : "yes",
      "isClean" : true,
      "latLng" : "26.9530074,75.7713622",
      "locality" : " Dahar Ka Balaji",
      "penalty" : "100",
      "time" : "11:37",
      "user" : "OeCnghJYjVcG0jAsX9gPY6vGDnl2",
      "ward" : "25",
      "zone" : "Vidhyadhar"
    },
    "32" : {
      "address" : "Shop No. - 38, Kisan Market, Diggi Malpura Road, Sanganer, opp. Pardaya Hospital, Maruti Colony, Dada Gurudev Nagar, Sanganer",
      "imageRef" : "2021~October~2021-10-11~2~32",
      "isAnalysis" : "yes",
      "isClean" : true,
      "latLng" : "26.8168883,75.7815061",
      "locality" : " Sanganer",
      "penalty" : "100",
      "time" : "11:37",
      "user" : "EY0cg0gEW0WKz60icDpLpkaWSij2",
      "ward" : "93",
      "zone" : "Sanganer"
    },
    "33" : {
      "address" : "4/32, Pradhan Marg, Near Satkar Underpass, Vidyut Abhiyanta Colony, Sector 4, Malviya Nagar",
      "imageRef" : "2021~October~2021-10-11~2~33",
      "isAnalysis" : "yes",
      "isClean" : true,
      "latLng" : "26.849087,75.814069",
      "locality" : " Malviya Nagar",
      "penalty" : "100",
      "time" : "11:37",
      "user" : "AfGurwTzesfcNInqIkyjFGXDoub2",
      "ward" : "132",
      "zone" : "Malviya Nagar"
    },
    "34" : {
      "address" : "301-302, C Block, Gom Defence Colony, Hanuman Nagar",
      "imageRef" : "2021~October~2021-10-11~2~34",
      "isAnalysis" : "yes",
      "isClean" : true,
      "latLng" : "26.9156876,75.7460524",
      "locality" : " Hanuman Nagar",
      "penalty" : "100",
      "time" : "11:38",
      "user" : "5O4HmxdGWmcOa1J2WhJr16wb8uG3",
      "ward" : "Not Found",
      "zone" : "Not Found"
    },
    "35" : {
      "address" : "4/456, Pradhan Marg, Vidyut Abhiyanta Colony, Sector 4, Malviya Nagar",
      "imageRef" : "2021~October~2021-10-11~2~35",
      "isClean" : true,
      "latLng" : "26.8495912,75.8134479",
      "locality" : " Malviya Nagar",
      "time" : "11:39",
      "user" : "AfGurwTzesfcNInqIkyjFGXDoub2",
      "ward" : "132",
      "zone" : "Malviya Nagar"
    },
    "36" : {
      "address" : "1/4, Parasram Nagar, Dahar Ka Balaji",
      "imageRef" : "2021~October~2021-10-11~2~36",
      "isAnalysis" : "yes",
      "isClean" : true,
      "latLng" : "26.9530074,75.7713622",
      "locality" : " Dahar Ka Balaji",
      "penalty" : "100",
      "time" : "11:39",
      "user" : "OeCnghJYjVcG0jAsX9gPY6vGDnl2",
      "ward" : "25",
      "zone" : "Vidhyadhar"
    },
    "37" : {
      "address" : "Shop No 6-7, Shop no 6-7, Nagar Nigam Road, Sanganer, Dada Gurudev Nagar, Sanganer",
      "imageRef" : "2021~October~2021-10-11~2~37",
      "isAnalysis" : "yes",
      "isClean" : true,
      "latLng" : "26.8111842,75.7804791",
      "locality" : " Sanganer",
      "penalty" : "100",
      "time" : "11:40",
      "user" : "EY0cg0gEW0WKz60icDpLpkaWSij2",
      "ward" : "92",
      "zone" : "Sanganer"
    },
    "38" : {
      "address" : "B-435, Shanti Path, Block B, Vidyut Abhiyanta Colony, Sector 4, Malviya Nagar",
      "imageRef" : "2021~October~2021-10-11~2~38",
      "isAnalysis" : "yes",
      "isClean" : true,
      "latLng" : "26.8514751,75.8124034",
      "locality" : " Malviya Nagar",
      "penalty" : "100",
      "time" : "11:41",
      "user" : "AfGurwTzesfcNInqIkyjFGXDoub2",
      "ward" : "132",
      "zone" : "Malviya Nagar"
    },
    "39" : {
      "address" : "14, Vishnu Marg, Indrapura, Jhotwara",
      "imageRef" : "2021~October~2021-10-11~2~39",
      "isAnalysis" : "yes",
      "isClean" : true,
      "latLng" : "26.9379009,75.7535949",
      "locality" : " Jhotwara",
      "penalty" : "100",
      "time" : "11:44",
      "user" : "5O4HmxdGWmcOa1J2WhJr16wb8uG3",
      "ward" : "Not Found",
      "zone" : "Not Found"
    },
    "40" : {
      "address" : "C-286, Pradhan Marg, Block A, Sector 4, Malviya Nagar",
      "imageRef" : "2021~October~2021-10-11~2~40",
      "isAnalysis" : "yes",
      "isClean" : true,
      "latLng" : "26.8536355,75.8103323",
      "locality" : " Malviya Nagar",
      "penalty" : "100",
      "time" : "11:44",
      "user" : "AfGurwTzesfcNInqIkyjFGXDoub2",
      "ward" : "132",
      "zone" : "Malviya Nagar"
    },
    "41" : {
      "address" : "RQ8F+XF6, Ramdara Colony, Dada Gurudev Nagar, Sanganer",
      "imageRef" : "2021~October~2021-10-11~2~41",
      "isAnalysis" : "yes",
      "isClean" : true,
      "latLng" : "26.8174445,75.7737221",
      "locality" : " Sanganer",
      "penalty" : "100",
      "time" : "11:47",
      "user" : "EY0cg0gEW0WKz60icDpLpkaWSij2",
      "ward" : "89",
      "zone" : "Sanganer"
    },
    "42" : {
      "address" : "21, near a, Ramdara Colony, Mahaveer Nagar Y, Dada Gurudev Nagar, Sanganer",
      "imageRef" : "2021~October~2021-10-11~2~42",
      "isAnalysis" : "yes",
      "isClean" : true,
      "latLng" : "26.8172983,75.7743336",
      "locality" : " Sanganer",
      "penalty" : "100",
      "time" : "11:47",
      "user" : "EY0cg0gEW0WKz60icDpLpkaWSij2",
      "ward" : "89",
      "zone" : "Sanganer"
    },
    "43" : {
      "address" : "3-E, E-Block, Moji Nagar, Malviya Nagar",
      "imageRef" : "2021~October~2021-10-11~2~43",
      "isClean" : true,
      "latLng" : "26.8573012,75.8086039",
      "locality" : " Malviya Nagar",
      "time" : "11:48",
      "user" : "AfGurwTzesfcNInqIkyjFGXDoub2",
      "ward" : "Not Found",
      "zone" : "Not Found"
    },
    "44" : {
      "address" : "RQ9G+765, Suraj Nagar, Dada Gurudev Nagar, Sanganer",
      "imageRef" : "2021~October~2021-10-11~2~44",
      "isAnalysis" : "yes",
      "isClean" : true,
      "latLng" : "26.8180054,75.775586",
      "locality" : " Sanganer",
      "penalty" : "100",
      "time" : "11:50",
      "user" : "EY0cg0gEW0WKz60icDpLpkaWSij2",
      "ward" : "89",
      "zone" : "Sanganer"
    },
    "45" : {
      "address" : "B-3B, 1c Rd, Vishwakarma Industrial Area",
      "imageRef" : "2021~October~2021-10-11~2~45",
      "isAnalysis" : "yes",
      "isClean" : true,
      "latLng" : "26.9725801,75.7776643",
      "locality" : " Vishwakarma Industrial Area",
      "penalty" : "100",
      "time" : "11:50",
      "user" : "ev0wnTlCHecAviBhj2QYe4lEAj13",
      "ward" : "8",
      "zone" : "Murlipura"
    },
    "46" : {
      "address" : "Chomupuliya, Ambabari, Vidyadhar Nagar",
      "imageRef" : "2021~October~2021-10-11~2~46",
      "isAnalysis" : "yes",
      "isClean" : true,
      "latLng" : "26.941204,75.7736678",
      "locality" : " Vidyadhar Nagar",
      "penalty" : "100",
      "time" : "11:50",
      "user" : "5O4HmxdGWmcOa1J2WhJr16wb8uG3",
      "ward" : "27",
      "zone" : "Vidhyadhar"
    },
    "47" : {
      "address" : "A-28, Nirwan Marg, Ambabari, Vidyadhar Nagar",
      "imageRef" : "2021~October~2021-10-11~2~47",
      "isClean" : true,
      "latLng" : "26.9403519,75.776121",
      "locality" : " Vidyadhar Nagar",
      "time" : "11:52",
      "user" : "5O4HmxdGWmcOa1J2WhJr16wb8uG3",
      "ward" : "27",
      "zone" : "Vidhyadhar"
    },
    "48" : {
      "address" : "10, Jagatpura",
      "imageRef" : "2021~October~2021-10-11~2~48",
      "isAnalysis" : "yes",
      "isClean" : true,
      "latLng" : "26.8347833,75.8165167",
      "locality" : " Jagatpura",
      "penalty" : "100",
      "time" : "11:52",
      "user" : "IfTaCIc9ildHleifFcUvTbvprz43",
      "ward" : "107",
      "zone" : "Jagatpura"
    },
    "49" : {
      "address" : "33 To 40, Sector 2, Sector 6, Vidyadhar Nagar",
      "imageRef" : "2021~October~2021-10-11~2~49",
      "isClean" : true,
      "latLng" : "26.9704388,75.7793997",
      "locality" : " Vidyadhar Nagar",
      "time" : "11:53",
      "user" : "ev0wnTlCHecAviBhj2QYe4lEAj13",
      "ward" : "8",
      "zone" : "Murlipura"
    },
    "50" : {
      "address" : "39,Darabari Choura, Dada Gurudev Nagar, Sanganer",
      "imageRef" : "2021~October~2021-10-11~2~50",
      "isAnalysis" : "yes",
      "isClean" : true,
      "latLng" : "26.8172159,75.7747392",
      "locality" : " Sanganer",
      "penalty" : "100",
      "time" : "11:53",
      "user" : "EY0cg0gEW0WKz60icDpLpkaWSij2",
      "ward" : "89",
      "zone" : "Sanganer"
    },
    "51" : {
      "address" : "33 To 40, Sector 2, Sector 6, Vidyadhar Nagar",
      "imageRef" : "2021~October~2021-10-11~2~51",
      "isAnalysis" : "yes",
      "isClean" : true,
      "latLng" : "26.9704388,75.7793997",
      "locality" : " Vidyadhar Nagar",
      "penalty" : "100",
      "time" : "11:54",
      "user" : "ev0wnTlCHecAviBhj2QYe4lEAj13",
      "ward" : "8",
      "zone" : "Murlipura"
    },
    "52" : {
      "address" : "1-2, Ambabari, Naya Khera, Vidyadhar Nagar",
      "imageRef" : "2021~October~2021-10-11~2~52",
      "isAnalysis" : "yes",
      "isClean" : true,
      "latLng" : "26.9403972,75.7774308",
      "locality" : " Vidyadhar Nagar",
      "penalty" : "100",
      "time" : "11:54",
      "user" : "5O4HmxdGWmcOa1J2WhJr16wb8uG3",
      "ward" : "27",
      "zone" : "Vidhyadhar"
    },
    "53" : {
      "address" : "Riddhi Siddhi Tower, Sun And Moon, Sector 2, Sector 6, Vidyadhar Nagar",
      "imageRef" : "2021~October~2021-10-11~2~53",
      "isAnalysis" : "yes",
      "isClean" : true,
      "latLng" : "26.9709058,75.7741987",
      "locality" : " Vidyadhar Nagar",
      "penalty" : "100",
      "time" : "11:56",
      "user" : "ev0wnTlCHecAviBhj2QYe4lEAj13",
      "ward" : "8",
      "zone" : "Murlipura"
    },
    "54" : {
      "address" : "Shop No.7, Station Road, Dadda Bari, Dada Bari Rd, Bharave Colony, Dada Gurudev Nagar, Sanganer",
      "imageRef" : "2021~October~2021-10-11~2~54",
      "isAnalysis" : "yes",
      "isClean" : true,
      "latLng" : "26.812818,75.7767163",
      "locality" : " Sanganer",
      "penalty" : "100",
      "time" : "11:56",
      "user" : "EY0cg0gEW0WKz60icDpLpkaWSij2",
      "ward" : "92",
      "zone" : "Sanganer"
    },
    "55" : {
      "address" : "360, Sikar Rd, Ambabari, AWHO Colony, Vidyadhar Nagar",
      "imageRef" : "2021~October~2021-10-11~2~55",
      "isAnalysis" : "yes",
      "isClean" : true,
      "latLng" : "26.9486544,75.7725778",
      "locality" : " Vidyadhar Nagar",
      "penalty" : "100",
      "time" : "11:59",
      "user" : "5O4HmxdGWmcOa1J2WhJr16wb8uG3",
      "ward" : "25",
      "zone" : "Vidhyadhar"
    },
    "56" : {
      "address" : "Riddhi Siddhi Tower, Sun And Moon, Sector 2, Sector 6, Vidyadhar Nagar",
      "imageRef" : "2021~October~2021-10-11~2~56",
      "isAnalysis" : "yes",
      "isClean" : true,
      "latLng" : "26.9709058,75.7741987",
      "locality" : " Vidyadhar Nagar",
      "penalty" : "100",
      "time" : "12:01",
      "user" : "ev0wnTlCHecAviBhj2QYe4lEAj13",
      "ward" : "8",
      "zone" : "Murlipura"
    },
    "57" : {
      "address" : "3, Shri Ramnagar Colony, Dada Gurudev Nagar, Sanganer",
      "imageRef" : "2021~October~2021-10-11~2~57",
      "isAnalysis" : "yes",
      "isClean" : true,
      "latLng" : "26.8121926,75.7808097",
      "locality" : " Sanganer",
      "penalty" : "100",
      "time" : "12:02",
      "user" : "EY0cg0gEW0WKz60icDpLpkaWSij2",
      "ward" : "93",
      "zone" : "Sanganer"
    },
    "58" : {
      "address" : "Shop No.49, Road No.-5, Sikar Rd, Vishwakarma Industrial Area, Murlipura",
      "imageRef" : "2021~October~2021-10-11~2~58",
      "isAnalysis" : "yes",
      "isClean" : true,
      "latLng" : "26.9803269,75.7737863",
      "locality" : " Murlipura",
      "penalty" : "100",
      "time" : "12:03",
      "user" : "ev0wnTlCHecAviBhj2QYe4lEAj13",
      "ward" : "10",
      "zone" : "Murlipura"
    },
    "59" : {
      "address" : "36-37, 6-9th Floor S&G Tower, Calgiri Marg, Mauji Colony, Moji Nagar, Malviya Nagar",
      "imageRef" : "2021~October~2021-10-11~2~59",
      "isAnalysis" : "yes",
      "isClean" : true,
      "latLng" : "26.8594421,75.8086286",
      "locality" : " Malviya Nagar",
      "penalty" : "100",
      "time" : "12:05",
      "user" : "AfGurwTzesfcNInqIkyjFGXDoub2",
      "ward" : "Not Found",
      "zone" : "Not Found"
    },
    "60" : {
      "address" : "Shop No 9, 10, Sikar Rd, Sector 2, Radha Govind Colony, Dahar Ka Balaji",
      "imageRef" : "2021~October~2021-10-11~2~60",
      "isAnalysis" : "yes",
      "isClean" : true,
      "latLng" : "26.9547014,75.7718511",
      "locality" : " Dahar Ka Balaji",
      "penalty" : "100",
      "time" : "12:07",
      "user" : "5O4HmxdGWmcOa1J2WhJr16wb8uG3",
      "ward" : "26",
      "zone" : "Vidhyadhar"
    },
    "61" : {
      "address" : "Laxmi Palace, Printers Colony, Dada Gurudev Nagar, Sanganer",
      "imageRef" : "2021~October~2021-10-11~2~61",
      "isAnalysis" : "yes",
      "isClean" : true,
      "latLng" : "26.8188732,75.7838886",
      "locality" : " Sanganer",
      "penalty" : "100",
      "time" : "12:09",
      "user" : "EY0cg0gEW0WKz60icDpLpkaWSij2",
      "ward" : "90",
      "zone" : "Sanganer"
    },
    "62" : {
      "address" : "Cks Hospital, Vishwakarma Industrial Area",
      "imageRef" : "2021~October~2021-10-11~2~62",
      "isAnalysis" : "yes",
      "isClean" : true,
      "latLng" : "26.9818891,75.7745601",
      "locality" : " Vishwakarma Industrial Area",
      "penalty" : "100",
      "time" : "12:10",
      "user" : "ev0wnTlCHecAviBhj2QYe4lEAj13",
      "ward" : "8",
      "zone" : "Murlipura"
    },
    "63" : {
      "address" : "C252A, Hans Marg, Gem Enclave, Malviya Nagar",
      "imageRef" : "2021~October~2021-10-11~2~63",
      "isAnalysis" : "yes",
      "isClean" : true,
      "latLng" : "26.8579718,75.811654",
      "locality" : " Malviya Nagar",
      "penalty" : "100",
      "time" : "12:14",
      "user" : "AfGurwTzesfcNInqIkyjFGXDoub2",
      "ward" : "132",
      "zone" : "Malviya Nagar"
    },
    "64" : {
      "address" : "A28,Rajdhani, Sikar Rd, Anaj Mandi, Murlipura",
      "imageRef" : "2021~October~2021-10-11~2~64",
      "isAnalysis" : "yes",
      "isClean" : true,
      "latLng" : "26.9913126,75.7710371",
      "locality" : " Murlipura",
      "penalty" : "100",
      "time" : "12:16",
      "user" : "ev0wnTlCHecAviBhj2QYe4lEAj13",
      "ward" : "7",
      "zone" : "Murlipura"
    },
    "65" : {
      "address" : "23/30-31/38, Sector 1, Sanjay Colony, Shastri Nagar",
      "imageRef" : "2021~October~2021-10-11~2~65",
      "isAnalysis" : "yes",
      "isClean" : true,
      "latLng" : "26.9575569,75.7751211",
      "locality" : " Shastri Nagar",
      "penalty" : "100",
      "time" : "12:16",
      "user" : "5O4HmxdGWmcOa1J2WhJr16wb8uG3",
      "ward" : "26",
      "zone" : "Vidhyadhar"
    },
    "66" : {
      "address" : "K-9, Block B, Vidyut Abhiyanta Colony, Malviya Nagar",
      "imageRef" : "2021~October~2021-10-11~2~66",
      "isAnalysis" : "yes",
      "isClean" : true,
      "latLng" : "26.8548674,75.812926",
      "locality" : " Malviya Nagar",
      "penalty" : "100",
      "time" : "12:17",
      "user" : "AfGurwTzesfcNInqIkyjFGXDoub2",
      "ward" : "132",
      "zone" : "Malviya Nagar"
    },
    "67" : {
      "address" : "C-26, 9 Number, Sikar Rd, Anaj Mandi, Murlipura",
      "imageRef" : "2021~October~2021-10-11~2~67",
      "isAnalysis" : "yes",
      "isClean" : true,
      "latLng" : "26.991718,75.7690281",
      "locality" : " Murlipura",
      "penalty" : "100",
      "time" : "12:19",
      "user" : "ev0wnTlCHecAviBhj2QYe4lEAj13",
      "ward" : "7",
      "zone" : "Murlipura"
    },
    "68" : {
      "address" : "Unnamed Road, Sector 2, Central Spine, Vidyadhar Nagar",
      "imageRef" : "2021~October~2021-10-11~2~68",
      "isAnalysis" : "yes",
      "isClean" : true,
      "latLng" : "26.9642244,75.7803395",
      "locality" : " Vidyadhar Nagar",
      "penalty" : "100",
      "time" : "12:19",
      "user" : "5O4HmxdGWmcOa1J2WhJr16wb8uG3",
      "ward" : "22",
      "zone" : "Vidhyadhar"
    },
    "69" : {
      "address" : "48A, Poonam Vihar, BANSHIPURI1ST, Jagatpura",
      "imageRef" : "2021~October~2021-10-11~2~69",
      "isAnalysis" : "yes",
      "isClean" : true,
      "latLng" : "26.8321383,75.8260733",
      "locality" : " Jagatpura",
      "penalty" : "100",
      "time" : "12:23",
      "user" : "IfTaCIc9ildHleifFcUvTbvprz43",
      "ward" : "112",
      "zone" : "Jagatpura"
    },
    "70" : {
      "address" : "G-34, City Star, Central Spine Rd, Sector 2, Central Spine, Vidyadhar Nagar",
      "imageRef" : "2021~October~2021-10-11~2~70",
      "isAnalysis" : "yes",
      "isClean" : true,
      "latLng" : "26.9655632,75.7815925",
      "locality" : " Vidyadhar Nagar",
      "penalty" : "100",
      "time" : "12:25",
      "user" : "5O4HmxdGWmcOa1J2WhJr16wb8uG3",
      "ward" : "8",
      "zone" : "Murlipura"
    },
    "71" : {
      "address" : "Plot No 274 Pratap Nagar Ext Vaidh Ji Ka Chouraha Opp. Road No. 5 Scheme, Vishwakarma Industrial Area, Murlipura",
      "imageRef" : "2021~October~2021-10-11~2~71",
      "isAnalysis" : "yes",
      "isClean" : true,
      "latLng" : "26.9873837,75.7632534",
      "locality" : " Murlipura",
      "penalty" : "100",
      "time" : "12:25",
      "user" : "ev0wnTlCHecAviBhj2QYe4lEAj13",
      "ward" : "7",
      "zone" : "Murlipura"
    },
    "72" : {
      "address" : "359, Vishwakarma Industrial Area, Murlipura",
      "imageRef" : "2021~October~2021-10-11~2~72",
      "isAnalysis" : "yes",
      "isClean" : true,
      "latLng" : "26.9860464,75.7622865",
      "locality" : " Murlipura",
      "penalty" : "100",
      "time" : "12:27",
      "user" : "ev0wnTlCHecAviBhj2QYe4lEAj13",
      "ward" : "7",
      "zone" : "Murlipura"
    },
    "73" : {
      "address" : "10, Sector 2, Central Spine, Vidyadhar Nagar",
      "imageRef" : "2021~October~2021-10-11~2~73",
      "isAnalysis" : "yes",
      "isClean" : true,
      "latLng" : "26.9670606,75.7825559",
      "locality" : " Vidyadhar Nagar",
      "penalty" : "100",
      "time" : "12:27",
      "user" : "5O4HmxdGWmcOa1J2WhJr16wb8uG3",
      "ward" : "8",
      "zone" : "Murlipura"
    },
    "74" : {
      "address" : "359, Vishwakarma Industrial Area, Murlipura",
      "imageRef" : "2021~October~2021-10-11~2~74",
      "isAnalysis" : "yes",
      "isClean" : true,
      "latLng" : "26.9860464,75.7622865",
      "locality" : " Murlipura",
      "penalty" : "100",
      "time" : "12:29",
      "user" : "ev0wnTlCHecAviBhj2QYe4lEAj13",
      "ward" : "7",
      "zone" : "Murlipura"
    },
    "75" : {
      "address" : "B8, Central Spine Rd, Sector 2, Central Spine, Vidyadhar Nagar",
      "imageRef" : "2021~October~2021-10-11~2~75",
      "isClean" : true,
      "latLng" : "26.9680194,75.7842715",
      "locality" : " Vidyadhar Nagar",
      "time" : "12:30",
      "user" : "5O4HmxdGWmcOa1J2WhJr16wb8uG3",
      "ward" : "8",
      "zone" : "Murlipura"
    },
    "76" : {
      "address" : "53, Sikar Rd, Parasram Nagar, Dahar Ka Balaji",
      "imageRef" : "2021~October~2021-10-11~2~76",
      "isAnalysis" : "yes",
      "isClean" : true,
      "latLng" : "26.9541542,75.7713424",
      "locality" : " Dahar Ka Balaji",
      "penalty" : "100",
      "time" : "12:33",
      "user" : "RxDvTuUUsCTs9GcCg5g0iG9fA3t2",
      "ward" : "25",
      "zone" : "Vidhyadhar"
    },
    "77" : {
      "address" : "99, Shyam Mitra Mandal Nagar, Vishwakarma Industrial Area, Murlipura",
      "imageRef" : "2021~October~2021-10-11~2~77",
      "isClean" : true,
      "latLng" : "26.9801383,75.766825",
      "locality" : " Murlipura",
      "time" : "12:34",
      "user" : "OeCnghJYjVcG0jAsX9gPY6vGDnl2",
      "ward" : "10",
      "zone" : "Murlipura"
    },
    "78" : {
      "address" : "99, Shyam Mitra Mandal Nagar, Vishwakarma Industrial Area, Murlipura",
      "imageRef" : "2021~October~2021-10-11~2~78",
      "isAnalysis" : "yes",
      "isClean" : true,
      "latLng" : "26.9801383,75.766825",
      "locality" : " Murlipura",
      "penalty" : "100",
      "time" : "12:34",
      "user" : "OeCnghJYjVcG0jAsX9gPY6vGDnl2",
      "ward" : "10",
      "zone" : "Murlipura"
    },
    "79" : {
      "address" : "99, Shyam Mitra Mandal Nagar, Vishwakarma Industrial Area, Murlipura",
      "imageRef" : "2021~October~2021-10-11~2~79",
      "isClean" : true,
      "latLng" : "26.9801491,75.7668092",
      "locality" : " Murlipura",
      "time" : "12:34",
      "user" : "RxDvTuUUsCTs9GcCg5g0iG9fA3t2",
      "ward" : "10",
      "zone" : "Murlipura"
    },
    "80" : {
      "address" : "99, Shyam Mitra Mandal Nagar, Vishwakarma Industrial Area, Murlipura",
      "imageRef" : "2021~October~2021-10-11~2~80",
      "isClean" : true,
      "latLng" : "26.9801383,75.766825",
      "locality" : " Murlipura",
      "time" : "12:35",
      "user" : "OeCnghJYjVcG0jAsX9gPY6vGDnl2",
      "ward" : "10",
      "zone" : "Murlipura"
    },
    "81" : {
      "address" : "99, Shyam Mitra Mandal Nagar, Vishwakarma Industrial Area, Murlipura",
      "imageRef" : "2021~October~2021-10-11~2~81",
      "isClean" : true,
      "latLng" : "26.9801491,75.7668092",
      "locality" : " Murlipura",
      "time" : "12:35",
      "user" : "RxDvTuUUsCTs9GcCg5g0iG9fA3t2",
      "ward" : "10",
      "zone" : "Murlipura"
    },
    "82" : {
      "address" : "99, Shyam Mitra Mandal Nagar, Vishwakarma Industrial Area, Murlipura",
      "imageRef" : "2021~October~2021-10-11~2~82",
      "isClean" : true,
      "latLng" : "26.9801491,75.7668092",
      "locality" : " Murlipura",
      "time" : "12:35",
      "user" : "RxDvTuUUsCTs9GcCg5g0iG9fA3t2",
      "ward" : "10",
      "zone" : "Murlipura"
    },
    "83" : {
      "address" : "99, Shyam Mitra Mandal Nagar, Vishwakarma Industrial Area, Murlipura",
      "imageRef" : "2021~October~2021-10-11~2~83",
      "isAnalysis" : "yes",
      "isClean" : true,
      "latLng" : "26.9801383,75.766825",
      "locality" : " Murlipura",
      "penalty" : "100",
      "time" : "12:35",
      "user" : "OeCnghJYjVcG0jAsX9gPY6vGDnl2",
      "ward" : "10",
      "zone" : "Murlipura"
    },
    "84" : {
      "address" : "B/70, Shyam Mitra Mandal Nagar, Vishwakarma Industrial Area, Murlipura",
      "imageRef" : "2021~October~2021-10-11~2~84",
      "isAnalysis" : "yes",
      "isClean" : true,
      "latLng" : "26.9797096,75.7667545",
      "locality" : " Murlipura",
      "penalty" : "100",
      "time" : "12:35",
      "user" : "RxDvTuUUsCTs9GcCg5g0iG9fA3t2",
      "ward" : "10",
      "zone" : "Murlipura"
    },
    "85" : {
      "address" : "XQJ8+89Q, Shyam Mitra Mandal Nagar, Vishwakarma Industrial Area, Murlipura",
      "imageRef" : "2021~October~2021-10-11~2~85",
      "isClean" : true,
      "latLng" : "26.9807493,75.7660377",
      "locality" : " Murlipura",
      "time" : "12:35",
      "user" : "OeCnghJYjVcG0jAsX9gPY6vGDnl2",
      "ward" : "10",
      "zone" : "Murlipura"
    },
    "86" : {
      "address" : "B/70, Shyam Mitra Mandal Nagar, Vishwakarma Industrial Area, Murlipura",
      "imageRef" : "2021~October~2021-10-11~2~86",
      "isAnalysis" : "yes",
      "isClean" : true,
      "latLng" : "26.9797096,75.7667545",
      "locality" : " Murlipura",
      "penalty" : "100",
      "time" : "12:35",
      "user" : "RxDvTuUUsCTs9GcCg5g0iG9fA3t2",
      "ward" : "10",
      "zone" : "Murlipura"
    },
    "87" : {
      "address" : "20, Ganesh Nagar, Jamunapuri, Murlipura",
      "imageRef" : "2021~October~2021-10-11~2~87",
      "isAnalysis" : "yes",
      "isClean" : true,
      "latLng" : "26.9762519,75.7560566",
      "locality" : " Murlipura",
      "penalty" : "100",
      "time" : "12:35",
      "user" : "ev0wnTlCHecAviBhj2QYe4lEAj13",
      "ward" : "15",
      "zone" : "Murlipura"
    },
    "88" : {
      "address" : "XQJ8+89Q, Shyam Mitra Mandal Nagar, Vishwakarma Industrial Area, Murlipura",
      "imageRef" : "2021~October~2021-10-11~2~88",
      "isClean" : true,
      "latLng" : "26.9807493,75.7660377",
      "locality" : " Murlipura",
      "time" : "12:35",
      "user" : "OeCnghJYjVcG0jAsX9gPY6vGDnl2",
      "ward" : "10",
      "zone" : "Murlipura"
    },
    "89" : {
      "address" : "B/70, Shyam Mitra Mandal Nagar, Vishwakarma Industrial Area, Murlipura",
      "imageRef" : "2021~October~2021-10-11~2~89",
      "isClean" : true,
      "latLng" : "26.9797096,75.7667545",
      "locality" : " Murlipura",
      "time" : "12:35",
      "user" : "RxDvTuUUsCTs9GcCg5g0iG9fA3t2",
      "ward" : "10",
      "zone" : "Murlipura"
    },
    "90" : {
      "address" : "B/70, Shyam Mitra Mandal Nagar, Vishwakarma Industrial Area, Murlipura",
      "imageRef" : "2021~October~2021-10-11~2~90",
      "isClean" : true,
      "latLng" : "26.9797096,75.7667545",
      "locality" : " Murlipura",
      "time" : "12:36",
      "user" : "RxDvTuUUsCTs9GcCg5g0iG9fA3t2",
      "ward" : "10",
      "zone" : "Murlipura"
    },
    "91" : {
      "address" : "XQJ8+89Q, Shyam Mitra Mandal Nagar, Vishwakarma Industrial Area, Murlipura",
      "imageRef" : "2021~October~2021-10-11~2~91",
      "isClean" : true,
      "latLng" : "26.9807493,75.7660377",
      "locality" : " Murlipura",
      "time" : "12:36",
      "user" : "OeCnghJYjVcG0jAsX9gPY6vGDnl2",
      "ward" : "10",
      "zone" : "Murlipura"
    },
    "92" : {
      "address" : "A-6, Dadhichi Nagar, Vishwakarma Industrial Area, Murlipura",
      "imageRef" : "2021~October~2021-10-11~2~92",
      "isClean" : true,
      "latLng" : "26.9803698,75.766559",
      "locality" : " Murlipura",
      "time" : "12:36",
      "user" : "RxDvTuUUsCTs9GcCg5g0iG9fA3t2",
      "ward" : "10",
      "zone" : "Murlipura"
    },
    "93" : {
      "address" : "A-6, Dadhichi Nagar, Vishwakarma Industrial Area, Murlipura",
      "imageRef" : "2021~October~2021-10-11~2~93",
      "isAnalysis" : "yes",
      "isClean" : true,
      "latLng" : "26.9803026,75.7666592",
      "locality" : " Murlipura",
      "penalty" : "100",
      "time" : "12:36",
      "user" : "OeCnghJYjVcG0jAsX9gPY6vGDnl2",
      "ward" : "10",
      "zone" : "Murlipura"
    },
    "94" : {
      "address" : "A-6, Dadhichi Nagar, Vishwakarma Industrial Area, Murlipura",
      "imageRef" : "2021~October~2021-10-11~2~94",
      "isAnalysis" : "yes",
      "isClean" : true,
      "latLng" : "26.9803026,75.7666592",
      "locality" : " Murlipura",
      "penalty" : "100",
      "time" : "12:37",
      "user" : "OeCnghJYjVcG0jAsX9gPY6vGDnl2",
      "ward" : "10",
      "zone" : "Murlipura"
    },
    "95" : {
      "address" : "A-6, Dadhichi Nagar, Vishwakarma Industrial Area, Murlipura",
      "imageRef" : "2021~October~2021-10-11~2~95",
      "isClean" : true,
      "latLng" : "26.9803698,75.766559",
      "locality" : " Murlipura",
      "time" : "12:37",
      "user" : "RxDvTuUUsCTs9GcCg5g0iG9fA3t2",
      "ward" : "10",
      "zone" : "Murlipura"
    },
    "96" : {
      "address" : "A-6, Dadhichi Nagar, Vishwakarma Industrial Area, Murlipura",
      "imageRef" : "2021~October~2021-10-11~2~96",
      "isAnalysis" : "yes",
      "isClean" : true,
      "latLng" : "26.9803698,75.766559",
      "locality" : " Murlipura",
      "penalty" : "100",
      "time" : "12:37",
      "user" : "RxDvTuUUsCTs9GcCg5g0iG9fA3t2",
      "ward" : "10",
      "zone" : "Murlipura"
    },
    "97" : {
      "address" : "B/88, Dadi Ka Phatak, Murlipura Scheme, Murlipura",
      "imageRef" : "2021~October~2021-10-11~2~97",
      "isClean" : true,
      "latLng" : "26.9700992,75.7533321",
      "locality" : " Murlipura",
      "time" : "12:38",
      "user" : "ev0wnTlCHecAviBhj2QYe4lEAj13",
      "ward" : "15",
      "zone" : "Murlipura"
    },
    "98" : {
      "address" : "A-44, Dadhichi Nagar, Vishwakarma Industrial Area, Murlipura",
      "imageRef" : "2021~October~2021-10-11~2~98",
      "isClean" : true,
      "latLng" : "26.9811035,75.7656631",
      "locality" : " Murlipura",
      "time" : "12:38",
      "user" : "RxDvTuUUsCTs9GcCg5g0iG9fA3t2",
      "ward" : "10",
      "zone" : "Murlipura"
    },
    "99" : {
      "address" : "A-44, Dadhichi Nagar, Vishwakarma Industrial Area, Murlipura",
      "imageRef" : "2021~October~2021-10-11~2~99",
      "isClean" : true,
      "latLng" : "26.9810383,75.76556",
      "locality" : " Murlipura",
      "time" : "12:38",
      "user" : "OeCnghJYjVcG0jAsX9gPY6vGDnl2",
      "ward" : "10",
      "zone" : "Murlipura"
    },
    "100" : {
      "address" : "A-44, Dadhichi Nagar, Vishwakarma Industrial Area, Murlipura",
      "imageRef" : "2021~October~2021-10-11~2~100",
      "isAnalysis" : "yes",
      "isClean" : true,
      "latLng" : "26.9811035,75.7656631",
      "locality" : " Murlipura",
      "penalty" : "100",
      "time" : "12:38",
      "user" : "RxDvTuUUsCTs9GcCg5g0iG9fA3t2",
      "ward" : "10",
      "zone" : "Murlipura"
    },
    "101" : {
      "address" : "A-44, Dadhichi Nagar, Vishwakarma Industrial Area, Murlipura",
      "imageRef" : "2021~October~2021-10-11~2~101",
      "isAnalysis" : "yes",
      "isClean" : true,
      "latLng" : "26.9810383,75.76556",
      "locality" : " Murlipura",
      "penalty" : "100",
      "time" : "12:38",
      "user" : "OeCnghJYjVcG0jAsX9gPY6vGDnl2",
      "ward" : "10",
      "zone" : "Murlipura"
    },
    "102" : {
      "address" : "A-44, Dadhichi Nagar, Vishwakarma Industrial Area, Murlipura",
      "imageRef" : "2021~October~2021-10-11~2~102",
      "isAnalysis" : "yes",
      "isClean" : true,
      "latLng" : "26.9811035,75.7656631",
      "locality" : " Murlipura",
      "penalty" : "100",
      "time" : "12:38",
      "user" : "RxDvTuUUsCTs9GcCg5g0iG9fA3t2",
      "ward" : "10",
      "zone" : "Murlipura"
    },
    "103" : {
      "address" : "A-44, Dadhichi Nagar, Vishwakarma Industrial Area, Murlipura",
      "imageRef" : "2021~October~2021-10-11~2~103",
      "isAnalysis" : "yes",
      "isClean" : true,
      "latLng" : "26.9811035,75.7656631",
      "locality" : " Murlipura",
      "penalty" : "100",
      "time" : "12:38",
      "user" : "RxDvTuUUsCTs9GcCg5g0iG9fA3t2",
      "ward" : "10",
      "zone" : "Murlipura"
    },
    "104" : {
      "address" : "A-44, Dadhichi Nagar, Vishwakarma Industrial Area, Murlipura",
      "imageRef" : "2021~October~2021-10-11~2~104",
      "isClean" : true,
      "latLng" : "26.9810383,75.76556",
      "locality" : " Murlipura",
      "time" : "12:39",
      "user" : "OeCnghJYjVcG0jAsX9gPY6vGDnl2",
      "ward" : "10",
      "zone" : "Murlipura"
    },
    "105" : {
      "address" : "A-54, Dadhichi Nagar, Vishwakarma Industrial Area, Murlipura",
      "imageRef" : "2021~October~2021-10-11~2~105",
      "isClean" : true,
      "latLng" : "26.9809356,75.7660226",
      "locality" : " Murlipura",
      "time" : "12:39",
      "user" : "RxDvTuUUsCTs9GcCg5g0iG9fA3t2",
      "ward" : "10",
      "zone" : "Murlipura"
    },
    "106" : {
      "address" : "A-44, Dadhichi Nagar, Vishwakarma Industrial Area, Murlipura",
      "imageRef" : "2021~October~2021-10-11~2~106",
      "isClean" : true,
      "latLng" : "26.9810653,75.7657764",
      "locality" : " Murlipura",
      "time" : "12:39",
      "user" : "OeCnghJYjVcG0jAsX9gPY6vGDnl2",
      "ward" : "10",
      "zone" : "Murlipura"
    },
    "107" : {
      "address" : "A-54, Dadhichi Nagar, Vishwakarma Industrial Area, Murlipura",
      "imageRef" : "2021~October~2021-10-11~2~107",
      "isClean" : true,
      "latLng" : "26.9809356,75.7660226",
      "locality" : " Murlipura",
      "time" : "12:39",
      "user" : "RxDvTuUUsCTs9GcCg5g0iG9fA3t2",
      "ward" : "10",
      "zone" : "Murlipura"
    },
    "108" : {
      "address" : "A-54, Dadhichi Nagar, Vishwakarma Industrial Area, Murlipura",
      "imageRef" : "2021~October~2021-10-11~2~108",
      "isClean" : true,
      "latLng" : "26.9809356,75.7660226",
      "locality" : " Murlipura",
      "time" : "12:39",
      "user" : "RxDvTuUUsCTs9GcCg5g0iG9fA3t2",
      "ward" : "10",
      "zone" : "Murlipura"
    },
    "109" : {
      "address" : "A-44, Dadhichi Nagar, Vishwakarma Industrial Area, Murlipura",
      "imageRef" : "2021~October~2021-10-11~2~109",
      "isClean" : true,
      "latLng" : "26.9810653,75.7657764",
      "locality" : " Murlipura",
      "time" : "12:39",
      "user" : "OeCnghJYjVcG0jAsX9gPY6vGDnl2",
      "ward" : "10",
      "zone" : "Murlipura"
    },
    "110" : {
      "address" : "A-54, Dadhichi Nagar, Vishwakarma Industrial Area, Murlipura",
      "imageRef" : "2021~October~2021-10-11~2~110",
      "isClean" : true,
      "latLng" : "26.9809356,75.7660226",
      "locality" : " Murlipura",
      "time" : "12:39",
      "user" : "RxDvTuUUsCTs9GcCg5g0iG9fA3t2",
      "ward" : "10",
      "zone" : "Murlipura"
    },
    "111" : {
      "address" : "Jai Shree Krishna Properties Builders, C-11 B, Dhadhichi Nagar, Near Khatu Shyam Tample,Opp.Road No.-5, Sikar Rd, Dadhichi Nagar, Vishwakarma Industrial Area, Murlipura",
      "imageRef" : "2021~October~2021-10-11~2~111",
      "isClean" : true,
      "latLng" : "26.980887,75.7661012",
      "locality" : " Murlipura",
      "time" : "12:39",
      "user" : "RxDvTuUUsCTs9GcCg5g0iG9fA3t2",
      "ward" : "10",
      "zone" : "Murlipura"
    },
    "112" : {
      "address" : "A-44, Dadhichi Nagar, Vishwakarma Industrial Area, Murlipura",
      "imageRef" : "2021~October~2021-10-11~2~112",
      "isClean" : true,
      "latLng" : "26.9809036,75.7657666",
      "locality" : " Murlipura",
      "time" : "12:40",
      "user" : "OeCnghJYjVcG0jAsX9gPY6vGDnl2",
      "ward" : "10",
      "zone" : "Murlipura"
    },
    "113" : {
      "address" : "3, 200 Feet Bypass Rd, Pratap Nagar Vistar, Macheda, Jamunapuri, Jamna Puri",
      "imageRef" : "2021~October~2021-10-11~2~113",
      "isClean" : true,
      "latLng" : "26.9841132,75.7602241",
      "locality" : " Jamna Puri",
      "time" : "12:41",
      "user" : "OeCnghJYjVcG0jAsX9gPY6vGDnl2",
      "ward" : "10",
      "zone" : "Murlipura"
    },
    "114" : {
      "address" : "3, 200 Feet Bypass Rd, Pratap Nagar Vistar, Macheda, Jamunapuri, Jamna Puri",
      "imageRef" : "2021~October~2021-10-11~2~114",
      "isAnalysis" : "yes",
      "isClean" : true,
      "latLng" : "26.9841132,75.7602241",
      "locality" : " Jamna Puri",
      "penalty" : "100",
      "time" : "12:42",
      "user" : "OeCnghJYjVcG0jAsX9gPY6vGDnl2",
      "ward" : "10",
      "zone" : "Murlipura"
    },
    "115" : {
      "address" : "A-15, Benar Rd, Dadi Ka Phatak, Shankar Vihar Extension, Jhotwara",
      "imageRef" : "2021~October~2021-10-11~2~115",
      "isClean" : true,
      "latLng" : "26.9692782,75.7530324",
      "locality" : " Jhotwara",
      "time" : "12:46",
      "user" : "RxDvTuUUsCTs9GcCg5g0iG9fA3t2",
      "ward" : "14",
      "zone" : "Murlipura"
    },
    "116" : {
      "address" : "A-15, Benar Rd, Dadi Ka Phatak, Shankar Vihar Extension, Jhotwara",
      "imageRef" : "2021~October~2021-10-11~2~116",
      "isAnalysis" : "yes",
      "isClean" : true,
      "latLng" : "26.9692782,75.7530324",
      "locality" : " Jhotwara",
      "penalty" : "100",
      "time" : "12:46",
      "user" : "RxDvTuUUsCTs9GcCg5g0iG9fA3t2",
      "ward" : "14",
      "zone" : "Murlipura"
    },
    "117" : {
      "address" : "A-15, Benar Rd, Dadi Ka Phatak, Shankar Vihar Extension, Jhotwara",
      "imageRef" : "2021~October~2021-10-11~2~117",
      "isClean" : true,
      "latLng" : "26.9692983,75.7531617",
      "locality" : " Jhotwara",
      "time" : "12:46",
      "user" : "OeCnghJYjVcG0jAsX9gPY6vGDnl2",
      "ward" : "14",
      "zone" : "Murlipura"
    },
    "118" : {
      "address" : "A-15, Benar Rd, Dadi Ka Phatak, Shankar Vihar Extension, Jhotwara",
      "imageRef" : "2021~October~2021-10-11~2~118",
      "isClean" : true,
      "latLng" : "26.9692782,75.7530324",
      "locality" : " Jhotwara",
      "time" : "12:46",
      "user" : "RxDvTuUUsCTs9GcCg5g0iG9fA3t2",
      "ward" : "14",
      "zone" : "Murlipura"
    },
    "119" : {
      "address" : "A-15, Benar Rd, Dadi Ka Phatak, Shankar Vihar Extension, Jhotwara",
      "imageRef" : "2021~October~2021-10-11~2~119",
      "isClean" : true,
      "latLng" : "26.9692782,75.7530324",
      "locality" : " Jhotwara",
      "time" : "12:46",
      "user" : "RxDvTuUUsCTs9GcCg5g0iG9fA3t2",
      "ward" : "14",
      "zone" : "Murlipura"
    },
    "120" : {
      "address" : "A-15, Benar Rd, Dadi Ka Phatak, Shankar Vihar Extension, Jhotwara",
      "imageRef" : "2021~October~2021-10-11~2~120",
      "isClean" : true,
      "latLng" : "26.9692983,75.7531617",
      "locality" : " Jhotwara",
      "time" : "12:46",
      "user" : "OeCnghJYjVcG0jAsX9gPY6vGDnl2",
      "ward" : "14",
      "zone" : "Murlipura"
    },
    "121" : {
      "address" : "A-15, Benar Rd, Dadi Ka Phatak, Shankar Vihar Extension, Jhotwara",
      "imageRef" : "2021~October~2021-10-11~2~121",
      "isClean" : true,
      "latLng" : "26.9692782,75.7530324",
      "locality" : " Jhotwara",
      "time" : "12:47",
      "user" : "RxDvTuUUsCTs9GcCg5g0iG9fA3t2",
      "ward" : "14",
      "zone" : "Murlipura"
    },
    "122" : {
      "address" : "A-15, Benar Rd, Dadi Ka Phatak, Shankar Vihar Extension, Jhotwara",
      "imageRef" : "2021~October~2021-10-11~2~122",
      "isClean" : true,
      "latLng" : "26.9692983,75.7531617",
      "locality" : " Jhotwara",
      "time" : "12:47",
      "user" : "OeCnghJYjVcG0jAsX9gPY6vGDnl2",
      "ward" : "14",
      "zone" : "Murlipura"
    },
    "123" : {
      "address" : "Main Dadi Ka Phatak, Benar Rd, Maruti Nagar, Anand Vihar, Jhotwara",
      "imageRef" : "2021~October~2021-10-11~2~123",
      "isClean" : true,
      "latLng" : "26.9693579,75.7529702",
      "locality" : " Jhotwara",
      "time" : "12:47",
      "user" : "RxDvTuUUsCTs9GcCg5g0iG9fA3t2",
      "ward" : "14",
      "zone" : "Murlipura"
    },
    "124" : {
      "address" : "A-6, Benar Rd, Maruti Nagar, Anand Vihar, Jhotwara",
      "imageRef" : "2021~October~2021-10-11~2~124",
      "isClean" : true,
      "latLng" : "26.9694464,75.752922",
      "locality" : " Jhotwara",
      "time" : "12:47",
      "user" : "OeCnghJYjVcG0jAsX9gPY6vGDnl2",
      "ward" : "14",
      "zone" : "Murlipura"
    },
    "125" : {
      "address" : "A-6, Benar Rd, Maruti Nagar, Anand Vihar, Jhotwara",
      "imageRef" : "2021~October~2021-10-11~2~125",
      "isClean" : true,
      "latLng" : "26.9694464,75.752922",
      "locality" : " Jhotwara",
      "time" : "12:48",
      "user" : "OeCnghJYjVcG0jAsX9gPY6vGDnl2",
      "ward" : "14",
      "zone" : "Murlipura"
    },
    "126" : {
      "address" : "A-6, Benar Rd, Maruti Nagar, Anand Vihar, Jhotwara",
      "imageRef" : "2021~October~2021-10-11~2~126",
      "isClean" : true,
      "latLng" : "26.9694464,75.752922",
      "locality" : " Jhotwara",
      "time" : "12:48",
      "user" : "OeCnghJYjVcG0jAsX9gPY6vGDnl2",
      "ward" : "14",
      "zone" : "Murlipura"
    },
    "127" : {
      "address" : "21, Maruti Nagar, Anand Vihar, Jhotwara",
      "imageRef" : "2021~October~2021-10-11~2~127",
      "isAnalysis" : "yes",
      "isClean" : true,
      "latLng" : "26.9703701,75.7504304",
      "locality" : " Jhotwara",
      "penalty" : "100",
      "time" : "12:49",
      "user" : "OeCnghJYjVcG0jAsX9gPY6vGDnl2",
      "ward" : "14",
      "zone" : "Murlipura"
    },
    "128" : {
      "address" : "21, Maruti Nagar, Anand Vihar, Jhotwara",
      "imageRef" : "2021~October~2021-10-11~2~128",
      "isAnalysis" : "yes",
      "isClean" : true,
      "latLng" : "26.9703701,75.7504304",
      "locality" : " Jhotwara",
      "penalty" : "100",
      "time" : "12:49",
      "user" : "OeCnghJYjVcG0jAsX9gPY6vGDnl2",
      "ward" : "14",
      "zone" : "Murlipura"
    },
    "129" : {
      "address" : "7, Laxmi Nagar, Ward Number 7, Jhotwara Industrial Area, Jhotwara",
      "imageRef" : "2021~October~2021-10-11~2~129",
      "isClean" : true,
      "latLng" : "26.9618607,75.7391999",
      "locality" : " Jhotwara",
      "time" : "12:50",
      "user" : "OeCnghJYjVcG0jAsX9gPY6vGDnl2",
      "ward" : "19",
      "zone" : "Murlipura"
    },
    "130" : {
      "address" : "76, Gomti Colony, Jagatpura",
      "imageRef" : "2021~October~2021-10-11~2~130",
      "isAnalysis" : "yes",
      "isClean" : true,
      "latLng" : "26.829072,75.8314449",
      "locality" : " Jagatpura",
      "penalty" : "100",
      "time" : "12:50",
      "user" : "IfTaCIc9ildHleifFcUvTbvprz43",
      "ward" : "105",
      "zone" : "Jagatpura"
    },
    "131" : {
      "address" : "B391, Block B, Vidyut Abhiyanta Colony, Sector 4, Malviya Nagar",
      "imageRef" : "2021~October~2021-10-11~2~131",
      "isClean" : true,
      "latLng" : "26.8527067,75.8120678",
      "locality" : " Malviya Nagar",
      "time" : "12:51",
      "user" : "AfGurwTzesfcNInqIkyjFGXDoub2",
      "ward" : "132",
      "zone" : "Malviya Nagar"
    },
    "132" : {
      "address" : "76, Gomti Colony, Jagatpura",
      "imageRef" : "2021~October~2021-10-11~2~132",
      "isAnalysis" : "yes",
      "isClean" : true,
      "latLng" : "26.8293277,75.8317916",
      "locality" : " Jagatpura",
      "penalty" : "100",
      "time" : "12:51",
      "user" : "IfTaCIc9ildHleifFcUvTbvprz43",
      "ward" : "105",
      "zone" : "Jagatpura"
    },
    "133" : {
      "address" : "24 Vivekanand Marg, Niwaru Rd, Laxmi Nagar, Ward Number 7, Jhotwara",
      "imageRef" : "2021~October~2021-10-11~2~133",
      "isClean" : true,
      "latLng" : "26.9593125,75.7379781",
      "locality" : " Jhotwara",
      "time" : "12:52",
      "user" : "OeCnghJYjVcG0jAsX9gPY6vGDnl2",
      "ward" : "19",
      "zone" : "Murlipura"
    },
    "134" : {
      "address" : "24 Vivekanand Marg, Niwaru Rd, Laxmi Nagar, Ward Number 7, Jhotwara",
      "imageRef" : "2021~October~2021-10-11~2~134",
      "isClean" : true,
      "latLng" : "26.9593125,75.7379781",
      "locality" : " Jhotwara",
      "time" : "12:52",
      "user" : "OeCnghJYjVcG0jAsX9gPY6vGDnl2",
      "ward" : "19",
      "zone" : "Murlipura"
    },
    "135" : {
      "address" : "24 Vivekanand Marg, Niwaru Rd, Laxmi Nagar, Ward Number 7, Jhotwara",
      "imageRef" : "2021~October~2021-10-11~2~135",
      "isClean" : true,
      "latLng" : "26.9593125,75.7379781",
      "locality" : " Jhotwara",
      "time" : "12:52",
      "user" : "OeCnghJYjVcG0jAsX9gPY6vGDnl2",
      "ward" : "19",
      "zone" : "Murlipura"
    },
    "136" : {
      "address" : "26, Vikas Nagar, Pratik Nagar, Jhotwara",
      "imageRef" : "2021~October~2021-10-11~2~136",
      "isClean" : true,
      "latLng" : "26.9448398,75.7318793",
      "locality" : " Jhotwara",
      "time" : "12:53",
      "user" : "OeCnghJYjVcG0jAsX9gPY6vGDnl2",
      "ward" : "47",
      "zone" : "Jhotwara"
    },
    "137" : {
      "address" : "26, Vikas Nagar, Pratik Nagar, Jhotwara",
      "imageRef" : "2021~October~2021-10-11~2~137",
      "isClean" : true,
      "latLng" : "26.9448398,75.7318793",
      "locality" : " Jhotwara",
      "time" : "12:54",
      "user" : "OeCnghJYjVcG0jAsX9gPY6vGDnl2",
      "ward" : "47",
      "zone" : "Jhotwara"
    },
    "138" : {
      "address" : "26, Vikas Nagar, Pratik Nagar, Jhotwara",
      "imageRef" : "2021~October~2021-10-11~2~138",
      "isClean" : true,
      "latLng" : "26.9448398,75.7318793",
      "locality" : " Jhotwara",
      "time" : "12:57",
      "user" : "OeCnghJYjVcG0jAsX9gPY6vGDnl2",
      "ward" : "47",
      "zone" : "Jhotwara"
    },
    "139" : {
      "address" : "B-39, Umraav Vihar, Kanakpura",
      "imageRef" : "2021~October~2021-10-11~2~139",
      "isClean" : true,
      "latLng" : "26.9316549,75.7276586",
      "locality" : " Kanakpura",
      "time" : "12:57",
      "user" : "OeCnghJYjVcG0jAsX9gPY6vGDnl2",
      "ward" : "48",
      "zone" : "Jhotwara"
    },
    "140" : {
      "address" : "B-39, Umraav Vihar, Kanakpura",
      "imageRef" : "2021~October~2021-10-11~2~140",
      "isAnalysis" : "yes",
      "isClean" : true,
      "latLng" : "26.9316549,75.7276586",
      "locality" : " Kanakpura",
      "penalty" : "100",
      "time" : "13:00",
      "user" : "OeCnghJYjVcG0jAsX9gPY6vGDnl2",
      "ward" : "48",
      "zone" : "Jhotwara"
    },
    "141" : {
      "address" : "A/445, Block-B, Sector 4, Malviya Nagar",
      "imageRef" : "2021~October~2021-10-11~2~141",
      "isClean" : true,
      "latLng" : "26.8528621,75.8166759",
      "locality" : " Malviya Nagar",
      "time" : "13:05",
      "user" : "AfGurwTzesfcNInqIkyjFGXDoub2",
      "ward" : "132",
      "zone" : "Malviya Nagar"
    },
    "142" : {
      "address" : "WPJF+7X9, Umraav Vihar, Kanakpura",
      "imageRef" : "2021~October~2021-10-11~2~142",
      "isAnalysis" : "yes",
      "isClean" : true,
      "latLng" : "26.930735,75.7249549",
      "locality" : " Kanakpura",
      "penalty" : "100",
      "time" : "13:08",
      "user" : "OeCnghJYjVcG0jAsX9gPY6vGDnl2",
      "ward" : "48",
      "zone" : "Jhotwara"
    },
    "143" : {
      "address" : "Shree Karni College Main Campus Area, Shree Ram Nagar - A, Sunder Nagar, Vaishali Nagar",
      "imageRef" : "2021~October~2021-10-11~2~143",
      "isClean" : true,
      "latLng" : "26.9109836,75.7277076",
      "locality" : " Vaishali Nagar",
      "time" : "13:10",
      "user" : "RxDvTuUUsCTs9GcCg5g0iG9fA3t2",
      "ward" : "53",
      "zone" : "Jhotwara"
    },
    "144" : {
      "address" : "FlipPaisa Office, 2nd Floor, Plot No. 8, Shivram Colony, (Opposite of Golden Domb), Jagatpura, Mayapuri, Jagatpura",
      "imageRef" : "2021~October~2021-10-11~2~144",
      "isClean" : true,
      "latLng" : "26.8346472,75.830959",
      "locality" : " Jagatpura",
      "time" : "13:10",
      "user" : "IfTaCIc9ildHleifFcUvTbvprz43",
      "ward" : "112",
      "zone" : "Jagatpura"
    },
    "145" : {
      "address" : "WPJF+7X9, Umraav Vihar, Kanakpura",
      "imageRef" : "2021~October~2021-10-11~2~145",
      "isClean" : true,
      "latLng" : "26.930735,75.7249549",
      "locality" : " Kanakpura",
      "time" : "13:11",
      "user" : "OeCnghJYjVcG0jAsX9gPY6vGDnl2",
      "ward" : "48",
      "zone" : "Jhotwara"
    },
    "146" : {
      "address" : "plot no-10, Shri Ram Vihar, Mayapuri, colony",
      "imageRef" : "2021~October~2021-10-11~2~146",
      "isClean" : true,
      "latLng" : "26.8335568,75.831215",
      "locality" : " colony",
      "time" : "13:12",
      "user" : "IfTaCIc9ildHleifFcUvTbvprz43",
      "ward" : "112",
      "zone" : "Jagatpura"
    },
    "147" : {
      "address" : "Shree Karni College Main Campus Area, Shree Ram Nagar - A, Sunder Nagar, Vaishali Nagar",
      "imageRef" : "2021~October~2021-10-11~2~147",
      "isAnalysis" : "yes",
      "isClean" : true,
      "latLng" : "26.9109836,75.7277076",
      "locality" : " Vaishali Nagar",
      "penalty" : "100",
      "time" : "13:15",
      "user" : "RxDvTuUUsCTs9GcCg5g0iG9fA3t2",
      "ward" : "53",
      "zone" : "Jhotwara"
    },
    "148" : {
      "address" : "B-69, Lalarpura",
      "imageRef" : "2021~October~2021-10-11~2~148",
      "isAnalysis" : "yes",
      "isClean" : true,
      "latLng" : "26.9079219,75.727236",
      "locality" : " Lalarpura",
      "penalty" : "100",
      "time" : "13:15",
      "user" : "OeCnghJYjVcG0jAsX9gPY6vGDnl2",
      "ward" : "53",
      "zone" : "Jhotwara"
    },
    "149" : {
      "address" : "A234, A234, Shivanand Marg, Block-B, Sector 1, Malviya Nagar",
      "imageRef" : "2021~October~2021-10-11~2~149",
      "isAnalysis" : "yes",
      "isClean" : true,
      "latLng" : "26.8541499,75.8200003",
      "locality" : " Malviya Nagar",
      "penalty" : "100",
      "time" : "13:15",
      "user" : "AfGurwTzesfcNInqIkyjFGXDoub2",
      "ward" : "132",
      "zone" : "Malviya Nagar"
    },
    "150" : {
      "address" : "Getor Jagatpura, Railway station shortcut, Model Town, Jagatpura",
      "imageRef" : "2021~October~2021-10-11~2~150",
      "isAnalysis" : "yes",
      "isClean" : true,
      "latLng" : "26.8371721,75.8324649",
      "locality" : " Jagatpura",
      "penalty" : "100",
      "time" : "13:18",
      "user" : "IfTaCIc9ildHleifFcUvTbvprz43",
      "ward" : "109",
      "zone" : "Jagatpura"
    },
    "151" : {
      "address" : "1287, Sector 1, Malviya Nagar",
      "imageRef" : "2021~October~2021-10-11~2~151",
      "isAnalysis" : "yes",
      "isClean" : true,
      "latLng" : "26.8514344,75.8247218",
      "locality" : " Malviya Nagar",
      "penalty" : "100",
      "time" : "13:22",
      "user" : "AfGurwTzesfcNInqIkyjFGXDoub2",
      "ward" : "127",
      "zone" : "Malviya Nagar"
    },
    "152" : {
      "address" : "E 51, Subash Nagar, Shastri Nagar",
      "imageRef" : "2021~October~2021-10-11~2~152",
      "isClean" : true,
      "latLng" : "26.938467,75.7961922",
      "locality" : " Shastri Nagar",
      "time" : "13:24",
      "user" : "5O4HmxdGWmcOa1J2WhJr16wb8uG3",
      "ward" : "Not Found",
      "zone" : "Not Found"
    },
    "153" : {
      "address" : "85-90/II, Model Town, Malviya Nagar",
      "imageRef" : "2021~October~2021-10-11~2~153",
      "isAnalysis" : "yes",
      "isClean" : true,
      "latLng" : "26.8488984,75.8261901",
      "locality" : " Malviya Nagar",
      "penalty" : "100",
      "time" : "13:28",
      "user" : "IfTaCIc9ildHleifFcUvTbvprz43",
      "ward" : "109",
      "zone" : "Jagatpura"
    },
    "154" : {
      "address" : "ce/30, Sector 8, double storey, Vidyadhar Nagar",
      "imageRef" : "2021~October~2021-10-11~2~154",
      "isAnalysis" : "yes",
      "isClean" : true,
      "latLng" : "26.9586924,75.7901433",
      "locality" : " Vidyadhar Nagar",
      "penalty" : "100",
      "time" : "13:29",
      "user" : "5O4HmxdGWmcOa1J2WhJr16wb8uG3",
      "ward" : "23",
      "zone" : "Vidhyadhar"
    },
    "155" : {
      "address" : "BLOCK-B3, RBI STAFF QUARTERS-1, Model Town, Malviya Nagar",
      "imageRef" : "2021~October~2021-10-11~2~155",
      "isAnalysis" : "yes",
      "isClean" : true,
      "latLng" : "26.8467529,75.8225536",
      "locality" : " Malviya Nagar",
      "penalty" : "100",
      "time" : "13:31",
      "user" : "IfTaCIc9ildHleifFcUvTbvprz43",
      "ward" : "109",
      "zone" : "Jagatpura"
    },
    "156" : {
      "address" : "6/74, Sector 2, Sector 6, Vidyadhar Nagar",
      "imageRef" : "2021~October~2021-10-11~2~156",
      "isAnalysis" : "yes",
      "isClean" : true,
      "latLng" : "26.9654533,75.7783909",
      "locality" : " Vidyadhar Nagar",
      "penalty" : "100",
      "time" : "13:33",
      "user" : "5O4HmxdGWmcOa1J2WhJr16wb8uG3",
      "ward" : "8",
      "zone" : "Murlipura"
    },
    "157" : {
      "address" : "2/457, Sector 3, Malviya Nagar",
      "imageRef" : "2021~October~2021-10-11~2~157",
      "isAnalysis" : "yes",
      "isClean" : true,
      "latLng" : "26.8479643,75.8177023",
      "locality" : " Malviya Nagar",
      "penalty" : "100",
      "time" : "13:41",
      "user" : "AfGurwTzesfcNInqIkyjFGXDoub2",
      "ward" : "127",
      "zone" : "Malviya Nagar"
    },
    "158" : {
      "address" : "27, Durga Vihar Colony, Sector 3, Malviya Nagar",
      "imageRef" : "2021~October~2021-10-11~2~158",
      "isAnalysis" : "yes",
      "isClean" : true,
      "latLng" : "26.8451958,75.8175898",
      "locality" : " Malviya Nagar",
      "penalty" : "100",
      "time" : "13:49",
      "user" : "AfGurwTzesfcNInqIkyjFGXDoub2",
      "ward" : "126",
      "zone" : "Malviya Nagar"
    },
    "159" : {
      "address" : "3/971, Sector 3, Malviya Nagar",
      "imageRef" : "2021~October~2021-10-11~2~159",
      "isAnalysis" : "yes",
      "isClean" : true,
      "latLng" : "26.8463196,75.8172042",
      "locality" : " Malviya Nagar",
      "penalty" : "100",
      "time" : "13:53",
      "user" : "AfGurwTzesfcNInqIkyjFGXDoub2",
      "ward" : "126",
      "zone" : "Malviya Nagar"
    },
    "160" : {
      "address" : "3/586, Sector 3, Malviya Nagar",
      "imageRef" : "2021~October~2021-10-11~2~160",
      "isAnalysis" : "yes",
      "isClean" : true,
      "latLng" : "26.847724,75.8150529",
      "locality" : " Malviya Nagar",
      "penalty" : "100",
      "time" : "13:58",
      "user" : "AfGurwTzesfcNInqIkyjFGXDoub2",
      "ward" : "127",
      "zone" : "Malviya Nagar"
    },
    "161" : {
      "address" : "N.K PUBLIC SCHOOL, SANGANER, Asind Nagar, Sanganer",
      "imageRef" : "2021~October~2021-10-11~2~161",
      "isAnalysis" : "yes",
      "isClean" : true,
      "latLng" : "26.8218479,75.7845845",
      "locality" : " Sanganer",
      "penalty" : "100",
      "time" : "14:01",
      "user" : "EY0cg0gEW0WKz60icDpLpkaWSij2",
      "ward" : "90",
      "zone" : "Sanganer"
    },
    "162" : {
      "address" : "Unnamed Road, Kundan Nagar",
      "imageRef" : "2021~October~2021-10-11~2~162",
      "isAnalysis" : "yes",
      "isClean" : true,
      "latLng" : "26.8211932,75.786617",
      "locality" : " Kundan Nagar",
      "penalty" : "100",
      "time" : "14:03",
      "user" : "EY0cg0gEW0WKz60icDpLpkaWSij2",
      "ward" : "90",
      "zone" : "Sanganer"
    },
    "163" : {
      "address" : "2, Gem Vihar Colony, Khadi Gramodyog Rd, Asind Nagar, Sanganer",
      "imageRef" : "2021~October~2021-10-11~2~163",
      "isAnalysis" : "yes",
      "isClean" : true,
      "latLng" : "26.820717,75.7860203",
      "locality" : " Sanganer",
      "penalty" : "100",
      "time" : "14:04",
      "user" : "EY0cg0gEW0WKz60icDpLpkaWSij2",
      "ward" : "90",
      "zone" : "Sanganer"
    },
    "164" : {
      "address" : "Khadi Gramodyog Road, Sanganer, Ganesh Colony, Kundan Nagar",
      "imageRef" : "2021~October~2021-10-11~2~164",
      "isAnalysis" : "yes",
      "isClean" : true,
      "latLng" : "26.8203447,75.7860933",
      "locality" : " Kundan Nagar",
      "penalty" : "100",
      "time" : "14:06",
      "user" : "EY0cg0gEW0WKz60icDpLpkaWSij2",
      "ward" : "90",
      "zone" : "Sanganer"
    },
    "165" : {
      "address" : "Shop No f-10,jai hanuman plaza, sanganer ,, Ganesh Colony, Kundan Nagar",
      "imageRef" : "2021~October~2021-10-11~2~165",
      "isAnalysis" : "yes",
      "isClean" : true,
      "latLng" : "26.8203943,75.785634",
      "locality" : " Kundan Nagar",
      "penalty" : "100",
      "time" : "14:07",
      "user" : "EY0cg0gEW0WKz60icDpLpkaWSij2",
      "ward" : "90",
      "zone" : "Sanganer"
    },
    "166" : {
      "address" : "Shop No f-10,jai hanuman plaza, sanganer ,, Ganesh Colony, Kundan Nagar",
      "imageRef" : "2021~October~2021-10-11~2~166",
      "isAnalysis" : "yes",
      "isClean" : true,
      "latLng" : "26.8204133,75.7857425",
      "locality" : " Kundan Nagar",
      "penalty" : "100",
      "time" : "14:08",
      "user" : "EY0cg0gEW0WKz60icDpLpkaWSij2",
      "ward" : "90",
      "zone" : "Sanganer"
    },
    "167" : {
      "address" : "2, Gem Vihar Colony, Khadi Gramodyog Rd, Asind Nagar, Sanganer",
      "imageRef" : "2021~October~2021-10-11~2~167",
      "isAnalysis" : "yes",
      "isClean" : true,
      "latLng" : "26.820717,75.7860203",
      "locality" : " Sanganer",
      "penalty" : "100",
      "time" : "14:08",
      "user" : "EY0cg0gEW0WKz60icDpLpkaWSij2",
      "ward" : "90",
      "zone" : "Sanganer"
    },
    "168" : {
      "address" : "Shop No f-10,jai hanuman plaza, sanganer ,, Ganesh Colony, Kundan Nagar",
      "imageRef" : "2021~October~2021-10-11~2~168",
      "isAnalysis" : "yes",
      "isClean" : true,
      "latLng" : "26.8203439,75.7855914",
      "locality" : " Kundan Nagar",
      "penalty" : "100",
      "time" : "14:09",
      "user" : "EY0cg0gEW0WKz60icDpLpkaWSij2",
      "ward" : "90",
      "zone" : "Sanganer"
    },
    "169" : {
      "address" : "123, Chitrakoot Marg, Vidyut Nagar, Vaishali Nagar",
      "imageRef" : "2021~October~2021-10-11~2~169",
      "isAnalysis" : "yes",
      "isClean" : true,
      "latLng" : "26.9039219,75.7390185",
      "locality" : " Vaishali Nagar",
      "penalty" : "100",
      "time" : "14:23",
      "user" : "Epe16JoN3gQIwetNFqyAdMFeANt2",
      "ward" : "57",
      "zone" : "Jhotwara"
    },
    "170" : {
      "address" : "54, Vardhman Nagar, A",
      "imageRef" : "2021~October~2021-10-11~2~170",
      "isAnalysis" : "yes",
      "isClean" : true,
      "latLng" : "26.8851926,75.733584",
      "locality" : " A",
      "penalty" : "100",
      "time" : "14:28",
      "user" : "LB5ZuA5FjaclXAeRLRT2dIRkowk2",
      "ward" : "63",
      "zone" : "Jhotwara"
    },
    "171" : {
      "address" : "424, New Sanganer Rd, Katewa Nagar, Gujar Ki Thadi, Nirman Nagar, Sodala",
      "imageRef" : "2021~October~2021-10-11~2~171",
      "isAnalysis" : "yes",
      "isClean" : true,
      "latLng" : "26.879547,75.7498183",
      "locality" : " Sodala",
      "penalty" : "100",
      "time" : "14:39",
      "user" : "LB5ZuA5FjaclXAeRLRT2dIRkowk2",
      "ward" : "Not Found",
      "zone" : "Not Found"
    },
    "172" : {
      "address" : "12/80, Shipra Path, Sector 12, Mansarovar Sector 1, Mansarovar",
      "imageRef" : "2021~October~2021-10-11~2~172",
      "isAnalysis" : "yes",
      "isClean" : true,
      "latLng" : "26.8769445,75.7585272",
      "locality" : " Mansarovar",
      "penalty" : "100",
      "time" : "15:01",
      "user" : "LB5ZuA5FjaclXAeRLRT2dIRkowk2",
      "ward" : "Not Found",
      "zone" : "Not Found"
    },
    "173" : {
      "address" : "14/63, 14/63, Shipra Path, Mansarovar Sector 1, Mansarovar",
      "imageRef" : "2021~October~2021-10-11~2~173",
      "isAnalysis" : "yes",
      "isClean" : true,
      "latLng" : "26.8736787,75.7596379",
      "locality" : " Mansarovar",
      "penalty" : "100",
      "time" : "15:03",
      "user" : "LB5ZuA5FjaclXAeRLRT2dIRkowk2",
      "ward" : "Not Found",
      "zone" : "Not Found"
    },
    "174" : {
      "address" : "507, Champa Nagar, Shanthi Nagar, Mansarovar",
      "imageRef" : "2021~October~2021-10-11~2~174",
      "isAnalysis" : "yes",
      "isClean" : true,
      "latLng" : "26.8711876,75.763263",
      "locality" : " Mansarovar",
      "penalty" : "100",
      "time" : "15:07",
      "user" : "LB5ZuA5FjaclXAeRLRT2dIRkowk2",
      "ward" : "Not Found",
      "zone" : "Not Found"
    },
    "175" : {
      "address" : "30, 80 Feet Rd, Shri Ganesh Colony, Chhayadip Nagar, Gopal Pura Mode",
      "imageRef" : "2021~October~2021-10-11~2~175",
      "isAnalysis" : "yes",
      "isClean" : true,
      "latLng" : "26.8819756,75.7752927",
      "locality" : " Gopal Pura Mode",
      "penalty" : "100",
      "time" : "15:07",
      "user" : "p6UqhYzk4lPUzUYBG3KL2xYLXXz1",
      "ward" : "78",
      "zone" : "Mansarovar"
    },
    "176" : {
      "address" : "6/74, Sector 2, Sector 6, Vidyadhar Nagar",
      "imageRef" : "2021~October~2021-10-11~2~176",
      "isAnalysis" : "yes",
      "isClean" : true,
      "latLng" : "26.9654533,75.7783909",
      "locality" : " Vidyadhar Nagar",
      "penalty" : "100",
      "time" : "15:08",
      "user" : "5O4HmxdGWmcOa1J2WhJr16wb8uG3",
      "ward" : "8",
      "zone" : "Murlipura"
    },
    "177" : {
      "address" : "7, Shanti Nagar Rd, Shanthi Nagar, Mansarovar",
      "imageRef" : "2021~October~2021-10-11~2~177",
      "isAnalysis" : "yes",
      "isClean" : true,
      "latLng" : "26.8712967,75.7632801",
      "locality" : " Mansarovar",
      "penalty" : "100",
      "time" : "15:08",
      "user" : "LB5ZuA5FjaclXAeRLRT2dIRkowk2",
      "ward" : "Not Found",
      "zone" : "Not Found"
    },
    "178" : {
      "address" : "3/13, Surya Dev Marg, Sector 3, Malviya Nagar",
      "imageRef" : "2021~October~2021-10-11~2~178",
      "isClean" : true,
      "latLng" : "26.8455696,75.8191783",
      "locality" : " Malviya Nagar",
      "time" : "15:09",
      "user" : "AfGurwTzesfcNInqIkyjFGXDoub2",
      "ward" : "127",
      "zone" : "Malviya Nagar"
    },
    "179" : {
      "address" : "63A, 80 Feet Rd, Shri Ganesh Colony, Chhayadip Nagar, Gopal Pura Mode",
      "imageRef" : "2021~October~2021-10-11~2~179",
      "isClean" : true,
      "latLng" : "26.8822336,75.7771299",
      "locality" : " Gopal Pura Mode",
      "time" : "15:10",
      "user" : "p6UqhYzk4lPUzUYBG3KL2xYLXXz1",
      "ward" : "140",
      "zone" : "Malviya Nagar"
    },
    "180" : {
      "address" : "6-218, Sector 2, Sector 6, Vidyadhar Nagar",
      "imageRef" : "2021~October~2021-10-11~2~180",
      "isAnalysis" : "yes",
      "isClean" : true,
      "latLng" : "26.9685165,75.7787354",
      "locality" : " Vidyadhar Nagar",
      "penalty" : "100",
      "time" : "15:10",
      "user" : "5O4HmxdGWmcOa1J2WhJr16wb8uG3",
      "ward" : "8",
      "zone" : "Murlipura"
    },
    "181" : {
      "address" : "63A, 80 Feet Rd, Shri Ganesh Colony, Chhayadip Nagar, Gopal Pura Mode",
      "imageRef" : "2021~October~2021-10-11~2~181",
      "isAnalysis" : "yes",
      "isClean" : true,
      "latLng" : "26.8822336,75.7771299",
      "locality" : " Gopal Pura Mode",
      "penalty" : "100",
      "time" : "15:11",
      "user" : "p6UqhYzk4lPUzUYBG3KL2xYLXXz1",
      "ward" : "140",
      "zone" : "Malviya Nagar"
    },
    "182" : {
      "address" : "C-200, 60 Feet Road, Roopnagar, Gopal Pura Mode",
      "imageRef" : "2021~October~2021-10-11~2~182",
      "isAnalysis" : "yes",
      "isClean" : true,
      "latLng" : "26.8812708,75.7773469",
      "locality" : " Gopal Pura Mode",
      "penalty" : "100",
      "time" : "15:12",
      "user" : "p6UqhYzk4lPUzUYBG3KL2xYLXXz1",
      "ward" : "78",
      "zone" : "Mansarovar"
    },
    "183" : {
      "address" : "Bhagvati Prasad Park, 6/422, Sector 2, Sector 6, Vidyadhar Nagar",
      "imageRef" : "2021~October~2021-10-11~2~183",
      "isClean" : true,
      "latLng" : "26.9668429,75.7802686",
      "locality" : " Vidyadhar Nagar",
      "time" : "15:12",
      "user" : "5O4HmxdGWmcOa1J2WhJr16wb8uG3",
      "ward" : "8",
      "zone" : "Murlipura"
    },
    "184" : {
      "address" : "230, 60 Feet Road, Shri Ganesh Colony, Chhayadip Nagar, Gopal Pura Mode",
      "imageRef" : "2021~October~2021-10-11~2~184",
      "isAnalysis" : "yes",
      "isClean" : true,
      "latLng" : "26.8811002,75.7772346",
      "locality" : " Gopal Pura Mode",
      "penalty" : "100",
      "time" : "15:13",
      "user" : "p6UqhYzk4lPUzUYBG3KL2xYLXXz1",
      "ward" : "78",
      "zone" : "Mansarovar"
    },
    "185" : {
      "address" : "1, Sector-9, Vishwakarma Industrial Area, Vidyadhar Nagar",
      "imageRef" : "2021~October~2021-10-11~2~185",
      "isAnalysis" : "yes",
      "isClean" : true,
      "latLng" : "26.9702186,75.7822833",
      "locality" : " Vidyadhar Nagar",
      "penalty" : "100",
      "time" : "15:14",
      "user" : "5O4HmxdGWmcOa1J2WhJr16wb8uG3",
      "ward" : "8",
      "zone" : "Murlipura"
    },
    "186" : {
      "address" : "Saini Complex, RJ SH 12, Boharon Ka Mohalla, Dada Gurudev Nagar, Sanganer",
      "imageRef" : "2021~October~2021-10-11~2~186",
      "isAnalysis" : "yes",
      "isClean" : true,
      "latLng" : "26.8185226,75.7887467",
      "locality" : " Sanganer",
      "penalty" : "100",
      "time" : "15:14",
      "user" : "EY0cg0gEW0WKz60icDpLpkaWSij2",
      "ward" : "90",
      "zone" : "Sanganer"
    },
    "187" : {
      "address" : "9, Sanga Setu Bridge, Sanganer",
      "imageRef" : "2021~October~2021-10-11~2~187",
      "isAnalysis" : "yes",
      "isClean" : true,
      "latLng" : "26.8185949,75.7906891",
      "locality" : " Sanganer",
      "penalty" : "100",
      "time" : "15:19",
      "user" : "EY0cg0gEW0WKz60icDpLpkaWSij2",
      "ward" : "Not Found",
      "zone" : "Not Found"
    },
    "188" : {
      "address" : "Cluster_vidhyadhar Nagar 4 Block-17, SHRI LAXMI NARAYAN NEELKANTH MAHADEV MANDIR, Sector-9, Vishwakarma Industrial Area",
      "imageRef" : "2021~October~2021-10-11~2~188",
      "isAnalysis" : "yes",
      "isClean" : true,
      "latLng" : "26.9714004,75.7802075",
      "locality" : " Vishwakarma Industrial Area",
      "penalty" : "100",
      "time" : "15:19",
      "user" : "5O4HmxdGWmcOa1J2WhJr16wb8uG3",
      "ward" : "8",
      "zone" : "Murlipura"
    },
    "189" : {
      "address" : "33 To 40, Sector 2, Sector 6, Vidyadhar Nagar",
      "imageRef" : "2021~October~2021-10-11~2~189",
      "isAnalysis" : "yes",
      "isClean" : true,
      "latLng" : "26.9704522,75.7793761",
      "locality" : " Vidyadhar Nagar",
      "penalty" : "100",
      "time" : "15:22",
      "user" : "5O4HmxdGWmcOa1J2WhJr16wb8uG3",
      "ward" : "8",
      "zone" : "Murlipura"
    },
    "190" : {
      "address" : "5/93, Sector 2, Sector 6, Vidyadhar Nagar",
      "imageRef" : "2021~October~2021-10-11~2~190",
      "isAnalysis" : "yes",
      "isClean" : true,
      "latLng" : "26.9710772,75.7753406",
      "locality" : " Vidyadhar Nagar",
      "penalty" : "100",
      "time" : "15:24",
      "user" : "5O4HmxdGWmcOa1J2WhJr16wb8uG3",
      "ward" : "8",
      "zone" : "Murlipura"
    },
    "191" : {
      "address" : "E-5 Riico, near Tata Roshan Moters, Malviya Nagar Industrial Area, Malviya Nagar",
      "imageRef" : "2021~October~2021-10-11~2~191",
      "isAnalysis" : "yes",
      "isClean" : true,
      "latLng" : "26.8578911,75.827499",
      "locality" : " Malviya Nagar",
      "penalty" : "100",
      "time" : "15:25",
      "user" : "AfGurwTzesfcNInqIkyjFGXDoub2",
      "ward" : "110",
      "zone" : "Jagatpura"
    },
    "192" : {
      "address" : "F-23/C, Someshwarpuri, Malviya Nagar",
      "imageRef" : "2021~October~2021-10-11~2~192",
      "isClean" : true,
      "latLng" : "26.8528318,75.8309347",
      "locality" : " Malviya Nagar",
      "time" : "15:29",
      "user" : "AfGurwTzesfcNInqIkyjFGXDoub2",
      "ward" : "113",
      "zone" : "Jagatpura"
    },
    "193" : {
      "address" : "28-A/B, Someshwarpuri, Malviya Nagar",
      "imageRef" : "2021~October~2021-10-11~2~193",
      "isAnalysis" : "yes",
      "isClean" : true,
      "latLng" : "26.8525784,75.8288936",
      "locality" : " Malviya Nagar",
      "penalty" : "100",
      "time" : "15:31",
      "user" : "AfGurwTzesfcNInqIkyjFGXDoub2",
      "ward" : "113",
      "zone" : "Jagatpura"
    },
    "194" : {
      "address" : "J D A Shopping Center, Bank Colony, Murlipura",
      "imageRef" : "2021~October~2021-10-11~2~194",
      "isAnalysis" : "yes",
      "isClean" : true,
      "latLng" : "26.9704075,75.7634943",
      "locality" : " Murlipura",
      "penalty" : "100",
      "time" : "15:31",
      "user" : "5O4HmxdGWmcOa1J2WhJr16wb8uG3",
      "ward" : "16",
      "zone" : "Murlipura"
    },
    "195" : {
      "address" : "6 (J) A, Malviya Nagar Industrial Area, Malviya Nagar",
      "imageRef" : "2021~October~2021-10-11~2~195",
      "isAnalysis" : "yes",
      "isClean" : true,
      "latLng" : "26.8550575,75.8275784",
      "locality" : " Malviya Nagar",
      "penalty" : "100",
      "time" : "15:34",
      "user" : "AfGurwTzesfcNInqIkyjFGXDoub2",
      "ward" : "113",
      "zone" : "Jagatpura"
    },
    "196" : {
      "address" : "Nangal road, nirmal vigar near purana bus stand, Nirmal Vihar, Jhotwara",
      "imageRef" : "2021~October~2021-10-11~2~196",
      "isAnalysis" : "yes",
      "isClean" : true,
      "latLng" : "26.9653321,75.7408813",
      "locality" : " Jhotwara",
      "penalty" : "100",
      "time" : "15:35",
      "user" : "ev0wnTlCHecAviBhj2QYe4lEAj13",
      "ward" : "13",
      "zone" : "Murlipura"
    },
    "197" : {
      "address" : "VR3G+94V, Jhalana Gram, Malviya Nagar",
      "imageRef" : "2021~October~2021-10-11~2~197",
      "isAnalysis" : "yes",
      "isClean" : true,
      "latLng" : "26.853473,75.8252409",
      "locality" : " Malviya Nagar",
      "penalty" : "100",
      "time" : "15:37",
      "user" : "AfGurwTzesfcNInqIkyjFGXDoub2",
      "ward" : "113",
      "zone" : "Jagatpura"
    },
    "198" : {
      "address" : "12 GaneshNagar 7B, Suraj Nagar, Nirmal Vihar, Jhotwara",
      "imageRef" : "2021~October~2021-10-11~2~198",
      "isAnalysis" : "yes",
      "isClean" : true,
      "latLng" : "26.9676408,75.7458093",
      "locality" : " Jhotwara",
      "penalty" : "100",
      "time" : "15:38",
      "user" : "ev0wnTlCHecAviBhj2QYe4lEAj13",
      "ward" : "13",
      "zone" : "Murlipura"
    },
    "199" : {
      "address" : "VR3G+82Q, Jhalana Gram, Malviya Nagar",
      "imageRef" : "2021~October~2021-10-11~2~199",
      "isAnalysis" : "yes",
      "isClean" : true,
      "latLng" : "26.8531527,75.8249406",
      "locality" : " Malviya Nagar",
      "penalty" : "100",
      "time" : "15:39",
      "user" : "AfGurwTzesfcNInqIkyjFGXDoub2",
      "ward" : "113",
      "zone" : "Jagatpura"
    },
    "200" : {
      "address" : "Sahakar Marg, Lalkothi",
      "imageRef" : "2021~October~2021-10-11~2~200",
      "isAnalysis" : "yes",
      "isClean" : true,
      "latLng" : "26.8840507,75.796423",
      "locality" : " Lalkothi",
      "penalty" : "100",
      "time" : "15:51",
      "user" : "p6UqhYzk4lPUzUYBG3KL2xYLXXz1",
      "ward" : "142",
      "zone" : "Malviya Nagar"
    },
    "201" : {
      "address" : "B-22 Rajdhani Krishi Upaj Mandi, 9 Number Sikar Rd, Murlipura",
      "imageRef" : "2021~October~2021-10-11~2~201",
      "isAnalysis" : "yes",
      "isClean" : true,
      "latLng" : "26.991426,75.7663989",
      "locality" : " Murlipura",
      "penalty" : "100",
      "time" : "15:53",
      "user" : "OeCnghJYjVcG0jAsX9gPY6vGDnl2",
      "ward" : "7",
      "zone" : "Murlipura"
    },
    "202" : {
      "address" : "B-22 Rajdhani Krishi Upaj Mandi, 9 Number Sikar Rd, Murlipura",
      "imageRef" : "2021~October~2021-10-11~2~202",
      "isAnalysis" : "yes",
      "isClean" : true,
      "latLng" : "26.991426,75.7663989",
      "locality" : " Murlipura",
      "penalty" : "100",
      "time" : "15:53",
      "user" : "OeCnghJYjVcG0jAsX9gPY6vGDnl2",
      "ward" : "7",
      "zone" : "Murlipura"
    },
    "203" : {
      "address" : "XQR8+4CH, Murlipura",
      "imageRef" : "2021~October~2021-10-11~2~203",
      "isAnalysis" : "yes",
      "isClean" : true,
      "latLng" : "26.9908299,75.7660377",
      "locality" : " Murlipura",
      "penalty" : "100",
      "time" : "15:53",
      "user" : "RxDvTuUUsCTs9GcCg5g0iG9fA3t2",
      "ward" : "7",
      "zone" : "Murlipura"
    },
    "204" : {
      "address" : "XQR8+4CH, Murlipura",
      "imageRef" : "2021~October~2021-10-11~2~204",
      "isClean" : true,
      "latLng" : "26.9908299,75.7660377",
      "locality" : " Murlipura",
      "time" : "15:53",
      "user" : "RxDvTuUUsCTs9GcCg5g0iG9fA3t2",
      "ward" : "7",
      "zone" : "Murlipura"
    },
    "205" : {
      "address" : "B-22 Rajdhani Krishi Upaj Mandi, 9 Number Sikar Rd, Murlipura",
      "imageRef" : "2021~October~2021-10-11~2~205",
      "isClean" : true,
      "latLng" : "26.991426,75.7663989",
      "locality" : " Murlipura",
      "time" : "15:53",
      "user" : "OeCnghJYjVcG0jAsX9gPY6vGDnl2",
      "ward" : "7",
      "zone" : "Murlipura"
    },
    "206" : {
      "address" : "XQR8+4CH, Murlipura",
      "imageRef" : "2021~October~2021-10-11~2~206",
      "isAnalysis" : "yes",
      "isClean" : true,
      "latLng" : "26.9908299,75.7660377",
      "locality" : " Murlipura",
      "penalty" : "100",
      "time" : "15:53",
      "user" : "RxDvTuUUsCTs9GcCg5g0iG9fA3t2",
      "ward" : "7",
      "zone" : "Murlipura"
    },
    "207" : {
      "address" : "B-22 Rajdhani Krishi Upaj Mandi, 9 Number Sikar Rd, Murlipura",
      "imageRef" : "2021~October~2021-10-11~2~207",
      "isClean" : true,
      "latLng" : "26.991445,75.7664083",
      "locality" : " Murlipura",
      "time" : "15:53",
      "user" : "OeCnghJYjVcG0jAsX9gPY6vGDnl2",
      "ward" : "7",
      "zone" : "Murlipura"
    },
    "208" : {
      "address" : "XQR8+4CH, Murlipura",
      "imageRef" : "2021~October~2021-10-11~2~208",
      "isClean" : true,
      "latLng" : "26.9908299,75.7660377",
      "locality" : " Murlipura",
      "time" : "15:54",
      "user" : "RxDvTuUUsCTs9GcCg5g0iG9fA3t2",
      "ward" : "7",
      "zone" : "Murlipura"
    },
    "209" : {
      "address" : "B-22 Rajdhani Krishi Upaj Mandi, 9 Number Sikar Rd, Murlipura",
      "imageRef" : "2021~October~2021-10-11~2~209",
      "isClean" : true,
      "latLng" : "26.9914737,75.7664781",
      "locality" : " Murlipura",
      "time" : "15:54",
      "user" : "OeCnghJYjVcG0jAsX9gPY6vGDnl2",
      "ward" : "7",
      "zone" : "Murlipura"
    },
    "210" : {
      "address" : "B-22 Rajdhani Krishi Upaj Mandi, 9 Number Sikar Rd, Murlipura",
      "imageRef" : "2021~October~2021-10-11~2~210",
      "isAnalysis" : "yes",
      "isClean" : true,
      "latLng" : "26.9914737,75.7664781",
      "locality" : " Murlipura",
      "penalty" : "100",
      "time" : "15:56",
      "user" : "OeCnghJYjVcG0jAsX9gPY6vGDnl2",
      "ward" : "7",
      "zone" : "Murlipura"
    },
    "211" : {
      "address" : "11/1594, Ashok Vihar, Sector 11, Malviya Nagar",
      "imageRef" : "2021~October~2021-10-11~2~211",
      "isAnalysis" : "yes",
      "isClean" : true,
      "latLng" : "26.8440872,75.8168954",
      "locality" : " Malviya Nagar",
      "penalty" : "100",
      "time" : "15:58",
      "user" : "AfGurwTzesfcNInqIkyjFGXDoub2",
      "ward" : "126",
      "zone" : "Malviya Nagar"
    },
    "212" : {
      "address" : "A -7, Anaj Mandi, 9 Number Sikar Rd, Anaj Mandi, Murlipura",
      "imageRef" : "2021~October~2021-10-11~2~212",
      "isClean" : true,
      "latLng" : "26.9928733,75.7675419",
      "locality" : " Murlipura",
      "time" : "15:58",
      "user" : "OeCnghJYjVcG0jAsX9gPY6vGDnl2",
      "ward" : "7",
      "zone" : "Murlipura"
    },
    "213" : {
      "address" : "A -7, Anaj Mandi, 9 Number Sikar Rd, Anaj Mandi, Murlipura",
      "imageRef" : "2021~October~2021-10-11~2~213",
      "isAnalysis" : "yes",
      "isClean" : true,
      "latLng" : "26.9928733,75.7675419",
      "locality" : " Murlipura",
      "penalty" : "100",
      "time" : "15:59",
      "user" : "OeCnghJYjVcG0jAsX9gPY6vGDnl2",
      "ward" : "7",
      "zone" : "Murlipura"
    },
    "214" : {
      "address" : "B-22 Rajdhani Krishi Upaj Mandi, 9 Number Sikar Rd, Murlipura",
      "imageRef" : "2021~October~2021-10-11~2~214",
      "isClean" : true,
      "latLng" : "26.9915176,75.7665202",
      "locality" : " Murlipura",
      "time" : "15:59",
      "user" : "RxDvTuUUsCTs9GcCg5g0iG9fA3t2",
      "ward" : "7",
      "zone" : "Murlipura"
    },
    "215" : {
      "address" : "A -7, Anaj Mandi, 9 Number Sikar Rd, Anaj Mandi, Murlipura",
      "imageRef" : "2021~October~2021-10-11~2~215",
      "isClean" : true,
      "latLng" : "26.9928733,75.7675419",
      "locality" : " Murlipura",
      "time" : "15:59",
      "user" : "OeCnghJYjVcG0jAsX9gPY6vGDnl2",
      "ward" : "7",
      "zone" : "Murlipura"
    },
    "216" : {
      "address" : "B-22 Rajdhani Krishi Upaj Mandi, 9 Number Sikar Rd, Murlipura",
      "imageRef" : "2021~October~2021-10-11~2~216",
      "isClean" : true,
      "latLng" : "26.9915176,75.7665202",
      "locality" : " Murlipura",
      "time" : "15:59",
      "user" : "RxDvTuUUsCTs9GcCg5g0iG9fA3t2",
      "ward" : "7",
      "zone" : "Murlipura"
    },
    "217" : {
      "address" : "C-29, 9 Number, Sikar Rd, Anaj Mandi, Murlipura",
      "imageRef" : "2021~October~2021-10-11~2~217",
      "isClean" : true,
      "latLng" : "26.9914196,75.7692249",
      "locality" : " Murlipura",
      "time" : "15:59",
      "user" : "RxDvTuUUsCTs9GcCg5g0iG9fA3t2",
      "ward" : "7",
      "zone" : "Murlipura"
    },
    "218" : {
      "address" : "B-92,RAJDHANI, Sikar Rd, Anaj Mandi, Murlipura",
      "imageRef" : "2021~October~2021-10-11~2~218",
      "isAnalysis" : "yes",
      "isClean" : true,
      "latLng" : "26.9922913,75.7676307",
      "locality" : " Murlipura",
      "penalty" : "100",
      "time" : "16:00",
      "user" : "OeCnghJYjVcG0jAsX9gPY6vGDnl2",
      "ward" : "7",
      "zone" : "Murlipura"
    },
    "219" : {
      "address" : "B-92,RAJDHANI, Sikar Rd, Anaj Mandi, Murlipura",
      "imageRef" : "2021~October~2021-10-11~2~219",
      "isAnalysis" : "yes",
      "isClean" : true,
      "latLng" : "26.9922913,75.7676307",
      "locality" : " Murlipura",
      "penalty" : "100",
      "time" : "16:00",
      "user" : "OeCnghJYjVcG0jAsX9gPY6vGDnl2",
      "ward" : "7",
      "zone" : "Murlipura"
    },
    "220" : {
      "address" : "A - 25, 9 Number, Sikar Rd, Anaj Mandi, Murlipura",
      "imageRef" : "2021~October~2021-10-11~2~220",
      "isClean" : true,
      "latLng" : "26.9918657,75.7690609",
      "locality" : " Murlipura",
      "time" : "16:00",
      "user" : "RxDvTuUUsCTs9GcCg5g0iG9fA3t2",
      "ward" : "7",
      "zone" : "Murlipura"
    },
    "221" : {
      "address" : "B-92,RAJDHANI, Sikar Rd, Anaj Mandi, Murlipura",
      "imageRef" : "2021~October~2021-10-11~2~221",
      "isAnalysis" : "yes",
      "isClean" : true,
      "latLng" : "26.9922913,75.7676307",
      "locality" : " Murlipura",
      "penalty" : "100",
      "time" : "16:00",
      "user" : "OeCnghJYjVcG0jAsX9gPY6vGDnl2",
      "ward" : "7",
      "zone" : "Murlipura"
    },
    "222" : {
      "address" : "36, Ashok Vihar, Sector 11, Malviya Nagar",
      "imageRef" : "2021~October~2021-10-11~2~222",
      "isAnalysis" : "yes",
      "isClean" : true,
      "latLng" : "26.8437464,75.8163561",
      "locality" : " Malviya Nagar",
      "penalty" : "100",
      "time" : "16:00",
      "user" : "AfGurwTzesfcNInqIkyjFGXDoub2",
      "ward" : "126",
      "zone" : "Malviya Nagar"
    },
    "223" : {
      "address" : "95, Kundan Nagar",
      "imageRef" : "2021~October~2021-10-11~2~223",
      "isClean" : true,
      "latLng" : "26.818862,75.7926241",
      "locality" : " Kundan Nagar",
      "time" : "16:00",
      "user" : "EY0cg0gEW0WKz60icDpLpkaWSij2",
      "ward" : "104",
      "zone" : "Jagatpura"
    },
    "224" : {
      "address" : "A - 25, 9 Number, Sikar Rd, Anaj Mandi, Murlipura",
      "imageRef" : "2021~October~2021-10-11~2~224",
      "isClean" : true,
      "latLng" : "26.9918657,75.7690609",
      "locality" : " Murlipura",
      "time" : "16:00",
      "user" : "RxDvTuUUsCTs9GcCg5g0iG9fA3t2",
      "ward" : "7",
      "zone" : "Murlipura"
    },
    "225" : {
      "address" : "C-26, 9 Number, Sikar Rd, Anaj Mandi, Murlipura",
      "imageRef" : "2021~October~2021-10-11~2~225",
      "isAnalysis" : "yes",
      "isClean" : true,
      "latLng" : "26.9915821,75.7690575",
      "locality" : " Murlipura",
      "penalty" : "100",
      "time" : "16:00",
      "user" : "RxDvTuUUsCTs9GcCg5g0iG9fA3t2",
      "ward" : "7",
      "zone" : "Murlipura"
    },
    "226" : {
      "address" : "Main Bazar, Main Bazar, Kasida Gali, Sanganer, Kundan Nagar",
      "imageRef" : "2021~October~2021-10-11~2~226",
      "isClean" : true,
      "latLng" : "26.8187549,75.7926813",
      "locality" : " Kundan Nagar",
      "time" : "16:00",
      "user" : "EY0cg0gEW0WKz60icDpLpkaWSij2",
      "ward" : "Not Found",
      "zone" : "Not Found"
    },
    "227" : {
      "address" : "B-92,RAJDHANI, Sikar Rd, Anaj Mandi, Murlipura",
      "imageRef" : "2021~October~2021-10-11~2~227",
      "isClean" : true,
      "latLng" : "26.9922913,75.7676307",
      "locality" : " Murlipura",
      "time" : "16:01",
      "user" : "OeCnghJYjVcG0jAsX9gPY6vGDnl2",
      "ward" : "7",
      "zone" : "Murlipura"
    },
    "228" : {
      "address" : "C-26, 9 Number, Sikar Rd, Anaj Mandi, Murlipura",
      "imageRef" : "2021~October~2021-10-11~2~228",
      "isClean" : true,
      "latLng" : "26.9915821,75.7690575",
      "locality" : " Murlipura",
      "time" : "16:01",
      "user" : "RxDvTuUUsCTs9GcCg5g0iG9fA3t2",
      "ward" : "7",
      "zone" : "Murlipura"
    },
    "229" : {
      "address" : "C-26, 9 Number, Sikar Rd, Anaj Mandi, Murlipura",
      "imageRef" : "2021~October~2021-10-11~2~229",
      "isAnalysis" : "yes",
      "isClean" : true,
      "latLng" : "26.9915821,75.7690575",
      "locality" : " Murlipura",
      "penalty" : "100",
      "time" : "16:01",
      "user" : "RxDvTuUUsCTs9GcCg5g0iG9fA3t2",
      "ward" : "7",
      "zone" : "Murlipura"
    },
    "230" : {
      "address" : "Main Bazar, Main Bazar, Kasida Gali, Sanganer, Kundan Nagar",
      "imageRef" : "2021~October~2021-10-11~2~230",
      "isClean" : true,
      "latLng" : "26.8186758,75.7921993",
      "locality" : " Kundan Nagar",
      "time" : "16:01",
      "user" : "EY0cg0gEW0WKz60icDpLpkaWSij2",
      "ward" : "Not Found",
      "zone" : "Not Found"
    },
    "231" : {
      "address" : "C-26, 9 Number, Sikar Rd, Anaj Mandi, Murlipura",
      "imageRef" : "2021~October~2021-10-11~2~231",
      "isClean" : true,
      "latLng" : "26.991824,75.7689857",
      "locality" : " Murlipura",
      "time" : "16:01",
      "user" : "OeCnghJYjVcG0jAsX9gPY6vGDnl2",
      "ward" : "7",
      "zone" : "Murlipura"
    },
    "232" : {
      "address" : "A - 25, 9 Number, Sikar Rd, Anaj Mandi, Murlipura",
      "imageRef" : "2021~October~2021-10-11~2~232",
      "isClean" : true,
      "latLng" : "26.991939,75.7691236",
      "locality" : " Murlipura",
      "time" : "16:02",
      "user" : "RxDvTuUUsCTs9GcCg5g0iG9fA3t2",
      "ward" : "7",
      "zone" : "Murlipura"
    },
    "233" : {
      "address" : "A - 25, 9 Number, Sikar Rd, Anaj Mandi, Murlipura",
      "imageRef" : "2021~October~2021-10-11~2~233",
      "isClean" : true,
      "latLng" : "26.991939,75.7691236",
      "locality" : " Murlipura",
      "time" : "16:02",
      "user" : "RxDvTuUUsCTs9GcCg5g0iG9fA3t2",
      "ward" : "7",
      "zone" : "Murlipura"
    },
    "234" : {
      "address" : "A - 25, 9 Number, Sikar Rd, Anaj Mandi, Murlipura",
      "imageRef" : "2021~October~2021-10-11~2~234",
      "isAnalysis" : "yes",
      "isClean" : true,
      "latLng" : "26.991939,75.7691236",
      "locality" : " Murlipura",
      "penalty" : "100",
      "time" : "16:02",
      "user" : "RxDvTuUUsCTs9GcCg5g0iG9fA3t2",
      "ward" : "7",
      "zone" : "Murlipura"
    },
    "235" : {
      "address" : "C-26, 9 Number, Sikar Rd, Anaj Mandi, Murlipura",
      "imageRef" : "2021~October~2021-10-11~2~235",
      "isAnalysis" : "yes",
      "isClean" : true,
      "latLng" : "26.991824,75.7689857",
      "locality" : " Murlipura",
      "penalty" : "100",
      "time" : "16:03",
      "user" : "OeCnghJYjVcG0jAsX9gPY6vGDnl2",
      "ward" : "7",
      "zone" : "Murlipura"
    },
    "236" : {
      "address" : "A - 25, 9 Number, Sikar Rd, Anaj Mandi, Murlipura",
      "imageRef" : "2021~October~2021-10-11~2~236",
      "isAnalysis" : "yes",
      "isClean" : true,
      "latLng" : "26.991939,75.7691236",
      "locality" : " Murlipura",
      "penalty" : "100",
      "time" : "16:03",
      "user" : "RxDvTuUUsCTs9GcCg5g0iG9fA3t2",
      "ward" : "7",
      "zone" : "Murlipura"
    },
    "237" : {
      "address" : "C-26, 9 Number, Sikar Rd, Anaj Mandi, Murlipura",
      "imageRef" : "2021~October~2021-10-11~2~237",
      "isAnalysis" : "yes",
      "isClean" : true,
      "latLng" : "26.991824,75.7689857",
      "locality" : " Murlipura",
      "penalty" : "100",
      "time" : "16:03",
      "user" : "OeCnghJYjVcG0jAsX9gPY6vGDnl2",
      "ward" : "7",
      "zone" : "Murlipura"
    },
    "238" : {
      "address" : "I-16, Rajdhani, Sikar Rd, Anaj Mandi, Murlipura",
      "imageRef" : "2021~October~2021-10-11~2~238",
      "isClean" : true,
      "latLng" : "26.9909455,75.7700568",
      "locality" : " Murlipura",
      "time" : "16:04",
      "user" : "RxDvTuUUsCTs9GcCg5g0iG9fA3t2",
      "ward" : "7",
      "zone" : "Murlipura"
    },
    "239" : {
      "address" : "C-26, 9 Number, Sikar Rd, Anaj Mandi, Murlipura",
      "imageRef" : "2021~October~2021-10-11~2~239",
      "isClean" : true,
      "latLng" : "26.991824,75.7689857",
      "locality" : " Murlipura",
      "time" : "16:04",
      "user" : "OeCnghJYjVcG0jAsX9gPY6vGDnl2",
      "ward" : "7",
      "zone" : "Murlipura"
    },
    "240" : {
      "address" : "I-16, Rajdhani, Sikar Rd, Anaj Mandi, Murlipura",
      "imageRef" : "2021~October~2021-10-11~2~240",
      "isClean" : true,
      "latLng" : "26.9909455,75.7700568",
      "locality" : " Murlipura",
      "time" : "16:04",
      "user" : "RxDvTuUUsCTs9GcCg5g0iG9fA3t2",
      "ward" : "7",
      "zone" : "Murlipura"
    },
    "241" : {
      "address" : "I-16, Rajdhani, Sikar Rd, Anaj Mandi, Murlipura",
      "imageRef" : "2021~October~2021-10-11~2~241",
      "isClean" : true,
      "latLng" : "26.9909455,75.7700568",
      "locality" : " Murlipura",
      "time" : "16:04",
      "user" : "RxDvTuUUsCTs9GcCg5g0iG9fA3t2",
      "ward" : "7",
      "zone" : "Murlipura"
    },
    "242" : {
      "address" : "Shop No. G-02, Rajdhani, Sikar Rd, Anaj Mandi, Murlipura",
      "imageRef" : "2021~October~2021-10-11~2~242",
      "isClean" : true,
      "latLng" : "26.9906184,75.7707555",
      "locality" : " Murlipura",
      "time" : "16:05",
      "user" : "RxDvTuUUsCTs9GcCg5g0iG9fA3t2",
      "ward" : "7",
      "zone" : "Murlipura"
    },
    "243" : {
      "address" : "Shop No. G-02, Rajdhani, Sikar Rd, Anaj Mandi, Murlipura",
      "imageRef" : "2021~October~2021-10-11~2~243",
      "isAnalysis" : "yes",
      "isClean" : true,
      "latLng" : "26.9906184,75.7707555",
      "locality" : " Murlipura",
      "penalty" : "100",
      "time" : "16:05",
      "user" : "RxDvTuUUsCTs9GcCg5g0iG9fA3t2",
      "ward" : "7",
      "zone" : "Murlipura"
    },
    "244" : {
      "address" : "95, Kundan Nagar",
      "imageRef" : "2021~October~2021-10-11~2~244",
      "isClean" : true,
      "latLng" : "26.8187407,75.7921604",
      "locality" : " Kundan Nagar",
      "time" : "16:05",
      "user" : "EY0cg0gEW0WKz60icDpLpkaWSij2",
      "ward" : "Not Found",
      "zone" : "Not Found"
    },
    "245" : {
      "address" : "Plot No. 2 Behind, Muslim School, Moti Doongri Rd, Ram Niwas Garden, Kailash Puri, Adarsh Nagar",
      "imageRef" : "2021~October~2021-10-11~2~245",
      "isAnalysis" : "yes",
      "isClean" : true,
      "latLng" : "26.9119265,75.8219818",
      "locality" : " Adarsh Nagar",
      "penalty" : "100",
      "time" : "16:08",
      "user" : "p6UqhYzk4lPUzUYBG3KL2xYLXXz1",
      "ward" : "150",
      "zone" : "Malviya Nagar"
    },
    "246" : {
      "address" : "Higher Secondary School Rd, Sanganer",
      "imageRef" : "2021~October~2021-10-11~2~246",
      "isClean" : true,
      "latLng" : "26.8155767,75.7893688",
      "locality" : " Sanganer",
      "time" : "16:08",
      "user" : "EY0cg0gEW0WKz60icDpLpkaWSij2",
      "ward" : "94",
      "zone" : "Sanganer"
    },
    "247" : {
      "address" : "4, Bardia Colony Rd, Bardia Colony, Kailash Puri, Adarsh Nagar",
      "imageRef" : "2021~October~2021-10-11~2~247",
      "isAnalysis" : "yes",
      "isClean" : true,
      "latLng" : "26.9107078,75.822407",
      "locality" : " Adarsh Nagar",
      "penalty" : "100",
      "time" : "16:08",
      "user" : "p6UqhYzk4lPUzUYBG3KL2xYLXXz1",
      "ward" : "150",
      "zone" : "Malviya Nagar"
    },
    "248" : {
      "address" : "B-42, Anaj Mandi, 9 Number, Sikar Rd, Anaj Mandi, Murlipura",
      "imageRef" : "2021~October~2021-10-11~2~248",
      "isAnalysis" : "yes",
      "isClean" : true,
      "latLng" : "26.9906819,75.7703047",
      "locality" : " Murlipura",
      "penalty" : "100",
      "time" : "16:08",
      "user" : "OeCnghJYjVcG0jAsX9gPY6vGDnl2",
      "ward" : "7",
      "zone" : "Murlipura"
    },