{
  "1" : {
    "1" : {
      "address" : "G-7 Janakpuri, Dhawas Rd, Ward Number 18",
      "imageRef" : "2021~October~2021-10-25~1~1",
      "isClean" : true,
      "latLng" : "26.8901728,75.7111691",
      "locality" : " Ward Number 18",
      "time" : "11:44",
      "user" : "f63WCJ0Lynd58cD0s0IXlxY2ANp2",
      "ward" : "49",
      "zone" : "Jhotwara"
    },
    "2" : {
      "address" : "S-1, Holy Plaza, Heera Nagar-A, Near Karni Vihar Police Station, 302021, Chitrakoot",
      "imageRef" : "2021~October~2021-10-25~1~2",
      "isClean" : true,
      "latLng" : "26.895495,75.7342942",
      "locality" : " Chitrakoot",
      "time" : "13:33",
      "user" : "0b6XWvRirOVJkEFYilWAWDwrsNX2",
      "ward" : "57",
      "zone" : "Jhotwara"
    },
    "3" : {
      "address" : "10/973-974, Gaurav Tower Marg, Siddharth Nagar, Sector 10, Malviya Nagar",
      "imageRef" : "2021~October~2021-10-25~1~3",
      "isClean" : true,
      "latLng" : "26.8473395,75.8141571",
      "locality" : " Malviya Nagar",
      "time" : "13:44",
      "user" : "j7hB3Z4P3OdvSGPcavXtaHNuGBt2",
      "ward" : "130",
      "zone" : "Malviya Nagar"
    },
    "4" : {
      "address" : "WING-B, JAIPUR STOCK EXCHANGE, D-Block, Crystal Court, Malviya Nagar",
      "imageRef" : "2021~October~2021-10-25~1~4",
      "isClean" : false,
      "latLng" : "26.8569365,75.8067",
      "locality" : " Malviya Nagar",
      "time" : "15:22",
      "user" : "j7hB3Z4P3OdvSGPcavXtaHNuGBt2",
      "ward" : "130",
      "zone" : "Malviya Nagar"
    },
    "5" : {
      "address" : "VPWM+MHP, Chitrakoot",
      "imageRef" : "2021~October~2021-10-25~1~5",
      "isClean" : true,
      "latLng" : "26.896649,75.733944",
      "locality" : " Chitrakoot",
      "time" : "16:08",
      "user" : "0b6XWvRirOVJkEFYilWAWDwrsNX2",
      "ward" : "57",
      "zone" : "Jhotwara"
    },
    "6" : {
      "address" : "142, Sultan Nagar, Santi Nagar, Narendra Nagar",
      "imageRef" : "2021~October~2021-10-25~1~6",
      "isClean" : true,
      "latLng" : "26.8795232,75.7701409",
      "locality" : " Narendra Nagar",
      "time" : "16:56",
      "user" : "f63WCJ0Lynd58cD0s0IXlxY2ANp2",
      "ward" : "Not Found",
      "zone" : "Not Found"
    },
    "7" : {
      "address" : "VQHC+85, near gurjar ki thadi, Shri Gopal Nagar, Arjun Nagar",
      "imageRef" : "2021~October~2021-10-25~1~7",
      "isClean" : true,
      "latLng" : "26.8780398,75.7708357",
      "locality" : " Arjun Nagar",
      "time" : "16:59",
      "user" : "f63WCJ0Lynd58cD0s0IXlxY2ANp2",
      "ward" : "77",
      "zone" : "Mansarovar"
    },
    "8" : {
      "address" : "VQHC+85, near gurjar ki thadi, Shri Gopal Nagar, Arjun Nagar",
      "imageRef" : "2021~October~2021-10-25~1~8",
      "isClean" : true,
      "latLng" : "26.8780476,75.7707628",
      "locality" : " Arjun Nagar",
      "time" : "17:00",
      "user" : "f63WCJ0Lynd58cD0s0IXlxY2ANp2",
      "ward" : "77",
      "zone" : "Mansarovar"
    },
    "9" : {
      "address" : "118/181, Shipra Path, Mansarovar Sector 11, Jhalana Chhod, Mansarovar",
      "imageRef" : "2021~October~2021-10-25~1~9",
      "isClean" : true,
      "latLng" : "26.8408672,75.7770113",
      "locality" : " Mansarovar",
      "time" : "17:12",
      "user" : "LB5ZuA5FjaclXAeRLRT2dIRkowk2",
      "ward" : "84",
      "zone" : "Sanganer"
    },
    "10" : {
      "address" : "C323, C323, Shiv Path, Nirman Nagar, Brijlalpura",
      "imageRef" : "2021~October~2021-10-25~1~10",
      "isClean" : true,
      "latLng" : "26.8887878,75.7541809",
      "locality" : " Brijlalpura",
      "time" : "17:12",
      "user" : "f63WCJ0Lynd58cD0s0IXlxY2ANp2",
      "ward" : "Not Found",
      "zone" : "Not Found"
    },
    "11" : {
      "address" : "Gomed, Acharya Bhavan Rd, Jhalana Gram, Malviya Nagar",
      "imageRef" : "2021~October~2021-10-25~1~11",
      "isClean" : true,
      "latLng" : "26.8657703,75.8197936",
      "locality" : " Malviya Nagar",
      "time" : "17:14",
      "user" : "j7hB3Z4P3OdvSGPcavXtaHNuGBt2",
      "ward" : "Not Found",
      "zone" : "Not Found"
    },
    "12" : {
      "address" : "Daga Path, Hans Vihar, RIICO Industrial Area, Mansarovar",
      "imageRef" : "2021~October~2021-10-25~1~12",
      "isClean" : true,
      "latLng" : "26.8304878,75.7758477",
      "locality" : " Mansarovar",
      "time" : "17:20",
      "user" : "EY0cg0gEW0WKz60icDpLpkaWSij2",
      "ward" : "84",
      "zone" : "Sanganer"
    },
    "13" : {
      "address" : "17-18, INDUSTRIAL AREA, Jhotwara",
      "imageRef" : "2021~October~2021-10-25~1~13",
      "isClean" : true,
      "latLng" : "26.9526401,75.7603212",
      "locality" : " Jhotwara",
      "time" : "17:29",
      "user" : "ev0wnTlCHecAviBhj2QYe4lEAj13",
      "ward" : "19",
      "zone" : "Murlipura"
    },
    "14" : {
      "address" : "175, RJ SH 2C, Ashok Nagar, Jhotwara",
      "imageRef" : "2021~October~2021-10-25~1~14",
      "isClean" : true,
      "latLng" : "26.9453761,75.730891",
      "locality" : " Jhotwara",
      "time" : "17:41",
      "user" : "AfGurwTzesfcNInqIkyjFGXDoub2",
      "ward" : "47",
      "zone" : "Jhotwara"
    },
    "15" : {
      "address" : "113, Kalwar Rd, Ganesh Nagar Vistar, Ext, Govindpura, Jhotwara",
      "imageRef" : "2021~October~2021-10-25~1~15",
      "isClean" : true,
      "latLng" : "26.9458755,75.7302725",
      "locality" : " Jhotwara",
      "time" : "17:42",
      "user" : "AfGurwTzesfcNInqIkyjFGXDoub2",
      "ward" : "47",
      "zone" : "Jhotwara"
    },
    "16" : {
      "address" : "175, RJ SH 2C, Ashok Nagar, Jhotwara",
      "imageRef" : "2021~October~2021-10-25~1~16",
      "isClean" : true,
      "latLng" : "26.9453761,75.730891",
      "locality" : " Jhotwara",
      "time" : "17:42",
      "user" : "AfGurwTzesfcNInqIkyjFGXDoub2",
      "ward" : "47",
      "zone" : "Jhotwara"
    },
    "17" : {
      "address" : "113, Kalwar Rd, Ganesh Nagar Vistar, Ext, Govindpura, Jhotwara",
      "imageRef" : "2021~October~2021-10-25~1~17",
      "isClean" : true,
      "latLng" : "26.9458792,75.7302749",
      "locality" : " Jhotwara",
      "time" : "17:43",
      "user" : "AfGurwTzesfcNInqIkyjFGXDoub2",
      "ward" : "47",
      "zone" : "Jhotwara"
    },
    "18" : {
      "address" : "4/2 JDA Shopping Center, Chitrakoot",
      "imageRef" : "2021~October~2021-10-25~1~18",
      "isClean" : true,
      "latLng" : "26.8988212,75.7322714",
      "locality" : " Chitrakoot",
      "time" : "18:36",
      "user" : "f63WCJ0Lynd58cD0s0IXlxY2ANp2",
      "ward" : "57",
      "zone" : "Jhotwara"
    },
    "lastKey" : "18"
  },
  "2" : {
    "1" : {
      "address" : "30, Diggi Malpura Rd, Muhana",
      "imageRef" : "2021~October~2021-10-25~2~1",
      "isClean" : true,
      "latLng" : "26.7970696,75.7696711",
      "locality" : " Muhana",
      "time" : "08:22",
      "user" : "3rvFxdO6TvYhrDLWd0CRqid8PM33",
      "ward" : "96",
      "zone" : "Sanganer"
    },
    "2" : {
      "address" : "281, Ghat Ki Guni",
      "imageRef" : "2021~October~2021-10-25~2~2",
      "isClean" : true,
      "latLng" : "26.867579,75.8234764",
      "locality" : " Ghat Ki Guni",
      "time" : "09:47",
      "user" : "w0YCfewlsAZXqrlU2EdmhEZXWw22",
      "ward" : "110",
      "zone" : "Jagatpura"
    },
    "3" : {
      "address" : "150/2, Kishan Marg, Shivshakti Colony, Shiv Colony, Tonk Phatak",
      "imageRef" : "2021~October~2021-10-25~2~3",
      "isClean" : true,
      "latLng" : "26.8731384,75.7906604",
      "locality" : " Tonk Phatak",
      "time" : "09:58",
      "user" : "R2QUov9b5oMM9H74iLKfUFx1iNn2",
      "ward" : "135",
      "zone" : "Malviya Nagar"
    },
    "4" : {
      "address" : "150/2, Kishan Marg, Shivshakti Colony, Shiv Colony, Tonk Phatak",
      "imageRef" : "2021~October~2021-10-25~2~4",
      "isClean" : true,
      "latLng" : "26.8731434,75.7906569",
      "locality" : " Tonk Phatak",
      "time" : "10:13",
      "user" : "R2QUov9b5oMM9H74iLKfUFx1iNn2",
      "ward" : "135",
      "zone" : "Malviya Nagar"
    },
    "5" : {
      "address" : "KITCHEN AREA, S S PARADISE, Sumer Nagar, Sanganer",
      "imageRef" : "2021~October~2021-10-25~2~5",
      "isClean" : true,
      "latLng" : "26.8439161,75.764682",
      "locality" : " Sanganer",
      "time" : "10:24",
      "user" : "O4yqmOT1T8aQwXBYTqcdxr4X4bR2",
      "ward" : "83",
      "zone" : "Mansarovar"
    },
    "6" : {
      "address" : "Sector 7, Niti Nagar, Sector 5, Malviya Nagar",
      "imageRef" : "2021~October~2021-10-25~2~6",
      "isClean" : true,
      "latLng" : "26.8469585,75.8080099",
      "locality" : " Malviya Nagar",
      "time" : "10:40",
      "user" : "j7hB3Z4P3OdvSGPcavXtaHNuGBt2",
      "ward" : "125",
      "zone" : "Malviya Nagar"
    },
    "7" : {
      "address" : "RICCO Sanganer, Hans Vihar, RIICO Industrial Area, Mansarovar",
      "imageRef" : "2021~October~2021-10-25~2~7",
      "isClean" : true,
      "latLng" : "26.8292957,75.7747577",
      "locality" : " Mansarovar",
      "time" : "10:44",
      "user" : "EY0cg0gEW0WKz60icDpLpkaWSij2",
      "ward" : "84",
      "zone" : "Sanganer"
    },
    "8" : {
      "address" : "plot no 1, New Sanganer Rd, Kusal Nagar, Dada Gurudev Nagar, Sanganer",
      "imageRef" : "2021~October~2021-10-25~2~8",
      "isClean" : true,
      "latLng" : "26.8253431,75.7783909",
      "locality" : " Sanganer",
      "time" : "10:48",
      "user" : "EY0cg0gEW0WKz60icDpLpkaWSij2",
      "ward" : "89",
      "zone" : "Sanganer"
    },
    "9" : {
      "address" : "157, Parasram Nagar, Murlipura",
      "imageRef" : "2021~October~2021-10-25~2~9",
      "isClean" : true,
      "latLng" : "26.9505222,75.771592",
      "locality" : " Murlipura",
      "time" : "10:50",
      "user" : "AfGurwTzesfcNInqIkyjFGXDoub2",
      "ward" : "25",
      "zone" : "Vidhyadhar"
    },
    "10" : {
      "address" : "242, Pirupuram, Ambabari, AWHO Colony, Vidyadhar Nagar",
      "imageRef" : "2021~October~2021-10-25~2~10",
      "isClean" : true,
      "latLng" : "26.9501672,75.7738465",
      "locality" : " Vidyadhar Nagar",
      "time" : "10:51",
      "user" : "AfGurwTzesfcNInqIkyjFGXDoub2",
      "ward" : "27",
      "zone" : "Vidhyadhar"
    },
    "11" : {
      "address" : "plot no 1, New Sanganer Rd, Kusal Nagar, Dada Gurudev Nagar, Sanganer",
      "imageRef" : "2021~October~2021-10-25~2~11",
      "isClean" : true,
      "latLng" : "26.8253431,75.7783909",
      "locality" : " Sanganer",
      "time" : "10:51",
      "user" : "EY0cg0gEW0WKz60icDpLpkaWSij2",
      "ward" : "89",
      "zone" : "Sanganer"
    },
    "12" : {
      "address" : "plot no 1, New Sanganer Rd, Kusal Nagar, Dada Gurudev Nagar, Sanganer",
      "imageRef" : "2021~October~2021-10-25~2~12",
      "isClean" : true,
      "latLng" : "26.8253431,75.7783909",
      "locality" : " Sanganer",
      "time" : "10:53",
      "user" : "EY0cg0gEW0WKz60icDpLpkaWSij2",
      "ward" : "89",
      "zone" : "Sanganer"
    },
    "13" : {
      "address" : "33, Jhotwara Road, Heerapura, Heerawala",
      "imageRef" : "2021~October~2021-10-25~2~13",
      "isClean" : true,
      "latLng" : "26.890972,75.7349623",
      "locality" : " Heerawala",
      "time" : "10:55",
      "user" : "LB5ZuA5FjaclXAeRLRT2dIRkowk2",
      "ward" : "60",
      "zone" : "Jhotwara"
    },
    "15" : {
      "address" : "108, Lalarpura Rd, Lalarpura",
      "imageRef" : "2021~October~2021-10-25~2~15",
      "isClean" : true,
      "latLng" : "26.9013261,75.7087578",
      "locality" : " Lalarpura",
      "time" : "10:55",
      "user" : "5O4HmxdGWmcOa1J2WhJr16wb8uG3",
      "ward" : "53",
      "zone" : "Jhotwara"
    },
    "16" : {
      "address" : "24, Ganga Vihar Colony, Hanuman Nagar, Bambala",
      "imageRef" : "2021~October~2021-10-25~2~16",
      "isClean" : true,
      "latLng" : "26.8099983,75.7798442",
      "locality" : " Bambala",
      "time" : "10:57",
      "user" : "EY0cg0gEW0WKz60icDpLpkaWSij2",
      "ward" : "92",
      "zone" : "Sanganer"
    },
    "17" : {
      "address" : "24, Ganga Vihar Colony, Hanuman Nagar, Bambala",
      "imageRef" : "2021~October~2021-10-25~2~17",
      "isClean" : true,
      "latLng" : "26.8099983,75.7798442",
      "locality" : " Bambala",
      "time" : "10:58",
      "user" : "EY0cg0gEW0WKz60icDpLpkaWSij2",
      "ward" : "92",
      "zone" : "Sanganer"
    },
    "18" : {
      "address" : "190, Sector 1 Rd, Ambabari, AWHO Colony, Vidyadhar Nagar",
      "imageRef" : "2021~October~2021-10-25~2~18",
      "isClean" : true,
      "latLng" : "26.9502881,75.7758619",
      "locality" : " Vidyadhar Nagar",
      "time" : "10:59",
      "user" : "AfGurwTzesfcNInqIkyjFGXDoub2",
      "ward" : "27",
      "zone" : "Vidhyadhar"
    },
    "19" : {
      "address" : "33, Jhotwara Road, Heerapura, Heerawala",
      "imageRef" : "2021~October~2021-10-25~2~19",
      "isClean" : true,
      "latLng" : "26.890972,75.7349623",
      "locality" : " Heerawala",
      "time" : "10:59",
      "user" : "LB5ZuA5FjaclXAeRLRT2dIRkowk2",
      "ward" : "60",
      "zone" : "Jhotwara"
    },
    "20" : {
      "address" : "72B, Heerapura, Girdharipura",
      "imageRef" : "2021~October~2021-10-25~2~20",
      "isClean" : true,
      "latLng" : "26.8931403,75.7233885",
      "locality" : " Girdharipura",
      "time" : "10:59",
      "user" : "f63WCJ0Lynd58cD0s0IXlxY2ANp2",
      "ward" : "59",
      "zone" : "Jhotwara"
    },
    "21" : {
      "address" : "132, Sector 1 Rd, Sector 2, Sector-1, Vidyadhar Nagar",
      "imageRef" : "2021~October~2021-10-25~2~21",
      "isClean" : true,
      "latLng" : "26.950648,75.776",
      "locality" : " Vidyadhar Nagar",
      "time" : "11:01",
      "user" : "AfGurwTzesfcNInqIkyjFGXDoub2",
      "ward" : "26",
      "zone" : "Vidhyadhar"
    },
    "22" : {
      "address" : "Station Rd, Bharave Colony, Dada Gurudev Nagar, Sanganer",
      "imageRef" : "2021~October~2021-10-25~2~22",
      "isClean" : true,
      "latLng" : "26.812086,75.7791175",
      "locality" : " Sanganer",
      "time" : "11:01",
      "user" : "EY0cg0gEW0WKz60icDpLpkaWSij2",
      "ward" : "92",
      "zone" : "Sanganer"
    },
    "23" : {
      "address" : "71, Heerapura, Girdharipura",
      "imageRef" : "2021~October~2021-10-25~2~23",
      "isClean" : true,
      "latLng" : "26.8929574,75.7232421",
      "locality" : " Girdharipura",
      "time" : "11:02",
      "user" : "f63WCJ0Lynd58cD0s0IXlxY2ANp2",
      "ward" : "59",
      "zone" : "Jhotwara"
    },
    "24" : {
      "address" : "135, Sector 1 Rd, Ambabari, AWHO Colony, Vidyadhar Nagar",
      "imageRef" : "2021~October~2021-10-25~2~24",
      "isClean" : true,
      "latLng" : "26.9503019,75.7762872",
      "locality" : " Vidyadhar Nagar",
      "time" : "11:02",
      "user" : "AfGurwTzesfcNInqIkyjFGXDoub2",
      "ward" : "27",
      "zone" : "Vidhyadhar"
    },
    "25" : {
      "address" : "Jhotwara, 82,shiv Nagar, 21 south, Niwaru Road, Shanti Path, Jhotwara",
      "imageRef" : "2021~October~2021-10-25~2~25",
      "isClean" : true,
      "latLng" : "26.9577351,75.7344382",
      "locality" : " Jhotwara",
      "time" : "11:03",
      "user" : "ev0wnTlCHecAviBhj2QYe4lEAj13",
      "ward" : "Not Found",
      "zone" : "Not Found"
    },
    "26" : {
      "address" : "24, Maa Hingloj Nagar, Gulab Vihar B, Lalarpura",
      "imageRef" : "2021~October~2021-10-25~2~26",
      "isClean" : true,
      "latLng" : "26.9049809,75.7243488",
      "locality" : " Lalarpura",
      "time" : "11:03",
      "user" : "lesTp06fnmbFxUpdCWwLQu8Q5Uz1",
      "ward" : "56",
      "zone" : "Jhotwara"
    },
    "27" : {
      "address" : "G-23, Janki Vihar, Girdharipura",
      "imageRef" : "2021~October~2021-10-25~2~27",
      "isClean" : true,
      "latLng" : "26.8960656,75.7192906",
      "locality" : " Girdharipura",
      "time" : "11:04",
      "user" : "f63WCJ0Lynd58cD0s0IXlxY2ANp2",
      "ward" : "59",
      "zone" : "Jhotwara"
    },
    "28" : {
      "address" : "Dada Bari Rd, Bharave Colony, Dada Gurudev Nagar, Sanganer",
      "imageRef" : "2021~October~2021-10-25~2~28",
      "isClean" : true,
      "latLng" : "26.8125842,75.7769377",
      "locality" : " Sanganer",
      "time" : "11:04",
      "user" : "EY0cg0gEW0WKz60icDpLpkaWSij2",
      "ward" : "92",
      "zone" : "Sanganer"
    },
    "29" : {
      "address" : "Jhotwara, 82,shiv Nagar, 21 south, Niwaru Road, Shanti Path, Jhotwara",
      "imageRef" : "2021~October~2021-10-25~2~29",
      "isClean" : true,
      "latLng" : "26.9577351,75.7344382",
      "locality" : " Jhotwara",
      "time" : "11:05",
      "user" : "ev0wnTlCHecAviBhj2QYe4lEAj13",
      "ward" : "Not Found",
      "zone" : "Not Found"
    },
    "30" : {
      "address" : "24, Maa Hingloj Nagar, Gulab Vihar B, Lalarpura",
      "imageRef" : "2021~October~2021-10-25~2~30",
      "isClean" : true,
      "latLng" : "26.9049809,75.7243488",
      "locality" : " Lalarpura",
      "time" : "11:05",
      "user" : "lesTp06fnmbFxUpdCWwLQu8Q5Uz1",
      "ward" : "56",
      "zone" : "Jhotwara"
    },
    "31" : {
      "address" : "XQ3G+3C4, Sector 2, Sector-1, Vidyadhar Nagar",
      "imageRef" : "2021~October~2021-10-25~2~31",
      "isClean" : true,
      "latLng" : "26.9525873,75.7760237",
      "locality" : " Vidyadhar Nagar",
      "time" : "11:05",
      "user" : "AfGurwTzesfcNInqIkyjFGXDoub2",
      "ward" : "26",
      "zone" : "Vidhyadhar"
    },
    "32" : {
      "address" : "97, Sirsi Rd, Hanuman Nagar Extension, Rajendra Nagar, near",
      "imageRef" : "2021~October~2021-10-25~2~32",
      "isClean" : true,
      "latLng" : "26.9195753,75.7314964",
      "locality" : " near",
      "time" : "11:05",
      "user" : "5O4HmxdGWmcOa1J2WhJr16wb8uG3",
      "ward" : "Not Found",
      "zone" : "Not Found"
    },
    "33" : {
      "address" : "20, Girdharipura",
      "imageRef" : "2021~October~2021-10-25~2~33",
      "isClean" : true,
      "latLng" : "26.8978884,75.719827",
      "locality" : " Girdharipura",
      "time" : "11:05",
      "user" : "f63WCJ0Lynd58cD0s0IXlxY2ANp2",
      "ward" : "59",
      "zone" : "Jhotwara"
    },
    "34" : {
      "address" : "Mansarovar, Padmavti Colony, Nirman Nagar, Ranisati Nagar",
      "imageRef" : "2021~October~2021-10-25~2~34",
      "isClean" : true,
      "latLng" : "26.8798572,75.7507214",
      "locality" : " Ranisati Nagar",
      "time" : "11:06",
      "user" : "LB5ZuA5FjaclXAeRLRT2dIRkowk2",
      "ward" : "64",
      "zone" : "Jhotwara"
    },
    "35" : {
      "address" : "12, Khati Pura Ka Badh, Dada Gurudev Nagar, Jaranwala",
      "imageRef" : "2021~October~2021-10-25~2~35",
      "isClean" : true,
      "latLng" : "26.8036771,75.7743944",
      "locality" : " Jaranwala",
      "time" : "11:06",
      "user" : "HSwWpGvJO1P2lkqjZZRTT1Vt0LE3",
      "ward" : "92",
      "zone" : "Sanganer"
    },
    "36" : {
      "address" : "68, Vivekanand Marg, Laxmi Nagar, Ward Number 7, Jhotwara",
      "imageRef" : "2021~October~2021-10-25~2~36",
      "isClean" : true,
      "latLng" : "26.9599853,75.7373687",
      "locality" : " Jhotwara",
      "time" : "11:06",
      "user" : "ev0wnTlCHecAviBhj2QYe4lEAj13",
      "ward" : "19",
      "zone" : "Murlipura"
    },
    "37" : {
      "address" : "68, Vivekanand Marg, Laxmi Nagar, Ward Number 7, Jhotwara",
      "imageRef" : "2021~October~2021-10-25~2~37",
      "isClean" : true,
      "latLng" : "26.9599853,75.7373687",
      "locality" : " Jhotwara",
      "time" : "11:06",
      "user" : "ev0wnTlCHecAviBhj2QYe4lEAj13",
      "ward" : "19",
      "zone" : "Murlipura"
    },
    "38" : {
      "address" : "Diggi Malpura Rd, Dada Gurudev Nagar, Sanganer",
      "imageRef" : "2021~October~2021-10-25~2~38",
      "isClean" : false,
      "latLng" : "26.8035659,75.7733044",
      "locality" : " Sanganer",
      "time" : "11:06",
      "user" : "HSwWpGvJO1P2lkqjZZRTT1Vt0LE3",
      "ward" : "91",
      "zone" : "Sanganer"
    },
    "39" : {
      "address" : "91, Lalarpura Rd, Maa Hingloj Nagar, Gulab Vihar B, Lalarpura",
      "imageRef" : "2021~October~2021-10-25~2~39",
      "isClean" : true,
      "latLng" : "26.9048328,75.722499",
      "locality" : " Lalarpura",
      "time" : "11:06",
      "user" : "lesTp06fnmbFxUpdCWwLQu8Q5Uz1",
      "ward" : "56",
      "zone" : "Jhotwara"
    },
    "40" : {
      "address" : "Varun Path, Sukalpura, Swarn Path, Near Police Station, Mansarovar Sector 31, Swarna Path, Mansarovar Sector 4, Mansarovar",
      "imageRef" : "2021~October~2021-10-25~2~40",
      "isClean" : true,
      "latLng" : "26.8686729,75.7555196",
      "locality" : " Mansarovar",
      "time" : "11:06",
      "user" : "w80sT5TZWYRqMOrTC5neDPg7GRs2",
      "ward" : "69",
      "zone" : "Mansarovar"
    },
    "41" : {
      "address" : "Sanganer, Dada Gurudev Nagar, Sanganer",
      "imageRef" : "2021~October~2021-10-25~2~41",
      "isClean" : true,
      "latLng" : "26.8172206,75.7729411",
      "locality" : " Sanganer",
      "time" : "11:07",
      "user" : "EY0cg0gEW0WKz60icDpLpkaWSij2",
      "ward" : "89",
      "zone" : "Sanganer"
    },
    "42" : {
      "address" : "97, Sirsi Rd, Hanuman Nagar Extension, Rajendra Nagar, near",
      "imageRef" : "2021~October~2021-10-25~2~42",
      "isClean" : true,
      "latLng" : "26.9195753,75.7314964",
      "locality" : " near",
      "time" : "11:07",
      "user" : "5O4HmxdGWmcOa1J2WhJr16wb8uG3",
      "ward" : "Not Found",
      "zone" : "Not Found"
    },
    "43" : {
      "address" : "20, Girdharipura",
      "imageRef" : "2021~October~2021-10-25~2~43",
      "isClean" : true,
      "latLng" : "26.8978884,75.719827",
      "locality" : " Girdharipura",
      "time" : "11:08",
      "user" : "f63WCJ0Lynd58cD0s0IXlxY2ANp2",
      "ward" : "59",
      "zone" : "Jhotwara"
    },
    "44" : {
      "address" : "5, Sanganer, Pratap Nagar",
      "imageRef" : "2021~October~2021-10-25~2~44",
      "isClean" : true,
      "latLng" : "26.804671,75.7743921",
      "locality" : " Pratap Nagar",
      "time" : "11:08",
      "user" : "HSwWpGvJO1P2lkqjZZRTT1Vt0LE3",
      "ward" : "91",
      "zone" : "Sanganer"
    },
    "45" : {
      "address" : "63-A, Niwaru Road Laxmi Nagar II, near Jeen Mata Temple, Laxmi Nagar III, Ward Number 7, Jhotwara",
      "imageRef" : "2021~October~2021-10-25~2~45",
      "isClean" : true,
      "latLng" : "26.9624413,75.7407162",
      "locality" : " Jhotwara",
      "time" : "11:08",
      "user" : "ev0wnTlCHecAviBhj2QYe4lEAj13",
      "ward" : "19",
      "zone" : "Murlipura"
    },
    "46" : {
      "address" : "1, Nagaur Nagar, Gopalpura Bypass Rd, opposite Metro Pillar 1, Uday Nagar, Rani Sati Nagar, Nirman Nagar",
      "imageRef" : "2021~October~2021-10-25~2~46",
      "isClean" : true,
      "latLng" : "26.8795638,75.7451297",
      "locality" : " Nirman Nagar",
      "time" : "11:08",
      "user" : "LB5ZuA5FjaclXAeRLRT2dIRkowk2",
      "ward" : "64",
      "zone" : "Jhotwara"
    },
    "47" : {
      "address" : "91, Lalarpura Rd, Maa Hingloj Nagar, Gulab Vihar B, Lalarpura",
      "imageRef" : "2021~October~2021-10-25~2~47",
      "isClean" : true,
      "latLng" : "26.9048328,75.722499",
      "locality" : " Lalarpura",
      "time" : "11:08",
      "user" : "lesTp06fnmbFxUpdCWwLQu8Q5Uz1",
      "ward" : "56",
      "zone" : "Jhotwara"
    },
    "48" : {
      "address" : "1, Ganga Vihar Colony, Dada Gurudev Nagar, Sanganer",
      "imageRef" : "2021~October~2021-10-25~2~48",
      "isClean" : true,
      "latLng" : "26.8061509,75.7761774",
      "locality" : " Sanganer",
      "time" : "11:09",
      "user" : "HSwWpGvJO1P2lkqjZZRTT1Vt0LE3",
      "ward" : "92",
      "zone" : "Sanganer"
    },
    "49" : {
      "address" : "63-A, Niwaru Road Laxmi Nagar II, near Jeen Mata Temple, Laxmi Nagar III, Ward Number 7, Jhotwara",
      "imageRef" : "2021~October~2021-10-25~2~49",
      "isClean" : true,
      "latLng" : "26.9624413,75.7407162",
      "locality" : " Jhotwara",
      "time" : "11:09",
      "user" : "ev0wnTlCHecAviBhj2QYe4lEAj13",
      "ward" : "19",
      "zone" : "Murlipura"
    },
    "50" : {
      "address" : "97, Sirsi Rd, Hanuman Nagar Extension, Rajendra Nagar, near",
      "imageRef" : "2021~October~2021-10-25~2~50",
      "isClean" : true,
      "latLng" : "26.9195753,75.7314964",
      "locality" : " near",
      "time" : "11:09",
      "user" : "5O4HmxdGWmcOa1J2WhJr16wb8uG3",
      "ward" : "Not Found",
      "zone" : "Not Found"
    },
    "51" : {
      "address" : "2, Sector 2, Sector-1, Vidyadhar Nagar",
      "imageRef" : "2021~October~2021-10-25~2~51",
      "isClean" : true,
      "latLng" : "26.9505717,75.7768264",
      "locality" : " Vidyadhar Nagar",
      "time" : "11:09",
      "user" : "AfGurwTzesfcNInqIkyjFGXDoub2",
      "ward" : "26",
      "zone" : "Vidhyadhar"
    },
    "52" : {
      "address" : "VPW8+XW6, Girdharipura",
      "imageRef" : "2021~October~2021-10-25~2~52",
      "isClean" : true,
      "latLng" : "26.8975294,75.7173811",
      "locality" : " Girdharipura",
      "time" : "11:09",
      "user" : "f63WCJ0Lynd58cD0s0IXlxY2ANp2",
      "ward" : "Not Found",
      "zone" : "Not Found"
    },
    "53" : {
      "address" : "23, Janak Marg, Maharana Pratap Nagar, Khatipura",
      "imageRef" : "2021~October~2021-10-25~2~53",
      "isClean" : true,
      "latLng" : "26.9317066,75.7403445",
      "locality" : " Khatipura",
      "time" : "11:10",
      "user" : "5O4HmxdGWmcOa1J2WhJr16wb8uG3",
      "ward" : "41",
      "zone" : "Vidhyadhar"
    },
    "54" : {
      "address" : "VPG6+HQQ",
      "imageRef" : "2021~October~2021-10-25~2~54",
      "isClean" : true,
      "latLng" : "26.8757167,75.7126117",
      "locality" : "VPG6+HQQ",
      "time" : "11:10",
      "user" : "OeCnghJYjVcG0jAsX9gPY6vGDnl2",
      "ward" : "Not Found",
      "zone" : "Not Found"
    },
    "55" : {
      "address" : "Shop No.4, Sawaimadhopur Railway Line, Diggi Rd, Dada Gurudev Nagar, Sanganer",
      "imageRef" : "2021~October~2021-10-25~2~55",
      "isClean" : true,
      "latLng" : "26.8059873,75.7758477",
      "locality" : " Sanganer",
      "time" : "11:11",
      "user" : "HSwWpGvJO1P2lkqjZZRTT1Vt0LE3",
      "ward" : "92",
      "zone" : "Sanganer"
    },
    "56" : {
      "address" : "1, Nagaur Nagar, Gopalpura Bypass Rd, opposite Metro Pillar 1, Uday Nagar, Rani Sati Nagar, Nirman Nagar",
      "imageRef" : "2021~October~2021-10-25~2~56",
      "isClean" : true,
      "latLng" : "26.8795638,75.7451297",
      "locality" : " Nirman Nagar",
      "time" : "11:11",
      "user" : "LB5ZuA5FjaclXAeRLRT2dIRkowk2",
      "ward" : "64",
      "zone" : "Jhotwara"
    },
    "57" : {
      "address" : "Dairy Greens , Om Plaza, Ground Floor, Vinobha Marg, near Panjabi Dhaba, Block D, Nirman Nagar, Brijlalpura",
      "imageRef" : "2021~October~2021-10-25~2~57",
      "isClean" : true,
      "latLng" : "26.8868265,75.7480124",
      "locality" : " Brijlalpura",
      "time" : "11:12",
      "user" : "6kGVKyoQqrPYGv6OwpFBRxp09az2",
      "ward" : "64",
      "zone" : "Jhotwara"
    },
    "58" : {
      "address" : "Dairy Greens , Om Plaza, Ground Floor, Vinobha Marg, near Panjabi Dhaba, Block D, Nirman Nagar, Brijlalpura",
      "imageRef" : "2021~October~2021-10-25~2~58",
      "isClean" : true,
      "latLng" : "26.8868265,75.7480124",
      "locality" : " Brijlalpura",
      "time" : "11:13",
      "user" : "6kGVKyoQqrPYGv6OwpFBRxp09az2",
      "ward" : "64",
      "zone" : "Jhotwara"
    },
    "59" : {
      "address" : "23, Janak Marg, Maharana Pratap Nagar, Khatipura",
      "imageRef" : "2021~October~2021-10-25~2~59",
      "isClean" : true,
      "latLng" : "26.9317066,75.7403445",
      "locality" : " Khatipura",
      "time" : "11:13",
      "user" : "5O4HmxdGWmcOa1J2WhJr16wb8uG3",
      "ward" : "41",
      "zone" : "Vidhyadhar"
    },
    "60" : {
      "address" : "VPW8+XW6, Girdharipura",
      "imageRef" : "2021~October~2021-10-25~2~60",
      "isClean" : true,
      "latLng" : "26.8975294,75.7173811",
      "locality" : " Girdharipura",
      "time" : "11:13",
      "user" : "f63WCJ0Lynd58cD0s0IXlxY2ANp2",
      "ward" : "Not Found",
      "zone" : "Not Found"
    },
    "61" : {
      "address" : "5, Anand Vihar-A, Durga Vihar, Anand Vihar, Jhotwara",
      "imageRef" : "2021~October~2021-10-25~2~61",
      "isClean" : true,
      "latLng" : "26.9652141,75.7513249",
      "locality" : " Jhotwara",
      "time" : "11:13",
      "user" : "ev0wnTlCHecAviBhj2QYe4lEAj13",
      "ward" : "14",
      "zone" : "Murlipura"
    },
    "62" : {
      "address" : "141, Chand Bihari Nagar, Jaswant Nagar",
      "imageRef" : "2021~October~2021-10-25~2~62",
      "isClean" : true,
      "latLng" : "26.9337161,75.7464388",
      "locality" : " Jaswant Nagar",
      "time" : "11:14",
      "user" : "5O4HmxdGWmcOa1J2WhJr16wb8uG3",
      "ward" : "41",
      "zone" : "Vidhyadhar"
    },
    "63" : {
      "address" : "Shop No.3 Basement , Below ICICI Bank , Sourav Tower, Gautam Marg, Near Inox Multiplex, E - Block, Block C, Vaishali Nagar",
      "imageRef" : "2021~October~2021-10-25~2~63",
      "isClean" : true,
      "latLng" : "26.9133059,75.7435297",
      "locality" : " Vaishali Nagar",
      "time" : "11:15",
      "user" : "kC63CDqaHNRtssv2pLMH0UlzeAn2",
      "ward" : "54",
      "zone" : "Jhotwara"
    },
    "64" : {
      "address" : "Plot no. 10 , shop no.04 Vyas colony, Jagatpura Rd, opp. Shri hospital, Model Town - B, Ghat Ki Guni",
      "imageRef" : "2021~October~2021-10-25~2~64",
      "isClean" : true,
      "latLng" : "26.8452252,75.8294107",
      "locality" : " Ghat Ki Guni",
      "time" : "11:15",
      "user" : "IfTaCIc9ildHleifFcUvTbvprz43",
      "ward" : "113",
      "zone" : "Jagatpura"
    },
    "65" : {
      "address" : "5, Anand Vihar-A, Durga Vihar, Anand Vihar, Jhotwara",
      "imageRef" : "2021~October~2021-10-25~2~65",
      "isClean" : true,
      "latLng" : "26.9652141,75.7513249",
      "locality" : " Jhotwara",
      "time" : "11:16",
      "user" : "ev0wnTlCHecAviBhj2QYe4lEAj13",
      "ward" : "14",
      "zone" : "Murlipura"
    },
    "66" : {
      "address" : "Diggi Malpura Rd, Dada Gurudev Nagar, Sanganer",
      "imageRef" : "2021~October~2021-10-25~2~66",
      "isClean" : true,
      "latLng" : "26.8070743,75.7768121",
      "locality" : " Sanganer",
      "time" : "11:16",
      "user" : "HSwWpGvJO1P2lkqjZZRTT1Vt0LE3",
      "ward" : "92",
      "zone" : "Sanganer"
    },
    "67" : {
      "address" : "Plot no, 45, Kedia House Rd, Ganesh Nagar, Shankar Vihar Extension, Jamna Puri",
      "imageRef" : "2021~October~2021-10-25~2~67",
      "isClean" : true,
      "latLng" : "26.9770937,75.7542638",
      "locality" : " Jamna Puri",
      "time" : "11:16",
      "user" : "RxDvTuUUsCTs9GcCg5g0iG9fA3t2",
      "ward" : "9",
      "zone" : "Murlipura"
    },
    "68" : {
      "address" : "C-24 Gokul Vatika, Jawahar Circle, Jawahar Lal Nehru Marg, Sector 8, Durgapura",
      "imageRef" : "2021~October~2021-10-25~2~68",
      "isClean" : true,
      "latLng" : "26.8422696,75.8013568",
      "locality" : " Durgapura",
      "time" : "11:17",
      "user" : "QMfpXg6WqQgOMlD3OHLmEVOZwiq2",
      "ward" : "125",
      "zone" : "Malviya Nagar"
    },
    "69" : {
      "address" : "B-12, 80 Feet Main Rd, Sriram Nagar, Jhotwara",
      "imageRef" : "2021~October~2021-10-25~2~69",
      "isClean" : true,
      "latLng" : "26.9426715,75.7467534",
      "locality" : " Jhotwara",
      "time" : "11:18",
      "user" : "q824l6Y9DwXAx5nm9I9C1cImcRo1",
      "ward" : "Not Found",
      "zone" : "Not Found"
    },
    "70" : {
      "address" : "3B, Muralipura Rd, Ganga Jamuna Colony, Murlipura",
      "imageRef" : "2021~October~2021-10-25~2~70",
      "isClean" : true,
      "latLng" : "26.9685115,75.7550872",
      "locality" : " Murlipura",
      "time" : "11:18",
      "user" : "ev0wnTlCHecAviBhj2QYe4lEAj13",
      "ward" : "15",
      "zone" : "Murlipura"
    },
    "71" : {
      "address" : "C-24 Gokul Vatika, Jawahar Circle, Jawahar Lal Nehru Marg, Sector 8, Durgapura",
      "imageRef" : "2021~October~2021-10-25~2~71",
      "isClean" : true,
      "latLng" : "26.8422696,75.8013568",
      "locality" : " Durgapura",
      "time" : "11:19",
      "user" : "QMfpXg6WqQgOMlD3OHLmEVOZwiq2",
      "ward" : "125",
      "zone" : "Malviya Nagar"
    },
    "72" : {
      "address" : "3B, Muralipura Rd, Ganga Jamuna Colony, Murlipura",
      "imageRef" : "2021~October~2021-10-25~2~72",
      "isClean" : true,
      "latLng" : "26.9685115,75.7550872",
      "locality" : " Murlipura",
      "time" : "11:19",
      "user" : "ev0wnTlCHecAviBhj2QYe4lEAj13",
      "ward" : "15",
      "zone" : "Murlipura"
    },
    "73" : {
      "address" : "1, Hanuman Nagar, Sanganer",
      "imageRef" : "2021~October~2021-10-25~2~73",
      "isClean" : true,
      "latLng" : "26.8081285,75.7792474",
      "locality" : " Sanganer",
      "time" : "11:19",
      "user" : "HSwWpGvJO1P2lkqjZZRTT1Vt0LE3",
      "ward" : "92",
      "zone" : "Sanganer"
    },
    "74" : {
      "address" : "377 ratan vihar, Dashrath Marg, Hanuman Nagar Extension, Anand Nagar",
      "imageRef" : "2021~October~2021-10-25~2~74",
      "isClean" : true,
      "latLng" : "26.9313198,75.7369672",
      "locality" : " Anand Nagar",
      "time" : "11:19",
      "user" : "5O4HmxdGWmcOa1J2WhJr16wb8uG3",
      "ward" : "42",
      "zone" : "Vidhyadhar"
    },
    "75" : {
      "address" : "377 ratan vihar, Dashrath Marg, Hanuman Nagar Extension, Anand Nagar",
      "imageRef" : "2021~October~2021-10-25~2~75",
      "isClean" : true,
      "latLng" : "26.9313198,75.7369672",
      "locality" : " Anand Nagar",
      "time" : "11:20",
      "user" : "5O4HmxdGWmcOa1J2WhJr16wb8uG3",
      "ward" : "42",
      "zone" : "Vidhyadhar"
    },
    "76" : {
      "address" : "Dairy Greens , Om Plaza, Ground Floor, Vinobha Marg, near Panjabi Dhaba, Block D, Nirman Nagar, Brijlalpura",
      "imageRef" : "2021~October~2021-10-25~2~76",
      "isClean" : true,
      "latLng" : "26.8868354,75.7480269",
      "locality" : " Brijlalpura",
      "time" : "11:21",
      "user" : "XEPFfitQ4KbXQCtjRCIfbJhi5P43",
      "ward" : "64",
      "zone" : "Jhotwara"
    },
    "77" : {
      "address" : "1-593, 1-593, Sector 1 Rd, Sector 2, Sanjay Colony, Vidyadhar Nagar",
      "imageRef" : "2021~October~2021-10-25~2~77",
      "isClean" : true,
      "latLng" : "26.9570346,75.7750995",
      "locality" : " Vidyadhar Nagar",
      "time" : "11:21",
      "user" : "AfGurwTzesfcNInqIkyjFGXDoub2",
      "ward" : "26",
      "zone" : "Vidhyadhar"
    },
    "78" : {
      "address" : "Dairy Greens , Om Plaza, Ground Floor, Vinobha Marg, near Panjabi Dhaba, Block D, Nirman Nagar, Brijlalpura",
      "imageRef" : "2021~October~2021-10-25~2~78",
      "isClean" : true,
      "latLng" : "26.8868354,75.7480269",
      "locality" : " Brijlalpura",
      "time" : "11:21",
      "user" : "XEPFfitQ4KbXQCtjRCIfbJhi5P43",
      "ward" : "64",
      "zone" : "Jhotwara"
    },
    "79" : {
      "address" : "XQ74+7XF, Dahar Ka Balaji",
      "imageRef" : "2021~October~2021-10-25~2~79",
      "isClean" : true,
      "latLng" : "26.9629952,75.7573959",
      "locality" : " Dahar Ka Balaji",
      "time" : "11:22",
      "user" : "ev0wnTlCHecAviBhj2QYe4lEAj13",
      "ward" : "Not Found",
      "zone" : "Not Found"
    },
    "80" : {
      "address" : "Plot no, 45, Kedia House Rd, Ganesh Nagar, Shankar Vihar Extension, Jamna Puri",
      "imageRef" : "2021~October~2021-10-25~2~80",
      "isClean" : true,
      "latLng" : "26.9770937,75.7542638",
      "locality" : " Jamna Puri",
      "time" : "11:22",
      "user" : "RxDvTuUUsCTs9GcCg5g0iG9fA3t2",
      "ward" : "9",
      "zone" : "Murlipura"
    },
    "81" : {
      "address" : "XQ74+7XF, Dahar Ka Balaji",
      "imageRef" : "2021~October~2021-10-25~2~81",
      "isClean" : true,
      "latLng" : "26.9629952,75.7573959",
      "locality" : " Dahar Ka Balaji",
      "time" : "11:22",
      "user" : "ev0wnTlCHecAviBhj2QYe4lEAj13",
      "ward" : "Not Found",
      "zone" : "Not Found"
    },
    "82" : {
      "address" : "25, Tonk Rd, Shreeji Nagar, Green Nagar, Vasundhara Colony, Mata colony",
      "imageRef" : "2021~October~2021-10-25~2~82",
      "isClean" : true,
      "latLng" : "26.8469807,75.7937515",
      "locality" : " Mata colony",
      "time" : "11:22",
      "user" : "j7hB3Z4P3OdvSGPcavXtaHNuGBt2",
      "ward" : "125",
      "zone" : "Malviya Nagar"
    },
    "83" : {
      "address" : "A-12B, Kings Rd, Padmavti Colony, Nirman Nagar, Brijlalpura",
      "imageRef" : "2021~October~2021-10-25~2~83",
      "isClean" : true,
      "latLng" : "26.8801161,75.7513102",
      "locality" : " Brijlalpura",
      "time" : "11:24",
      "user" : "LB5ZuA5FjaclXAeRLRT2dIRkowk2",
      "ward" : "64",
      "zone" : "Jhotwara"
    },
    "84" : {
      "address" : "182, Tonk Rd, Chandrakala Colony, Durgapura",
      "imageRef" : "2021~October~2021-10-25~2~84",
      "isClean" : true,
      "latLng" : "26.8471968,75.7937912",
      "locality" : " Durgapura",
      "time" : "11:24",
      "user" : "j7hB3Z4P3OdvSGPcavXtaHNuGBt2",
      "ward" : "125",
      "zone" : "Malviya Nagar"
    },
    "85" : {
      "address" : "35, Ganga Jamuna Colony, Dahar Ka Balaji",
      "imageRef" : "2021~October~2021-10-25~2~85",
      "isClean" : true,
      "latLng" : "26.9668453,75.760888",
      "locality" : " Dahar Ka Balaji",
      "time" : "11:24",
      "user" : "ev0wnTlCHecAviBhj2QYe4lEAj13",
      "ward" : "18",
      "zone" : "Murlipura"
    },
    "86" : {
      "address" : "Maruti Colony, Kalyanpura, Sanganer",
      "imageRef" : "2021~October~2021-10-25~2~86",
      "isClean" : true,
      "latLng" : "26.8227363,75.7740311",
      "locality" : " Sanganer",
      "time" : "11:24",
      "user" : "EY0cg0gEW0WKz60icDpLpkaWSij2",
      "ward" : "83",
      "zone" : "Mansarovar"
    },
    "87" : {
      "address" : "182, Tonk Rd, Chandrakala Colony, Durgapura",
      "imageRef" : "2021~October~2021-10-25~2~87",
      "isClean" : true,
      "latLng" : "26.8471968,75.7937912",
      "locality" : " Durgapura",
      "time" : "11:25",
      "user" : "j7hB3Z4P3OdvSGPcavXtaHNuGBt2",
      "ward" : "125",
      "zone" : "Malviya Nagar"
    },
    "89" : {
      "address" : "6, Chand Bihari Nagar, Khatipura",
      "imageRef" : "2021~October~2021-10-25~2~89",
      "isClean" : true,
      "latLng" : "26.9340737,75.7472263",
      "locality" : " Khatipura",
      "time" : "11:26",
      "user" : "5O4HmxdGWmcOa1J2WhJr16wb8uG3",
      "ward" : "41",
      "zone" : "Vidhyadhar"
    },
    "90" : {
      "address" : "TC Tower,Opp.metro piller, no-29, Gopalpura Bypass Rd, Nirman Nagar, Ranisati Nagar",
      "imageRef" : "2021~October~2021-10-25~2~90",
      "isClean" : true,
      "latLng" : "26.8798436,75.7547711",
      "locality" : " Ranisati Nagar",
      "time" : "11:27",
      "user" : "LB5ZuA5FjaclXAeRLRT2dIRkowk2",
      "ward" : "Not Found",
      "zone" : "Not Found"
    },
    "91" : {
      "address" : "6, Chand Bihari Nagar, Khatipura",
      "imageRef" : "2021~October~2021-10-25~2~91",
      "isClean" : true,
      "latLng" : "26.9340737,75.7472263",
      "locality" : " Khatipura",
      "time" : "11:27",
      "user" : "5O4HmxdGWmcOa1J2WhJr16wb8uG3",
      "ward" : "41",
      "zone" : "Vidhyadhar"
    },
    "92" : {
      "address" : "Plot no, 45, Kedia House Rd, Ganesh Nagar, Shankar Vihar Extension, Jamna Puri",
      "imageRef" : "2021~October~2021-10-25~2~92",
      "isClean" : true,
      "latLng" : "26.9770937,75.7542638",
      "locality" : " Jamna Puri",
      "time" : "11:27",
      "user" : "RxDvTuUUsCTs9GcCg5g0iG9fA3t2",
      "ward" : "9",
      "zone" : "Murlipura"
    },
    "93" : {
      "address" : "39-41, C7/39-41, Sector 1 Rd, Sector 2, Sanjay Colony, Vidyadhar Nagar",
      "imageRef" : "2021~October~2021-10-25~2~93",
      "isClean" : true,
      "latLng" : "26.9573941,75.7749974",
      "locality" : " Vidyadhar Nagar",
      "time" : "11:27",
      "user" : "AfGurwTzesfcNInqIkyjFGXDoub2",
      "ward" : "26",
      "zone" : "Vidhyadhar"
    },
    "94" : {
      "address" : "00, Model Town, Jagatpura",
      "imageRef" : "2021~October~2021-10-25~2~94",
      "isClean" : true,
      "latLng" : "26.8371608,75.8324081",
      "locality" : " Jagatpura",
      "time" : "11:29",
      "user" : "IfTaCIc9ildHleifFcUvTbvprz43",
      "ward" : "109",
      "zone" : "Jagatpura"
    },
    "95" : {
      "address" : "Mansarovar Ricco Briged, Rampura Rd, Kalyanpura, Sanganer",
      "imageRef" : "2021~October~2021-10-25~2~95",
      "isClean" : true,
      "latLng" : "26.8242888,75.7751211",
      "locality" : " Sanganer",
      "time" : "11:29",
      "user" : "EY0cg0gEW0WKz60icDpLpkaWSij2",
      "ward" : "83",
      "zone" : "Mansarovar"
    },
    "96" : {
      "address" : "Office Basement G-19 Balaji Tower 1st, Sector 2, Radha Govind Colony, Vidyadhar Nagar",
      "imageRef" : "2021~October~2021-10-25~2~96",
      "isClean" : true,
      "latLng" : "26.9584422,75.7741688",
      "locality" : " Vidyadhar Nagar",
      "time" : "11:30",
      "user" : "AfGurwTzesfcNInqIkyjFGXDoub2",
      "ward" : "21",
      "zone" : "Murlipura"
    },
    "97" : {
      "address" : "35, Ganga Jamuna Colony, Dahar Ka Balaji",
      "imageRef" : "2021~October~2021-10-25~2~97",
      "isClean" : true,
      "latLng" : "26.9668453,75.760888",
      "locality" : " Dahar Ka Balaji",
      "time" : "11:30",
      "user" : "ev0wnTlCHecAviBhj2QYe4lEAj13",
      "ward" : "18",
      "zone" : "Murlipura"
    },
    "98" : {
      "address" : "15, Jagatpura Rd, Shiv Shakti Nagar, Model Town, Jagatpura",
      "imageRef" : "2021~October~2021-10-25~2~98",
      "isClean" : true,
      "latLng" : "26.8386765,75.8335576",
      "locality" : " Jagatpura",
      "time" : "11:30",
      "user" : "IfTaCIc9ildHleifFcUvTbvprz43",
      "ward" : "109",
      "zone" : "Jagatpura"
    },
    "99" : {
      "address" : "199, Sikar Rd, Vidyadhar Nagar",
      "imageRef" : "2021~October~2021-10-25~2~99",
      "isClean" : true,
      "latLng" : "26.9566541,75.7713952",
      "locality" : " Vidyadhar Nagar",
      "time" : "11:31",
      "user" : "ev0wnTlCHecAviBhj2QYe4lEAj13",
      "ward" : "25",
      "zone" : "Vidhyadhar"
    },
    "100" : {
      "address" : "15, Shiv Shakti Nagar, B, Model Town, Malviya Nagar",
      "imageRef" : "2021~October~2021-10-25~2~100",
      "isClean" : true,
      "latLng" : "26.8397072,75.8330433",
      "locality" : " Malviya Nagar",
      "time" : "11:31",
      "user" : "IfTaCIc9ildHleifFcUvTbvprz43",
      "ward" : "109",
      "zone" : "Jagatpura"
    },
    "101" : {
      "address" : "34, Jagatpura Rd, Income Tax Colony, Model Town, Jagatpura",
      "imageRef" : "2021~October~2021-10-25~2~101",
      "isClean" : true,
      "latLng" : "26.8422064,75.8311968",
      "locality" : " Jagatpura",
      "time" : "11:32",
      "user" : "IfTaCIc9ildHleifFcUvTbvprz43",
      "ward" : "109",
      "zone" : "Jagatpura"
    },
    "102" : {
      "address" : "P-38, Sikar Rd, near Khetan Chauraha, Sector 2, Shri Ram Colony, Vidyadhar Nagar",
      "imageRef" : "2021~October~2021-10-25~2~102",
      "isClean" : true,
      "latLng" : "26.9605493,75.7728952",
      "locality" : " Vidyadhar Nagar",
      "time" : "11:32",
      "user" : "AfGurwTzesfcNInqIkyjFGXDoub2",
      "ward" : "21",
      "zone" : "Murlipura"
    },
    "103" : {
      "address" : "48, Rd Number 14, Vishwakarma Industrial Area, Murlipura",
      "imageRef" : "2021~October~2021-10-25~2~103",
      "isClean" : true,
      "latLng" : "26.9966576,75.7713974",
      "locality" : " Murlipura",
      "time" : "11:33",
      "user" : "RxDvTuUUsCTs9GcCg5g0iG9fA3t2",
      "ward" : "8",
      "zone" : "Murlipura"
    },
    "104" : {
      "address" : "199, Sikar Rd, Vidyadhar Nagar",
      "imageRef" : "2021~October~2021-10-25~2~104",
      "isClean" : true,
      "latLng" : "26.9566541,75.7713952",
      "locality" : " Vidyadhar Nagar",
      "time" : "11:33",
      "user" : "ev0wnTlCHecAviBhj2QYe4lEAj13",
      "ward" : "25",
      "zone" : "Vidhyadhar"
    },
    "105" : {
      "address" : "Mansarovar Ricco Briged, Rampura Rd, Kalyanpura, Sanganer",
      "imageRef" : "2021~October~2021-10-25~2~105",
      "isClean" : true,
      "latLng" : "26.8242888,75.7751211",
      "locality" : " Sanganer",
      "time" : "11:33",
      "user" : "EY0cg0gEW0WKz60icDpLpkaWSij2",
      "ward" : "83",
      "zone" : "Mansarovar"
    },
    "106" : {
      "address" : "Ga-86, Sikar Rd, SONI KA BAG, Bhawani Nagar",
      "imageRef" : "2021~October~2021-10-25~2~106",
      "isClean" : true,
      "latLng" : "26.9631648,75.7714951",
      "locality" : " Bhawani Nagar",
      "time" : "11:34",
      "user" : "ev0wnTlCHecAviBhj2QYe4lEAj13",
      "ward" : "18",
      "zone" : "Murlipura"
    },
    "107" : {
      "address" : "48, Rd Number 14, Vishwakarma Industrial Area, Murlipura",
      "imageRef" : "2021~October~2021-10-25~2~107",
      "isClean" : true,
      "latLng" : "26.9966576,75.7713974",
      "locality" : " Murlipura",
      "time" : "11:34",
      "user" : "RxDvTuUUsCTs9GcCg5g0iG9fA3t2",
      "ward" : "8",
      "zone" : "Murlipura"
    },
    "108" : {
      "address" : "A89, 9 Number Sikar Rd, Gopinagar, Vishwakarma Industrial Area, Murlipura",
      "imageRef" : "2021~October~2021-10-25~2~108",
      "isClean" : true,
      "latLng" : "26.9881179,75.7683786",
      "locality" : " Murlipura",
      "time" : "11:36",
      "user" : "RxDvTuUUsCTs9GcCg5g0iG9fA3t2",
      "ward" : "7",
      "zone" : "Murlipura"
    },
    "109" : {
      "address" : "73-78/3, Model Town - B, Model Town, Jagatpura",
      "imageRef" : "2021~October~2021-10-25~2~109",
      "isClean" : true,
      "latLng" : "26.8481466,75.8268426",
      "locality" : " Jagatpura",
      "time" : "11:36",
      "user" : "IfTaCIc9ildHleifFcUvTbvprz43",
      "ward" : "109",
      "zone" : "Jagatpura"
    },
    "110" : {
      "address" : "BLOCK-8, NABARD STAFF QUARTERS, Model Town, Malviya Nagar",
      "imageRef" : "2021~October~2021-10-25~2~110",
      "isClean" : true,
      "latLng" : "26.8483406,75.8253389",
      "locality" : " Malviya Nagar",
      "time" : "11:37",
      "user" : "IfTaCIc9ildHleifFcUvTbvprz43",
      "ward" : "109",
      "zone" : "Jagatpura"
    },
    "111" : {
      "address" : "Ga-86, Sikar Rd, SONI KA BAG, Bhawani Nagar",
      "imageRef" : "2021~October~2021-10-25~2~111",
      "isClean" : true,
      "latLng" : "26.9631648,75.7714951",
      "locality" : " Bhawani Nagar",
      "time" : "11:37",
      "user" : "ev0wnTlCHecAviBhj2QYe4lEAj13",
      "ward" : "18",
      "zone" : "Murlipura"
    },
    "112" : {
      "address" : "113-A, Janki Vihar, Girdharipura",
      "imageRef" : "2021~October~2021-10-25~2~112",
      "isClean" : true,
      "latLng" : "26.8885172,75.7137065",
      "locality" : " Girdharipura",
      "time" : "11:38",
      "user" : "f63WCJ0Lynd58cD0s0IXlxY2ANp2",
      "ward" : "49",
      "zone" : "Jhotwara"
    },
    "113" : {
      "address" : "13, Kedia Palace Rd, Vijay Nagar, Murlipura Scheme, Murlipura",
      "imageRef" : "2021~October~2021-10-25~2~113",
      "isClean" : true,
      "latLng" : "26.9701826,75.7630487",
      "locality" : " Murlipura",
      "time" : "11:43",
      "user" : "ev0wnTlCHecAviBhj2QYe4lEAj13",
      "ward" : "18",
      "zone" : "Murlipura"
    },
    "114" : {
      "address" : "Madhuvan Garden and Restaurant, Ajmer Rd, Bhakrota",
      "imageRef" : "2021~October~2021-10-25~2~114",
      "isClean" : true,
      "latLng" : "26.8699602,75.6977314",
      "locality" : " Bhakrota",
      "time" : "11:45",
      "user" : "OeCnghJYjVcG0jAsX9gPY6vGDnl2",
      "ward" : "67",
      "zone" : "Mansarovar"
    },
    "115" : {
      "address" : "Madhuvan Garden and Restaurant, Ajmer Rd, Bhakrota",
      "imageRef" : "2021~October~2021-10-25~2~115",
      "isClean" : true,
      "latLng" : "26.8699602,75.6977314",
      "locality" : " Bhakrota",
      "time" : "11:46",
      "user" : "OeCnghJYjVcG0jAsX9gPY6vGDnl2",
      "ward" : "67",
      "zone" : "Mansarovar"
    },
    "116" : {
      "address" : "UMA BHAWAN PLOT-10 , GANPATI VIHAR, PANCHWATI COLONY, RAWAL JI KA BANDHA, Khatipura Rd, Mukendpura, Murlipura",
      "imageRef" : "2021~October~2021-10-25~2~116",
      "isClean" : true,
      "latLng" : "26.9701556,75.7585606",
      "locality" : " Murlipura",
      "time" : "11:46",
      "user" : "ev0wnTlCHecAviBhj2QYe4lEAj13",
      "ward" : "15",
      "zone" : "Murlipura"
    },
    "117" : {
      "address" : "3, Khirni Phatak Rd, near Safed Mandir, Om Nagar, Jhotwara",
      "imageRef" : "2021~October~2021-10-25~2~117",
      "isClean" : true,
      "latLng" : "26.9331565,75.7383946",
      "locality" : " Jhotwara",
      "time" : "11:46",
      "user" : "5O4HmxdGWmcOa1J2WhJr16wb8uG3",
      "ward" : "Not Found",
      "zone" : "Not Found"
    },
    "118" : {
      "address" : "47, Dada Bari Rd, Gopi Nagar, Dada Gurudev Nagar, Sanganer",
      "imageRef" : "2021~October~2021-10-25~2~118",
      "isClean" : true,
      "latLng" : "26.8179518,75.7765743",
      "locality" : " Sanganer",
      "time" : "11:46",
      "user" : "EY0cg0gEW0WKz60icDpLpkaWSij2",
      "ward" : "89",
      "zone" : "Sanganer"
    },
    "119" : {
      "address" : "UMA BHAWAN PLOT-10 , GANPATI VIHAR, PANCHWATI COLONY, RAWAL JI KA BANDHA, Khatipura Rd, Mukendpura, Murlipura",
      "imageRef" : "2021~October~2021-10-25~2~119",
      "isClean" : true,
      "latLng" : "26.9701556,75.7585606",
      "locality" : " Murlipura",
      "time" : "11:47",
      "user" : "ev0wnTlCHecAviBhj2QYe4lEAj13",
      "ward" : "15",
      "zone" : "Murlipura"
    },
    "120" : {
      "address" : "47, Dada Bari Rd, Gopi Nagar, Dada Gurudev Nagar, Sanganer",
      "imageRef" : "2021~October~2021-10-25~2~120",
      "isClean" : true,
      "latLng" : "26.8179518,75.7765743",
      "locality" : " Sanganer",
      "time" : "11:47",
      "user" : "EY0cg0gEW0WKz60icDpLpkaWSij2",
      "ward" : "89",
      "zone" : "Sanganer"
    },
    "121" : {
      "address" : "Unnamed Road, Bhakrota",
      "imageRef" : "2021~October~2021-10-25~2~121",
      "isClean" : true,
      "latLng" : "26.8629264,75.7108313",
      "locality" : " Bhakrota",
      "time" : "11:49",
      "user" : "OeCnghJYjVcG0jAsX9gPY6vGDnl2",
      "ward" : "67",
      "zone" : "Mansarovar"
    },
    "122" : {
      "address" : "26/291, Subhash Colony, Sanganer",
      "imageRef" : "2021~October~2021-10-25~2~122",
      "isClean" : true,
      "latLng" : "26.8077655,75.793286",
      "locality" : " Sanganer",
      "time" : "11:50",
      "user" : "EY0cg0gEW0WKz60icDpLpkaWSij2",
      "ward" : "94",
      "zone" : "Sanganer"
    },
    "123" : {
      "address" : "Building, 80 Feet Rd, Hari Nagar, Jhotwara",
      "imageRef" : "2021~October~2021-10-25~2~123",
      "isClean" : true,
      "latLng" : "26.9374293,75.7330046",
      "locality" : " Jhotwara",
      "time" : "11:50",
      "user" : "5O4HmxdGWmcOa1J2WhJr16wb8uG3",
      "ward" : "39",
      "zone" : "Vidhyadhar"
    },
    "124" : {
      "address" : "259, Triveni Nagar, New Aatish Market, Shanthi Nagar, Mansarovar",
      "imageRef" : "2021~October~2021-10-25~2~124",
      "isClean" : true,
      "latLng" : "26.8787094,75.7594051",
      "locality" : " Mansarovar",
      "time" : "11:51",
      "user" : "LB5ZuA5FjaclXAeRLRT2dIRkowk2",
      "ward" : "Not Found",
      "zone" : "Not Found"
    },
    "125" : {
      "address" : "Building, 80 Feet Rd, Hari Nagar, Jhotwara",
      "imageRef" : "2021~October~2021-10-25~2~125",
      "isClean" : true,
      "latLng" : "26.9374293,75.7330046",
      "locality" : " Jhotwara",
      "time" : "11:51",
      "user" : "5O4HmxdGWmcOa1J2WhJr16wb8uG3",
      "ward" : "39",
      "zone" : "Vidhyadhar"
    },
    "126" : {
      "address" : "Airport Rd, Shiv Nagar",
      "imageRef" : "2021~October~2021-10-25~2~126",
      "isClean" : true,
      "latLng" : "26.8187622,75.7982666",
      "locality" : " Shiv Nagar",
      "time" : "11:52",
      "user" : "n8U24UXDq5OckN6Yw6pdO2b0Swg2",
      "ward" : "105",
      "zone" : "Jagatpura"
    },
    "127" : {
      "address" : "26/291, Subhash Colony, Sanganer",
      "imageRef" : "2021~October~2021-10-25~2~127",
      "isClean" : true,
      "latLng" : "26.8077655,75.793286",
      "locality" : " Sanganer",
      "time" : "11:52",
      "user" : "EY0cg0gEW0WKz60icDpLpkaWSij2",
      "ward" : "94",
      "zone" : "Sanganer"
    },
    "128" : {
      "address" : "259, Triveni Nagar, New Aatish Market, Shanthi Nagar, Mansarovar",
      "imageRef" : "2021~October~2021-10-25~2~128",
      "isClean" : true,
      "latLng" : "26.8787094,75.7594051",
      "locality" : " Mansarovar",
      "time" : "11:52",
      "user" : "LB5ZuA5FjaclXAeRLRT2dIRkowk2",
      "ward" : "Not Found",
      "zone" : "Not Found"
    },
    "129" : {
      "address" : "259, Triveni Nagar, New Aatish Market, Shanthi Nagar, Mansarovar",
      "imageRef" : "2021~October~2021-10-25~2~129",
      "isClean" : true,
      "latLng" : "26.8787094,75.7594051",
      "locality" : " Mansarovar",
      "time" : "11:53",
      "user" : "LB5ZuA5FjaclXAeRLRT2dIRkowk2",
      "ward" : "Not Found",
      "zone" : "Not Found"
    },
    "130" : {
      "address" : "281, Ghat Ki Guni",
      "imageRef" : "2021~October~2021-10-25~2~130",
      "isClean" : true,
      "latLng" : "26.8675112,75.8233925",
      "locality" : " Ghat Ki Guni",
      "time" : "11:53",
      "user" : "w0YCfewlsAZXqrlU2EdmhEZXWw22",
      "ward" : "110",
      "zone" : "Jagatpura"
    },
    "131" : {
      "address" : "15",
      "imageRef" : "2021~October~2021-10-25~2~131",
      "isClean" : true,
      "latLng" : "26.8789938,75.7166226",
      "locality" : "15",
      "time" : "11:54",
      "user" : "f63WCJ0Lynd58cD0s0IXlxY2ANp2",
      "ward" : "49",
      "zone" : "Jhotwara"
    },
    "132" : {
      "address" : "259, Triveni Nagar, New Aatish Market, Shanthi Nagar, Mansarovar",
      "imageRef" : "2021~October~2021-10-25~2~132",
      "isClean" : true,
      "latLng" : "26.8787094,75.7594051",
      "locality" : " Mansarovar",
      "time" : "11:54",
      "user" : "LB5ZuA5FjaclXAeRLRT2dIRkowk2",
      "ward" : "Not Found",
      "zone" : "Not Found"
    },
    "133" : {
      "address" : "26/291, Subhash Colony, Sanganer",
      "imageRef" : "2021~October~2021-10-25~2~133",
      "isClean" : true,
      "latLng" : "26.8077655,75.793286",
      "locality" : " Sanganer",
      "time" : "11:54",
      "user" : "EY0cg0gEW0WKz60icDpLpkaWSij2",
      "ward" : "94",
      "zone" : "Sanganer"
    },
    "134" : {
      "address" : "Sanganer Circle, Kundan Nagar",
      "imageRef" : "2021~October~2021-10-25~2~134",
      "isClean" : false,
      "latLng" : "26.8193207,75.7964024",
      "locality" : " Kundan Nagar",
      "time" : "11:54",
      "user" : "n8U24UXDq5OckN6Yw6pdO2b0Swg2",
      "ward" : "104",
      "zone" : "Jagatpura"
    },
    "135" : {
      "address" : "Sanganer Circle, Kundan Nagar",
      "imageRef" : "2021~October~2021-10-25~2~135",
      "isClean" : true,
      "latLng" : "26.8193896,75.7963551",
      "locality" : " Kundan Nagar",
      "time" : "11:55",
      "user" : "n8U24UXDq5OckN6Yw6pdO2b0Swg2",
      "ward" : "104",
      "zone" : "Jagatpura"
    },
    "136" : {
      "address" : "RQCR+CVG, Kundan Nagar",
      "imageRef" : "2021~October~2021-10-25~2~136",
      "isClean" : true,
      "latLng" : "26.8210942,75.7920799",
      "locality" : " Kundan Nagar",
      "time" : "11:55",
      "user" : "n8U24UXDq5OckN6Yw6pdO2b0Swg2",
      "ward" : "104",
      "zone" : "Jagatpura"
    },
    "137" : {
      "address" : "452, Udyog Nagar, Jhotwara",
      "imageRef" : "2021~October~2021-10-25~2~137",
      "isClean" : true,
      "latLng" : "26.9500737,75.7332501",
      "locality" : " Jhotwara",
      "time" : "11:55",
      "user" : "5O4HmxdGWmcOa1J2WhJr16wb8uG3",
      "ward" : "32",
      "zone" : "Vidhyadhar"
    },
    "138" : {
      "address" : "15",
      "imageRef" : "2021~October~2021-10-25~2~138",
      "isClean" : true,
      "latLng" : "26.8789938,75.7166226",
      "locality" : "15",
      "time" : "11:55",
      "user" : "f63WCJ0Lynd58cD0s0IXlxY2ANp2",
      "ward" : "49",
      "zone" : "Jhotwara"
    },
    "139" : {
      "address" : "104, Vishnu Garden, Sanganer",
      "imageRef" : "2021~October~2021-10-25~2~139",
      "isClean" : true,
      "latLng" : "26.8212131,75.7931478",
      "locality" : " Sanganer",
      "time" : "11:55",
      "user" : "n8U24UXDq5OckN6Yw6pdO2b0Swg2",
      "ward" : "104",
      "zone" : "Jagatpura"
    },
    "140" : {
      "address" : "Nasiya Rd, Bambala",
      "imageRef" : "2021~October~2021-10-25~2~140",
      "isClean" : true,
      "latLng" : "26.7992555,75.7911063",
      "locality" : " Bambala",
      "time" : "11:56",
      "user" : "EY0cg0gEW0WKz60icDpLpkaWSij2",
      "ward" : "97",
      "zone" : "Sanganer"
    },
    "141" : {
      "address" : "Rudraksh residency 10 Prahalad colony, Sanganer",
      "imageRef" : "2021~October~2021-10-25~2~141",
      "isClean" : false,
      "latLng" : "26.8215307,75.7932027",
      "locality" : " Sanganer",
      "time" : "11:56",
      "user" : "n8U24UXDq5OckN6Yw6pdO2b0Swg2",
      "ward" : "104",
      "zone" : "Jagatpura"
    },
    "142" : {
      "address" : "144, Ghat Ki Guni",
      "imageRef" : "2021~October~2021-10-25~2~142",
      "isClean" : true,
      "latLng" : "26.8594762,75.8251006",
      "locality" : " Ghat Ki Guni",
      "time" : "11:57",
      "user" : "w0YCfewlsAZXqrlU2EdmhEZXWw22",
      "ward" : "110",
      "zone" : "Jagatpura"
    },
    "143" : {
      "address" : "259, Triveni Nagar, New Aatish Market, Shanthi Nagar, Mansarovar",
      "imageRef" : "2021~October~2021-10-25~2~143",
      "isClean" : true,
      "latLng" : "26.8787094,75.7594051",
      "locality" : " Mansarovar",
      "time" : "11:57",
      "user" : "LB5ZuA5FjaclXAeRLRT2dIRkowk2",
      "ward" : "Not Found",
      "zone" : "Not Found"
    },
    "144" : {
      "address" : "Rudraksh residency 10 Prahalad colony, Sanganer",
      "imageRef" : "2021~October~2021-10-25~2~144",
      "isClean" : false,
      "latLng" : "26.8215307,75.7932027",
      "locality" : " Sanganer",
      "time" : "11:57",
      "user" : "n8U24UXDq5OckN6Yw6pdO2b0Swg2",
      "ward" : "104",
      "zone" : "Jagatpura"
    },
    "145" : {
      "address" : "Unnamed Road, Jaranwala",
      "imageRef" : "2021~October~2021-10-25~2~145",
      "isClean" : true,
      "latLng" : "26.7958914,75.7863836",
      "locality" : " Jaranwala",
      "time" : "11:58",
      "user" : "EY0cg0gEW0WKz60icDpLpkaWSij2",
      "ward" : "97",
      "zone" : "Sanganer"
    },
    "146" : {
      "address" : "B-42, Anaj Mandi, 9 Number, Sikar Rd, Anaj Mandi, Murlipura",
      "imageRef" : "2021~October~2021-10-25~2~146",
      "isClean" : true,
      "latLng" : "26.9907127,75.7700471",
      "locality" : " Murlipura",
      "time" : "11:59",
      "user" : "RxDvTuUUsCTs9GcCg5g0iG9fA3t2",
      "ward" : "7",
      "zone" : "Murlipura"
    },
    "147" : {
      "address" : "259, Triveni Nagar, New Aatish Market, Shanthi Nagar, Mansarovar",
      "imageRef" : "2021~October~2021-10-25~2~147",
      "isClean" : true,
      "latLng" : "26.8787094,75.7594051",
      "locality" : " Mansarovar",
      "time" : "12:00",
      "user" : "LB5ZuA5FjaclXAeRLRT2dIRkowk2",
      "ward" : "Not Found",
      "zone" : "Not Found"
    },
    "148" : {
      "address" : "RQCV+V6R, Kundan Nagar",
      "imageRef" : "2021~October~2021-10-25~2~148",
      "isClean" : false,
      "latLng" : "26.8222823,75.7930881",
      "locality" : " Kundan Nagar",
      "time" : "12:00",
      "user" : "n8U24UXDq5OckN6Yw6pdO2b0Swg2",
      "ward" : "104",
      "zone" : "Jagatpura"
    },
    "149" : {
      "address" : "259, Triveni Nagar, New Aatish Market, Shanthi Nagar, Mansarovar",
      "imageRef" : "2021~October~2021-10-25~2~149",
      "isClean" : true,
      "latLng" : "26.8787094,75.7594051",
      "locality" : " Mansarovar",
      "time" : "12:00",
      "user" : "LB5ZuA5FjaclXAeRLRT2dIRkowk2",
      "ward" : "Not Found",
      "zone" : "Not Found"
    },
    "150" : {
      "address" : "Shop No. H-12, Rajdhani Anaj Mandi Road, No. 9, Sikar Rd, Anaj Mandi, Murlipura",
      "imageRef" : "2021~October~2021-10-25~2~150",
      "isClean" : true,
      "latLng" : "26.9908522,75.769743",
      "locality" : " Murlipura",
      "time" : "12:01",
      "user" : "RxDvTuUUsCTs9GcCg5g0iG9fA3t2",
      "ward" : "7",
      "zone" : "Murlipura"
    },
    "151" : {
      "address" : "67, Kundan Nagar",
      "imageRef" : "2021~October~2021-10-25~2~151",
      "isClean" : false,
      "latLng" : "26.8233816,75.7931953",
      "locality" : " Kundan Nagar",
      "time" : "12:01",
      "user" : "n8U24UXDq5OckN6Yw6pdO2b0Swg2",
      "ward" : "104",
      "zone" : "Jagatpura"
    },
    "152" : {
      "address" : "VP5M+QPF, Manyawas",
      "imageRef" : "2021~October~2021-10-25~2~152",
      "isClean" : true,
      "latLng" : "26.8591545,75.734046",
      "locality" : " Manyawas",
      "time" : "12:02",
      "user" : "OeCnghJYjVcG0jAsX9gPY6vGDnl2",
      "ward" : "71",
      "zone" : "Mansarovar"
    },
    "153" : {
      "address" : "45,tejaji ka bada, sanganer 45,tejaji ka bada, Sanganer",
      "imageRef" : "2021~October~2021-10-25~2~153",
      "isClean" : true,
      "latLng" : "26.8088265,75.7860203",
      "locality" : " Sanganer",
      "time" : "12:02",
      "user" : "EY0cg0gEW0WKz60icDpLpkaWSij2",
      "ward" : "94",
      "zone" : "Sanganer"
    },
    "154" : {
      "address" : "Shop No. H-12, Rajdhani Anaj Mandi Road, No. 9, Sikar Rd, Anaj Mandi, Murlipura",
      "imageRef" : "2021~October~2021-10-25~2~154",
      "isClean" : true,
      "latLng" : "26.9908522,75.769743",
      "locality" : " Murlipura",
      "time" : "12:03",
      "user" : "RxDvTuUUsCTs9GcCg5g0iG9fA3t2",
      "ward" : "7",
      "zone" : "Murlipura"
    },
    "155" : {
      "address" : "100, Durga Vihar, Hardev Colony, Jagatpura",
      "imageRef" : "2021~October~2021-10-25~2~155",
      "isClean" : false,
      "latLng" : "26.8291379,75.7951331",
      "locality" : " Jagatpura",
      "time" : "12:03",
      "user" : "n8U24UXDq5OckN6Yw6pdO2b0Swg2",
      "ward" : "104",
      "zone" : "Jagatpura"
    },
    "156" : {
      "address" : "259, Triveni Nagar, New Aatish Market, Shanthi Nagar, Mansarovar",
      "imageRef" : "2021~October~2021-10-25~2~156",
      "isClean" : true,
      "latLng" : "26.8787094,75.7594051",
      "locality" : " Mansarovar",
      "time" : "12:03",
      "user" : "LB5ZuA5FjaclXAeRLRT2dIRkowk2",
      "ward" : "Not Found",
      "zone" : "Not Found"
    },
    "157" : {
      "address" : "VP5M+QPF, Manyawas",
      "imageRef" : "2021~October~2021-10-25~2~157",
      "isClean" : true,
      "latLng" : "26.8591545,75.734046",
      "locality" : " Manyawas",
      "time" : "12:04",
      "user" : "OeCnghJYjVcG0jAsX9gPY6vGDnl2",
      "ward" : "71",
      "zone" : "Mansarovar"
    },
    "158" : {
      "address" : "54-C, Kundan Nagar",
      "imageRef" : "2021~October~2021-10-25~2~158",
      "isClean" : false,
      "latLng" : "26.8290442,75.7939884",
      "locality" : " Kundan Nagar",
      "time" : "12:05",
      "user" : "n8U24UXDq5OckN6Yw6pdO2b0Swg2",
      "ward" : "104",
      "zone" : "Jagatpura"
    },
    "159" : {
      "address" : "Tejaji ka bada, Sanganer",
      "imageRef" : "2021~October~2021-10-25~2~159",
      "isClean" : true,
      "latLng" : "26.8087524,75.7852937",
      "locality" : " Sanganer",
      "time" : "12:05",
      "user" : "EY0cg0gEW0WKz60icDpLpkaWSij2",
      "ward" : "94",
      "zone" : "Sanganer"
    },
    "160" : {
      "address" : "B - 11, 9 Number, Sikar Rd, Anaj Mandi, Murlipura",
      "imageRef" : "2021~October~2021-10-25~2~160",
      "isClean" : true,
      "latLng" : "26.9915222,75.7674363",
      "locality" : " Murlipura",
      "time" : "12:06",
      "user" : "RxDvTuUUsCTs9GcCg5g0iG9fA3t2",
      "ward" : "7",
      "zone" : "Murlipura"
    },
    "161" : {
      "address" : "VP4P+6XP, Manyawas",
      "imageRef" : "2021~October~2021-10-25~2~161",
      "isClean" : true,
      "latLng" : "26.8554959,75.7373316",
      "locality" : " Manyawas",
      "time" : "12:06",
      "user" : "OeCnghJYjVcG0jAsX9gPY6vGDnl2",
      "ward" : "71",
      "zone" : "Mansarovar"
    },
    "162" : {
      "address" : "Jain Hostel Rd, Nagar Nigam, Bambala",
      "imageRef" : "2021~October~2021-10-25~2~162",
      "isClean" : true,
      "latLng" : "26.8095202,75.7892899",
      "locality" : " Bambala",
      "time" : "12:06",
      "user" : "EY0cg0gEW0WKz60icDpLpkaWSij2",
      "ward" : "94",
      "zone" : "Sanganer"
    },
    "163" : {
      "address" : "B - 11, 9 Number, Sikar Rd, Anaj Mandi, Murlipura",
      "imageRef" : "2021~October~2021-10-25~2~163",
      "isClean" : true,
      "latLng" : "26.9915222,75.7674363",
      "locality" : " Murlipura",
      "time" : "12:07",
      "user" : "RxDvTuUUsCTs9GcCg5g0iG9fA3t2",
      "ward" : "7",
      "zone" : "Murlipura"
    },
    "164" : {
      "address" : "VP4P+6XP, Manyawas",
      "imageRef" : "2021~October~2021-10-25~2~164",
      "isClean" : true,
      "latLng" : "26.8554959,75.7373316",
      "locality" : " Manyawas",
      "time" : "12:07",
      "user" : "OeCnghJYjVcG0jAsX9gPY6vGDnl2",
      "ward" : "71",
      "zone" : "Mansarovar"
    },
    "166" : {
      "address" : "VQ97+H3R, Shanthi Nagar, Mansarovar",
      "imageRef" : "2021~October~2021-10-25~2~166",
      "isClean" : true,
      "latLng" : "26.8688824,75.7628478",
      "locality" : " Mansarovar",
      "time" : "12:09",
      "user" : "LB5ZuA5FjaclXAeRLRT2dIRkowk2",
      "ward" : "Not Found",
      "zone" : "Not Found"
    },
    "167" : {
      "address" : "Vande Mataram Marg, Giriraj Nagar, Dholai",
      "imageRef" : "2021~October~2021-10-25~2~167",
      "isClean" : true,
      "latLng" : "26.8482071,75.7417366",
      "locality" : " Dholai",
      "time" : "12:09",
      "user" : "OeCnghJYjVcG0jAsX9gPY6vGDnl2",
      "ward" : "71",
      "zone" : "Mansarovar"
    },
    "168" : {
      "address" : "H-1, Sector 1 Main Rd, Sector 2, Vijay Bari, Vidyadhar Nagar",
      "imageRef" : "2021~October~2021-10-25~2~168",
      "isClean" : true,
      "latLng" : "26.963551,75.7734238",
      "locality" : " Vidyadhar Nagar",
      "time" : "12:10",
      "user" : "AfGurwTzesfcNInqIkyjFGXDoub2",
      "ward" : "21",
      "zone" : "Murlipura"
    },
    "169" : {
      "address" : "Mohan Beri, Near Senior Secondary School, Dada Gurudev Nagar, Sanganer",
      "imageRef" : "2021~October~2021-10-25~2~169",
      "isClean" : true,
      "latLng" : "26.8156087,75.7889266",
      "locality" : " Sanganer",
      "time" : "12:10",
      "user" : "EY0cg0gEW0WKz60icDpLpkaWSij2",
      "ward" : "93",
      "zone" : "Sanganer"
    },
    "170" : {
      "address" : "Mohan Beri, Near Senior Secondary School, Dada Gurudev Nagar, Sanganer",
      "imageRef" : "2021~October~2021-10-25~2~170",
      "isClean" : true,
      "latLng" : "26.8156087,75.7889266",
      "locality" : " Sanganer",
      "time" : "12:11",
      "user" : "EY0cg0gEW0WKz60icDpLpkaWSij2",
      "ward" : "93",
      "zone" : "Sanganer"
    },
    "171" : {
      "address" : "Vande Mataram Marg, Giriraj Nagar, Dholai",
      "imageRef" : "2021~October~2021-10-25~2~171",
      "isClean" : true,
      "latLng" : "26.8482071,75.7417366",
      "locality" : " Dholai",
      "time" : "12:12",
      "user" : "OeCnghJYjVcG0jAsX9gPY6vGDnl2",
      "ward" : "71",
      "zone" : "Mansarovar"
    },
    "172" : {
      "address" : "Mohan Beri, Near Senior Secondary School, Dada Gurudev Nagar, Sanganer",
      "imageRef" : "2021~October~2021-10-25~2~172",
      "isClean" : true,
      "latLng" : "26.815969,75.7889266",
      "locality" : " Sanganer",
      "time" : "12:12",
      "user" : "EY0cg0gEW0WKz60icDpLpkaWSij2",
      "ward" : "90",
      "zone" : "Sanganer"
    },
    "173" : {
      "address" : "2/61, Sector 2, Vijay Bari, Vidyadhar Nagar",
      "imageRef" : "2021~October~2021-10-25~2~173",
      "isClean" : true,
      "latLng" : "26.9591029,75.7745489",
      "locality" : " Vidyadhar Nagar",
      "time" : "12:12",
      "user" : "AfGurwTzesfcNInqIkyjFGXDoub2",
      "ward" : "21",
      "zone" : "Murlipura"
    },
    "174" : {
      "address" : "Vande Mataram Marg, Giriraj Nagar, Dholai",
      "imageRef" : "2021~October~2021-10-25~2~174",
      "isClean" : true,
      "latLng" : "26.8482071,75.7417366",
      "locality" : " Dholai",
      "time" : "12:12",
      "user" : "OeCnghJYjVcG0jAsX9gPY6vGDnl2",
      "ward" : "71",
      "zone" : "Mansarovar"
    },
    "175" : {
      "address" : "VQ97+H3R, Shanthi Nagar, Mansarovar",
      "imageRef" : "2021~October~2021-10-25~2~175",
      "isClean" : true,
      "latLng" : "26.8688824,75.7628478",
      "locality" : " Mansarovar",
      "time" : "12:13",
      "user" : "LB5ZuA5FjaclXAeRLRT2dIRkowk2",
      "ward" : "Not Found",
      "zone" : "Not Found"
    },
    "176" : {
      "address" : "2/64, Sector 2, Vijay Bari, Vidyadhar Nagar",
      "imageRef" : "2021~October~2021-10-25~2~176",
      "isClean" : true,
      "latLng" : "26.9592619,75.7741519",
      "locality" : " Vidyadhar Nagar",
      "time" : "12:14",
      "user" : "AfGurwTzesfcNInqIkyjFGXDoub2",
      "ward" : "21",
      "zone" : "Murlipura"
    },
    "177" : {
      "address" : "18, Ajmer Rd, Bhairav Nagar, Bhakrota",
      "imageRef" : "2021~October~2021-10-25~2~177",
      "isClean" : true,
      "latLng" : "26.8691598,75.6926247",
      "locality" : " Bhakrota",
      "time" : "12:15",
      "user" : "f63WCJ0Lynd58cD0s0IXlxY2ANp2",
      "ward" : "67",
      "zone" : "Mansarovar"
    },
    "178" : {
      "address" : "2/143, Sector 2, Vidyadhar Nagar",
      "imageRef" : "2021~October~2021-10-25~2~178",
      "isClean" : true,
      "latLng" : "26.9603558,75.7748376",
      "locality" : " Vidyadhar Nagar",
      "time" : "12:16",
      "user" : "AfGurwTzesfcNInqIkyjFGXDoub2",
      "ward" : "21",
      "zone" : "Murlipura"
    },
    "179" : {
      "address" : "Mohan Beri, Near Senior Secondary School, Dada Gurudev Nagar, Sanganer",
      "imageRef" : "2021~October~2021-10-25~2~179",
      "isClean" : true,
      "latLng" : "26.8156087,75.7889266",
      "locality" : " Sanganer",
      "time" : "12:16",
      "user" : "EY0cg0gEW0WKz60icDpLpkaWSij2",
      "ward" : "93",
      "zone" : "Sanganer"
    },
    "180" : {
      "address" : "Jawahar Circle, Vishnu Enclave, Jawahar Circle, Malviya Nagar",
      "imageRef" : "2021~October~2021-10-25~2~180",
      "isClean" : true,
      "latLng" : "26.8423375,75.8017037",
      "locality" : " Malviya Nagar",
      "time" : "12:16",
      "user" : "IfTaCIc9ildHleifFcUvTbvprz43",
      "ward" : "125",
      "zone" : "Malviya Nagar"
    },
    "181" : {
      "address" : "Near, Jawahar Circle, Sector 7, Malviya Nagar",
      "imageRef" : "2021~October~2021-10-25~2~181",
      "isClean" : true,
      "latLng" : "26.8411294,75.806",
      "locality" : " Malviya Nagar",
      "time" : "12:16",
      "user" : "j7hB3Z4P3OdvSGPcavXtaHNuGBt2",
      "ward" : "125",
      "zone" : "Malviya Nagar"
    },
    "182" : {
      "address" : "F-96, Rd Number 7, near Om Toyota, Vishwakarma Industrial Area",
      "imageRef" : "2021~October~2021-10-25~2~182",
      "isClean" : true,
      "latLng" : "26.9827485,75.7757615",
      "locality" : " Vishwakarma Industrial Area",
      "time" : "12:17",
      "user" : "RxDvTuUUsCTs9GcCg5g0iG9fA3t2",
      "ward" : "8",
      "zone" : "Murlipura"
    },
    "183" : {
      "address" : "F-96, Rd Number 7, near Om Toyota, Vishwakarma Industrial Area",
      "imageRef" : "2021~October~2021-10-25~2~183",
      "isClean" : true,
      "latLng" : "26.9826806,75.7757289",
      "locality" : " Vishwakarma Industrial Area",
      "time" : "12:17",
      "user" : "RxDvTuUUsCTs9GcCg5g0iG9fA3t2",
      "ward" : "8",
      "zone" : "Murlipura"
    },
    "184" : {
      "address" : "C-24 Gokul Vatika, Jawahar Circle, Jawahar Lal Nehru Marg, Sector 8, Durgapura",
      "imageRef" : "2021~October~2021-10-25~2~184",
      "isClean" : true,
      "latLng" : "26.8423676,75.8013994",
      "locality" : " Durgapura",
      "time" : "12:18",
      "user" : "QMfpXg6WqQgOMlD3OHLmEVOZwiq2",
      "ward" : "125",
      "zone" : "Malviya Nagar"
    },
    "185" : {
      "address" : "VQ97+H3R, Shanthi Nagar, Mansarovar",
      "imageRef" : "2021~October~2021-10-25~2~185",
      "isClean" : true,
      "latLng" : "26.8688824,75.7628478",
      "locality" : " Mansarovar",
      "time" : "12:18",
      "user" : "LB5ZuA5FjaclXAeRLRT2dIRkowk2",
      "ward" : "Not Found",
      "zone" : "Not Found"
    },
    "186" : {
      "address" : "C-24 Gokul Vatika, Jawahar Circle, Jawahar Lal Nehru Marg, Sector 8, Durgapura",
      "imageRef" : "2021~October~2021-10-25~2~186",
      "isClean" : true,
      "latLng" : "26.8423676,75.8013994",
      "locality" : " Durgapura",
      "time" : "12:19",
      "user" : "QMfpXg6WqQgOMlD3OHLmEVOZwiq2",
      "ward" : "125",
      "zone" : "Malviya Nagar"
    },
    "187" : {
      "address" : "100, Ganesh Park Rd, Sector 2, Vijay Bari, Vidyadhar Nagar",
      "imageRef" : "2021~October~2021-10-25~2~187",
      "isClean" : true,
      "latLng" : "26.9597912,75.7760687",
      "locality" : " Vidyadhar Nagar",
      "time" : "12:20",
      "user" : "AfGurwTzesfcNInqIkyjFGXDoub2",
      "ward" : "21",
      "zone" : "Murlipura"
    },
    "188" : {
      "address" : "F-96, Rd Number 7, near Om Toyota, Vishwakarma Industrial Area",
      "imageRef" : "2021~October~2021-10-25~2~188",
      "isClean" : true,
      "latLng" : "26.9826806,75.7757289",
      "locality" : " Vishwakarma Industrial Area",
      "time" : "12:20",
      "user" : "RxDvTuUUsCTs9GcCg5g0iG9fA3t2",
      "ward" : "8",
      "zone" : "Murlipura"
    },
    "189" : {
      "address" : "BLOCK-8, NIRMAN VIHAR-1, Sector 2, Vijay Bari, Vidyadhar Nagar",
      "imageRef" : "2021~October~2021-10-25~2~189",
      "isClean" : true,
      "latLng" : "26.961455,75.7774796",
      "locality" : " Vidyadhar Nagar",
      "time" : "12:21",
      "user" : "AfGurwTzesfcNInqIkyjFGXDoub2",
      "ward" : "21",
      "zone" : "Murlipura"
    },
    "190" : {
      "address" : "RRH4+69P, Jagatpura",
      "imageRef" : "2021~October~2021-10-25~2~190",
      "isClean" : true,
      "latLng" : "26.8281597,75.806199",
      "locality" : " Jagatpura",
      "time" : "12:21",
      "user" : "IfTaCIc9ildHleifFcUvTbvprz43",
      "ward" : "105",
      "zone" : "Jagatpura"
    },
    "191" : {
      "address" : "VQ97+H3R, Shanthi Nagar, Mansarovar",
      "imageRef" : "2021~October~2021-10-25~2~191",
      "isClean" : true,
      "latLng" : "26.8688824,75.7628478",
      "locality" : " Mansarovar",
      "time" : "12:22",
      "user" : "LB5ZuA5FjaclXAeRLRT2dIRkowk2",
      "ward" : "Not Found",
      "zone" : "Not Found"
    },
    "192" : {
      "address" : "F-78-A, Rd Number 5, Vishwakarma Industrial Area",
      "imageRef" : "2021~October~2021-10-25~2~192",
      "isClean" : true,
      "latLng" : "26.9807517,75.7774008",
      "locality" : " Vishwakarma Industrial Area",
      "time" : "12:22",
      "user" : "RxDvTuUUsCTs9GcCg5g0iG9fA3t2",
      "ward" : "8",
      "zone" : "Murlipura"
    },
    "193" : {
      "address" : "Sanganer Ct Ln, Shyam Nagar, Sanganer, Bambala",
      "imageRef" : "2021~October~2021-10-25~2~193",
      "isClean" : true,
      "latLng" : "26.7929201,75.8010541",
      "locality" : " Bambala",
      "time" : "12:23",
      "user" : "bKMm4RGBkcbqQ85cASW4mhP5WLy2",
      "ward" : "98",
      "zone" : "Sanganer"
    },
    "194" : {
      "address" : "Ganga Marg, Ghat Ki Guni",
      "imageRef" : "2021~October~2021-10-25~2~194",
      "isClean" : false,
      "latLng" : "26.8358733,75.8357829",
      "locality" : " Ghat Ki Guni",
      "time" : "12:23",
      "user" : "0fwKH9Zi3hZBdTXlse3SMQJ0zjr1",
      "ward" : "113",
      "zone" : "Jagatpura"
    },
    "195" : {
      "address" : "F-78-A, Rd Number 5, Vishwakarma Industrial Area",
      "imageRef" : "2021~October~2021-10-25~2~195",
      "isClean" : true,
      "latLng" : "26.9807517,75.7774008",
      "locality" : " Vishwakarma Industrial Area",
      "time" : "12:23",
      "user" : "RxDvTuUUsCTs9GcCg5g0iG9fA3t2",
      "ward" : "8",
      "zone" : "Murlipura"
    },
    "196" : {
      "address" : "Sanganer Ct Ln, Shyam Nagar, Sanganer, Bambala",
      "imageRef" : "2021~October~2021-10-25~2~196",
      "isClean" : true,
      "latLng" : "26.7929201,75.8010541",
      "locality" : " Bambala",
      "time" : "12:25",
      "user" : "bKMm4RGBkcbqQ85cASW4mhP5WLy2",
      "ward" : "98",
      "zone" : "Sanganer"
    },
    "197" : {
      "address" : "Ganga Marg, Ghat Ki Guni",
      "imageRef" : "2021~October~2021-10-25~2~197",
      "isClean" : true,
      "latLng" : "26.8358733,75.8357829",
      "locality" : " Ghat Ki Guni",
      "time" : "12:26",
      "user" : "0fwKH9Zi3hZBdTXlse3SMQJ0zjr1",
      "ward" : "113",
      "zone" : "Jagatpura"
    },
    "198" : {
      "address" : "53,Dwarakapuri Benad Road Dadi Ka Phatak Jhotwara, Dwarikapuri, Anand Vihar, Jhotwara",
      "imageRef" : "2021~October~2021-10-25~2~198",
      "isClean" : true,
      "latLng" : "26.9676381,75.7540469",
      "locality" : " Jhotwara",
      "time" : "12:27",
      "user" : "ev0wnTlCHecAviBhj2QYe4lEAj13",
      "ward" : "14",
      "zone" : "Murlipura"
    },
    "199" : {
      "address" : "police station, 1, Sanganer",
      "imageRef" : "2021~October~2021-10-25~2~199",
      "isClean" : true,
      "latLng" : "26.8282767,75.8053105",
      "locality" : " Sanganer",
      "time" : "12:27",
      "user" : "n8U24UXDq5OckN6Yw6pdO2b0Swg2",
      "ward" : "105",
      "zone" : "Jagatpura"
    },
    "200" : {
      "address" : "police station, 1, Sanganer",
      "imageRef" : "2021~October~2021-10-25~2~200",
      "isClean" : true,
      "latLng" : "26.8282767,75.8053105",
      "locality" : " Sanganer",
      "time" : "12:28",
      "user" : "n8U24UXDq5OckN6Yw6pdO2b0Swg2",
      "ward" : "105",
      "zone" : "Jagatpura"
    },
    "201" : {
      "address" : "VQ97+H3R, Shanthi Nagar, Mansarovar",
      "imageRef" : "2021~October~2021-10-25~2~201",
      "isClean" : true,
      "latLng" : "26.8688824,75.7628478",
      "locality" : " Mansarovar",
      "time" : "12:29",
      "user" : "LB5ZuA5FjaclXAeRLRT2dIRkowk2",
      "ward" : "Not Found",
      "zone" : "Not Found"
    },
    "202" : {
      "address" : "Ganga Marg, Ghat Ki Guni",
      "imageRef" : "2021~October~2021-10-25~2~202",
      "isClean" : false,
      "latLng" : "26.8358733,75.8357829",
      "locality" : " Ghat Ki Guni",
      "time" : "12:32",
      "user" : "0fwKH9Zi3hZBdTXlse3SMQJ0zjr1",
      "ward" : "113",
      "zone" : "Jagatpura"
    },
    "203" : {
      "address" : "18, Ajmer Rd, Bhairav Nagar, Bhakrota",
      "imageRef" : "2021~October~2021-10-25~2~203",
      "isClean" : true,
      "latLng" : "26.869164,75.6926234",
      "locality" : " Bhakrota",
      "time" : "12:32",
      "user" : "f63WCJ0Lynd58cD0s0IXlxY2ANp2",
      "ward" : "67",
      "zone" : "Mansarovar"
    },
    "204" : {
      "address" : "VQ97+H3R, Shanthi Nagar, Mansarovar",
      "imageRef" : "2021~October~2021-10-25~2~204",
      "isClean" : true,
      "latLng" : "26.8688824,75.7628478",
      "locality" : " Mansarovar",
      "time" : "12:34",
      "user" : "LB5ZuA5FjaclXAeRLRT2dIRkowk2",
      "ward" : "Not Found",
      "zone" : "Not Found"
    },
    "205" : {
      "address" : "Ganga Marg, Ghat Ki Guni",
      "imageRef" : "2021~October~2021-10-25~2~205",
      "isClean" : false,
      "latLng" : "26.8358733,75.8357829",
      "locality" : " Ghat Ki Guni",
      "time" : "12:36",
      "user" : "0fwKH9Zi3hZBdTXlse3SMQJ0zjr1",
      "ward" : "113",
      "zone" : "Jagatpura"
    },
    "206" : {
      "address" : "56, Parvati Nagar, Jagatpura",
      "imageRef" : "2021~October~2021-10-25~2~206",
      "isClean" : false,
      "latLng" : "26.8266801,75.833967",
      "locality" : " Jagatpura",
      "time" : "12:36",
      "user" : "0fwKH9Zi3hZBdTXlse3SMQJ0zjr1",
      "ward" : "105",
      "zone" : "Jagatpura"
    },
    "207" : {
      "address" : "B59, Murlipura Scheme, Jamna Puri",
      "imageRef" : "2021~October~2021-10-25~2~207",
      "isClean" : true,
      "latLng" : "26.9746951,75.7771823",
      "locality" : " Jamna Puri",
      "time" : "12:42",
      "user" : "RxDvTuUUsCTs9GcCg5g0iG9fA3t2",
      "ward" : "8",
      "zone" : "Murlipura"
    },
    "208" : {
      "address" : "316, Ram Marg, Sector 2, Vijay Bari, Vidyadhar Nagar",
      "imageRef" : "2021~October~2021-10-25~2~208",
      "isClean" : true,
      "latLng" : "26.9628188,75.7753434",
      "locality" : " Vidyadhar Nagar",
      "time" : "12:43",
      "user" : "AfGurwTzesfcNInqIkyjFGXDoub2",
      "ward" : "21",
      "zone" : "Murlipura"
    },
    "209" : {
      "address" : "1, Sector-9, Vishwakarma Industrial Area, Vidyadhar Nagar",
      "imageRef" : "2021~October~2021-10-25~2~209",
      "isClean" : true,
      "latLng" : "26.9699433,75.7817317",
      "locality" : " Vidyadhar Nagar",
      "time" : "12:46",
      "user" : "RxDvTuUUsCTs9GcCg5g0iG9fA3t2",
      "ward" : "8",
      "zone" : "Murlipura"
    },
    "210" : {
      "address" : "KANAK-VIRNDAVAN LALIT MOHAN DOVTYA 37 JAM VIHAR COLONY NEAR N.K.PUBLICK SCHOOL, behind NAGAR NIGAM STEDIUM, Asind Nagar, Sanganer",
      "imageRef" : "2021~October~2021-10-25~2~210",
      "isClean" : true,
      "latLng" : "26.8223703,75.7845671",
      "locality" : " Sanganer",
      "time" : "12:46",
      "user" : "EY0cg0gEW0WKz60icDpLpkaWSij2",
      "ward" : "90",
      "zone" : "Sanganer"
    },
    "211" : {
      "address" : "167, Ganesh Park Rd, Sector 2, Central Spine, Vidyadhar Nagar",
      "imageRef" : "2021~October~2021-10-25~2~211",
      "isClean" : true,
      "latLng" : "26.9618292,75.7786748",
      "locality" : " Vidyadhar Nagar",
      "time" : "12:52",
      "user" : "AfGurwTzesfcNInqIkyjFGXDoub2",
      "ward" : "21",
      "zone" : "Murlipura"
    },
    "212" : {
      "address" : "A-15, Sector 2, Central Spine, Vidyadhar Nagar",
      "imageRef" : "2021~October~2021-10-25~2~212",
      "isClean" : true,
      "latLng" : "26.9616226,75.7789551",
      "locality" : " Vidyadhar Nagar",
      "time" : "12:55",
      "user" : "AfGurwTzesfcNInqIkyjFGXDoub2",
      "ward" : "21",
      "zone" : "Murlipura"
    },
    "213" : {
      "address" : "93, Krishna Sagar Colony, Dholai",
      "imageRef" : "2021~October~2021-10-25~2~213",
      "isClean" : true,
      "latLng" : "26.8384971,75.7501393",
      "locality" : " Dholai",
      "time" : "12:55",
      "user" : "OeCnghJYjVcG0jAsX9gPY6vGDnl2",
      "ward" : "74",
      "zone" : "Mansarovar"
    },
    "214" : {
      "address" : "10/1, Sector 10, Vishwakarma Industrial Area",
      "imageRef" : "2021~October~2021-10-25~2~214",
      "isClean" : true,
      "latLng" : "26.967693,75.7869532",
      "locality" : " Vishwakarma Industrial Area",
      "time" : "12:57",
      "user" : "RxDvTuUUsCTs9GcCg5g0iG9fA3t2",
      "ward" : "8",
      "zone" : "Murlipura"
    },
    "215" : {
      "address" : "93, Krishna Sagar Colony, Dholai",
      "imageRef" : "2021~October~2021-10-25~2~215",
      "isClean" : true,
      "latLng" : "26.8384971,75.7501393",
      "locality" : " Dholai",
      "time" : "12:57",
      "user" : "OeCnghJYjVcG0jAsX9gPY6vGDnl2",
      "ward" : "74",
      "zone" : "Mansarovar"
    },
    "216" : {
      "address" : "93, Krishna Sagar Colony, Dholai",
      "imageRef" : "2021~October~2021-10-25~2~216",
      "isClean" : true,
      "latLng" : "26.8384971,75.7501393",
      "locality" : " Dholai",
      "time" : "12:58",
      "user" : "OeCnghJYjVcG0jAsX9gPY6vGDnl2",
      "ward" : "74",
      "zone" : "Mansarovar"
    },
    "217" : {
      "address" : "6-142, 6-142, Sector 2 Rd, Sector 2, Sector 6, Vidyadhar Nagar",
      "imageRef" : "2021~October~2021-10-25~2~217",
      "isClean" : true,
      "latLng" : "26.966599,75.7768983",
      "locality" : " Vidyadhar Nagar",
      "time" : "12:58",
      "user" : "AfGurwTzesfcNInqIkyjFGXDoub2",
      "ward" : "8",
      "zone" : "Murlipura"
    },
    "218" : {
      "address" : "49 Sagar Enclave, Muhana Rd, Dholai",
      "imageRef" : "2021~October~2021-10-25~2~218",
      "isClean" : true,
      "latLng" : "26.8405602,75.747506",
      "locality" : " Dholai",
      "time" : "12:58",
      "user" : "OeCnghJYjVcG0jAsX9gPY6vGDnl2",
      "ward" : "74",
      "zone" : "Mansarovar"
    },
    "219" : {
      "address" : "Ganga Jamuna Colony Dadi Ka Phatak Murlipura, Ganga Jamuna Colony, Murlipura",
      "imageRef" : "2021~October~2021-10-25~2~219",
      "isClean" : true,
      "latLng" : "26.968326,75.7546793",
      "locality" : " Murlipura",
      "time" : "12:59",
      "user" : "5O4HmxdGWmcOa1J2WhJr16wb8uG3",
      "ward" : "15",
      "zone" : "Murlipura"
    },
    "220" : {
      "address" : "49 Sagar Enclave, Muhana Rd, Dholai",
      "imageRef" : "2021~October~2021-10-25~2~220",
      "isClean" : true,
      "latLng" : "26.8405602,75.747506",
      "locality" : " Dholai",
      "time" : "12:59",
      "user" : "OeCnghJYjVcG0jAsX9gPY6vGDnl2",
      "ward" : "74",
      "zone" : "Mansarovar"
    },
    "221" : {
      "address" : "76, Dhawas, Vikash Nagar-D, Amrapali Circle, Vaishali Nagar",
      "imageRef" : "2021~October~2021-10-25~2~221",
      "isClean" : true,
      "latLng" : "26.8925501,75.7256914",
      "locality" : " Vaishali Nagar",
      "time" : "13:00",
      "user" : "f63WCJ0Lynd58cD0s0IXlxY2ANp2",
      "ward" : "59",
      "zone" : "Jhotwara"
    },
    "222" : {
      "address" : "10/1, Sector 10, Vishwakarma Industrial Area",
      "imageRef" : "2021~October~2021-10-25~2~222",
      "isClean" : true,
      "latLng" : "26.967693,75.7869532",
      "locality" : " Vishwakarma Industrial Area",
      "time" : "13:00",
      "user" : "RxDvTuUUsCTs9GcCg5g0iG9fA3t2",
      "ward" : "8",
      "zone" : "Murlipura"
    },
    "223" : {
      "address" : "Hanuman Park, Sector 2",
      "imageRef" : "2021~October~2021-10-25~2~223",
      "isClean" : true,
      "latLng" : "26.9662362,75.7770608",
      "locality" : " Sector 2",
      "time" : "13:01",
      "user" : "AfGurwTzesfcNInqIkyjFGXDoub2",
      "ward" : "8",
      "zone" : "Murlipura"
    },
    "224" : {
      "address" : "B8, Central Spine Rd, Sector 2, Central Spine, Vidyadhar Nagar",
      "imageRef" : "2021~October~2021-10-25~2~224",
      "isClean" : true,
      "latLng" : "26.9677536,75.7840245",
      "locality" : " Vidyadhar Nagar",
      "time" : "13:01",
      "user" : "RxDvTuUUsCTs9GcCg5g0iG9fA3t2",
      "ward" : "8",
      "zone" : "Murlipura"
    },
    "225" : {
      "address" : "E, 201 , Mahima Elanza, Vande Mataram Marg, Goliyawas, Dholai",
      "imageRef" : "2021~October~2021-10-25~2~225",
      "isClean" : true,
      "latLng" : "26.8470265,75.7401848",
      "locality" : " Dholai",
      "time" : "13:02",
      "user" : "OeCnghJYjVcG0jAsX9gPY6vGDnl2",
      "ward" : "71",
      "zone" : "Mansarovar"
    },
    "226" : {
      "address" : "B/7/A, Dadi Ka Phatak, Murlipura",
      "imageRef" : "2021~October~2021-10-25~2~226",
      "isClean" : true,
      "latLng" : "26.9683722,75.7550925",
      "locality" : " Murlipura",
      "time" : "13:02",
      "user" : "5O4HmxdGWmcOa1J2WhJr16wb8uG3",
      "ward" : "15",
      "zone" : "Murlipura"
    },
    "227" : {
      "address" : "E, 201 , Mahima Elanza, Vande Mataram Marg, Goliyawas, Dholai",
      "imageRef" : "2021~October~2021-10-25~2~227",
      "isClean" : true,
      "latLng" : "26.8470265,75.7401848",
      "locality" : " Dholai",
      "time" : "13:02",
      "user" : "OeCnghJYjVcG0jAsX9gPY6vGDnl2",
      "ward" : "71",
      "zone" : "Mansarovar"
    },
    "228" : {
      "address" : "E, 201 , Mahima Elanza, Vande Mataram Marg, Goliyawas, Dholai",
      "imageRef" : "2021~October~2021-10-25~2~228",
      "isClean" : true,
      "latLng" : "26.8470265,75.7401848",
      "locality" : " Dholai",
      "time" : "13:03",
      "user" : "OeCnghJYjVcG0jAsX9gPY6vGDnl2",
      "ward" : "71",
      "zone" : "Mansarovar"
    },
    "229" : {
      "address" : "6/410, Sector 2, Sector 6, Vidyadhar Nagar",
      "imageRef" : "2021~October~2021-10-25~2~229",
      "isClean" : true,
      "latLng" : "26.968433,75.7787863",
      "locality" : " Vidyadhar Nagar",
      "time" : "13:04",
      "user" : "AfGurwTzesfcNInqIkyjFGXDoub2",
      "ward" : "8",
      "zone" : "Murlipura"
    },
    "230" : {
      "address" : "76, Dhawas, Vikash Nagar-D, Amrapali Circle, Vaishali Nagar",
      "imageRef" : "2021~October~2021-10-25~2~230",
      "isClean" : true,
      "latLng" : "26.8929123,75.7256236",
      "locality" : " Vaishali Nagar",
      "time" : "13:04",
      "user" : "f63WCJ0Lynd58cD0s0IXlxY2ANp2",
      "ward" : "59",
      "zone" : "Jhotwara"
    },
    "231" : {
      "address" : "BALAJI Tower 1st, F 9 & 10, Vidhyadhar Nagar Sikar Road Jaipur, near Soni Manipal Hospital, Sector 2, Sector 6, Vidyadhar Nagar",
      "imageRef" : "2021~October~2021-10-25~2~231",
      "isClean" : true,
      "latLng" : "26.9702516,75.7739939",
      "locality" : " Vidyadhar Nagar",
      "time" : "13:04",
      "user" : "RxDvTuUUsCTs9GcCg5g0iG9fA3t2",
      "ward" : "8",
      "zone" : "Murlipura"
    },
    "232" : {
      "address" : "XQCF+75R, Sector 2, Sector 6, Vidyadhar Nagar",
      "imageRef" : "2021~October~2021-10-25~2~232",
      "isClean" : true,
      "latLng" : "26.9708436,75.772935",
      "locality" : " Vidyadhar Nagar",
      "time" : "13:04",
      "user" : "ev0wnTlCHecAviBhj2QYe4lEAj13",
      "ward" : "8",
      "zone" : "Murlipura"
    },
    "233" : {
      "address" : "B/7/A, Dadi Ka Phatak, Murlipura",
      "imageRef" : "2021~October~2021-10-25~2~233",
      "isClean" : true,
      "latLng" : "26.9683722,75.7550925",
      "locality" : " Murlipura",
      "time" : "13:04",
      "user" : "5O4HmxdGWmcOa1J2WhJr16wb8uG3",
      "ward" : "15",
      "zone" : "Murlipura"
    },
    "234" : {
      "address" : "XQCF+75R, Sector 2, Sector 6, Vidyadhar Nagar",
      "imageRef" : "2021~October~2021-10-25~2~234",
      "isClean" : true,
      "latLng" : "26.9708436,75.772935",
      "locality" : " Vidyadhar Nagar",
      "time" : "13:05",
      "user" : "ev0wnTlCHecAviBhj2QYe4lEAj13",
      "ward" : "8",
      "zone" : "Murlipura"
    },
    "235" : {
      "address" : "Bhura Patel Marg, Bhairav Nagar, Ayodhya Nagar",
      "imageRef" : "2021~October~2021-10-25~2~235",
      "isClean" : true,
      "latLng" : "26.9027602,75.7212172",
      "locality" : " Ayodhya Nagar",
      "time" : "13:06",
      "user" : "f63WCJ0Lynd58cD0s0IXlxY2ANp2",
      "ward" : "56",
      "zone" : "Jhotwara"
    },
    "236" : {
      "address" : "1, Sector-9, Vishwakarma Industrial Area, Vidyadhar Nagar",
      "imageRef" : "2021~October~2021-10-25~2~236",
      "isClean" : true,
      "latLng" : "26.9700338,75.7817668",
      "locality" : " Vidyadhar Nagar",
      "time" : "13:07",
      "user" : "ev0wnTlCHecAviBhj2QYe4lEAj13",
      "ward" : "8",
      "zone" : "Murlipura"
    },
    "237" : {
      "address" : "1, Sector-9, Vishwakarma Industrial Area, Vidyadhar Nagar",
      "imageRef" : "2021~October~2021-10-25~2~237",
      "isClean" : true,
      "latLng" : "26.9700338,75.7817668",
      "locality" : " Vidyadhar Nagar",
      "time" : "13:07",
      "user" : "ev0wnTlCHecAviBhj2QYe4lEAj13",
      "ward" : "8",
      "zone" : "Murlipura"
    },
    "238" : {
      "address" : "6-373, Sector 2, Sector 6, Vidyadhar Nagar",
      "imageRef" : "2021~October~2021-10-25~2~238",
      "isClean" : true,
      "latLng" : "26.9688098,75.7795194",
      "locality" : " Vidyadhar Nagar",
      "time" : "13:09",
      "user" : "AfGurwTzesfcNInqIkyjFGXDoub2",
      "ward" : "8",
      "zone" : "Murlipura"
    },
    "239" : {
      "address" : "68,Sindhu nagar, chauraha, Sikar Rd, Pratap Nagar, Murlipura",
      "imageRef" : "2021~October~2021-10-25~2~239",
      "isClean" : true,
      "latLng" : "26.9655822,75.7654613",
      "locality" : " Murlipura",
      "time" : "13:09",
      "user" : "5O4HmxdGWmcOa1J2WhJr16wb8uG3",
      "ward" : "20",
      "zone" : "Murlipura"
    },
    "240" : {
      "address" : "77/35, Ward 27, Shipra Path, Barh Devariya, Mansarovar",
      "imageRef" : "2021~October~2021-10-25~2~240",
      "isClean" : true,
      "latLng" : "26.8609134,75.7691976",
      "locality" : " Mansarovar",
      "time" : "13:10",
      "user" : "LB5ZuA5FjaclXAeRLRT2dIRkowk2",
      "ward" : "76",
      "zone" : "Mansarovar"
    },
    "241" : {
      "address" : "68,Sindhu nagar, chauraha, Sikar Rd, Pratap Nagar, Murlipura",
      "imageRef" : "2021~October~2021-10-25~2~241",
      "isClean" : true,
      "latLng" : "26.9655822,75.7654613",
      "locality" : " Murlipura",
      "time" : "13:11",
      "user" : "5O4HmxdGWmcOa1J2WhJr16wb8uG3",
      "ward" : "20",
      "zone" : "Murlipura"
    },
    "242" : {
      "address" : "77/35, Ward 27, Shipra Path, Barh Devariya, Mansarovar",
      "imageRef" : "2021~October~2021-10-25~2~242",
      "isClean" : true,
      "latLng" : "26.8609134,75.7691976",
      "locality" : " Mansarovar",
      "time" : "13:11",
      "user" : "LB5ZuA5FjaclXAeRLRT2dIRkowk2",
      "ward" : "76",
      "zone" : "Mansarovar"
    },
    "243" : {
      "address" : "2, Sikar Rd, near Tara Tent House Godown, Murlipura",
      "imageRef" : "2021~October~2021-10-25~2~243",
      "isClean" : true,
      "latLng" : "26.9741573,75.7719877",
      "locality" : " Murlipura",
      "time" : "13:12",
      "user" : "ev0wnTlCHecAviBhj2QYe4lEAj13",
      "ward" : "17",
      "zone" : "Murlipura"
    },
    "244" : {
      "address" : "199, Sikar Rd, Vidyadhar Nagar",
      "imageRef" : "2021~October~2021-10-25~2~244",
      "isClean" : true,
      "latLng" : "26.9566352,75.7714286",
      "locality" : " Vidyadhar Nagar",
      "time" : "13:13",
      "user" : "5O4HmxdGWmcOa1J2WhJr16wb8uG3",
      "ward" : "25",
      "zone" : "Vidhyadhar"
    },
    "245" : {
      "address" : "2, Sikar Rd, near Tara Tent House Godown, Murlipura",
      "imageRef" : "2021~October~2021-10-25~2~245",
      "isClean" : true,
      "latLng" : "26.9741573,75.7719877",
      "locality" : " Murlipura",
      "time" : "13:14",
      "user" : "ev0wnTlCHecAviBhj2QYe4lEAj13",
      "ward" : "17",
      "zone" : "Murlipura"
    },
    "246" : {
      "address" : "Vande Mataram Marg, Manyawas, Narayan Vihar",
      "imageRef" : "2021~October~2021-10-25~2~246",
      "isClean" : true,
      "latLng" : "26.8571317,75.7339483",
      "locality" : " Narayan Vihar",
      "time" : "13:14",
      "user" : "OeCnghJYjVcG0jAsX9gPY6vGDnl2",
      "ward" : "71",
      "zone" : "Mansarovar"
    },
    "247" : {
      "address" : "Plot no. 159 vastu shree sector G.PRN saath, Manyawas, Mansarovar",
      "imageRef" : "2021~October~2021-10-25~2~247",
      "isClean" : true,
      "latLng" : "26.8657076,75.7323466",
      "locality" : " Mansarovar",
      "time" : "13:15",
      "user" : "OeCnghJYjVcG0jAsX9gPY6vGDnl2",
      "ward" : "67",
      "zone" : "Mansarovar"
    },
    "248" : {
      "address" : "77/35, Ward 27, Shipra Path, Barh Devariya, Mansarovar",
      "imageRef" : "2021~October~2021-10-25~2~248",
      "isClean" : true,
      "latLng" : "26.8609134,75.7691976",
      "locality" : " Mansarovar",
      "time" : "13:15",
      "user" : "LB5ZuA5FjaclXAeRLRT2dIRkowk2",
      "ward" : "76",
      "zone" : "Mansarovar"
    },
    "249" : {
      "address" : "22, Vishwakarma Industrial Area, Murlipura",
      "imageRef" : "2021~October~2021-10-25~2~249",
      "isClean" : true,
      "latLng" : "26.9803186,75.7731899",
      "locality" : " Murlipura",
      "time" : "13:16",
      "user" : "ev0wnTlCHecAviBhj2QYe4lEAj13",
      "ward" : "10",
      "zone" : "Murlipura"
    },
    "250" : {
      "address" : "77/35, Ward 27, Shipra Path, Barh Devariya, Mansarovar",
      "imageRef" : "2021~October~2021-10-25~2~250",
      "isClean" : true,
      "latLng" : "26.8609134,75.7691976",
      "locality" : " Mansarovar",
      "time" : "13:16",
      "user" : "LB5ZuA5FjaclXAeRLRT2dIRkowk2",
      "ward" : "76",
      "zone" : "Mansarovar"
    },
    "251" : {
      "address" : "Lane 1, Narayan Vihar",
      "imageRef" : "2021~October~2021-10-25~2~251",
      "isClean" : true,
      "latLng" : "26.867229,75.7327168",
      "locality" : " Narayan Vihar",
      "time" : "13:17",
      "user" : "OeCnghJYjVcG0jAsX9gPY6vGDnl2",
      "ward" : "67",
      "zone" : "Mansarovar"
    },
    "252" : {
      "address" : "22, Vishwakarma Industrial Area, Murlipura",
      "imageRef" : "2021~October~2021-10-25~2~252",
      "isClean" : true,
      "latLng" : "26.9803186,75.7731899",
      "locality" : " Murlipura",
      "time" : "13:18",
      "user" : "ev0wnTlCHecAviBhj2QYe4lEAj13",
      "ward" : "10",
      "zone" : "Murlipura"
    },
    "253" : {
      "address" : "11, Lane 1, Narayan Vihar",
      "imageRef" : "2021~October~2021-10-25~2~253",
      "isClean" : true,
      "latLng" : "26.8706733,75.73197",
      "locality" : " Narayan Vihar",
      "time" : "13:19",
      "user" : "OeCnghJYjVcG0jAsX9gPY6vGDnl2",
      "ward" : "67",
      "zone" : "Mansarovar"
    },
    "254" : {
      "address" : "Unnamed Road, Narayan Vihar",
      "imageRef" : "2021~October~2021-10-25~2~254",
      "isClean" : true,
      "latLng" : "26.8713267,75.7301505",
      "locality" : " Narayan Vihar",
      "time" : "13:21",
      "user" : "OeCnghJYjVcG0jAsX9gPY6vGDnl2",
      "ward" : "67",
      "zone" : "Mansarovar"
    },
    "255" : {
      "address" : "Gopal Pura Rd, Narayan Vihar",
      "imageRef" : "2021~October~2021-10-25~2~255",
      "isClean" : true,
      "latLng" : "26.8709561,75.7291717",
      "locality" : " Narayan Vihar",
      "time" : "13:21",
      "user" : "OeCnghJYjVcG0jAsX9gPY6vGDnl2",
      "ward" : "67",
      "zone" : "Mansarovar"
    },
    "256" : {
      "address" : "105, 9 Number Sikar Rd, Anaj Mandi, Dher Ka Balaji",
      "imageRef" : "2021~October~2021-10-25~2~256",
      "isClean" : true,
      "latLng" : "26.9886391,75.7712889",
      "locality" : " Dher Ka Balaji",
      "time" : "13:22",
      "user" : "ev0wnTlCHecAviBhj2QYe4lEAj13",
      "ward" : "7",
      "zone" : "Murlipura"
    },
    "257" : {
      "address" : "pl 5, Maa Hinglaj Nagar, Lalarpura",
      "imageRef" : "2021~October~2021-10-25~2~257",
      "isClean" : true,
      "latLng" : "26.9045982,75.7183568",
      "locality" : " Lalarpura",
      "time" : "13:25",
      "user" : "f63WCJ0Lynd58cD0s0IXlxY2ANp2",
      "ward" : "53",
      "zone" : "Jhotwara"
    },
    "258" : {
      "address" : "pl 5, Maa Hinglaj Nagar, Lalarpura",
      "imageRef" : "2021~October~2021-10-25~2~258",
      "isClean" : true,
      "latLng" : "26.9046583,75.7183777",
      "locality" : " Lalarpura",
      "time" : "13:27",
      "user" : "f63WCJ0Lynd58cD0s0IXlxY2ANp2",
      "ward" : "53",
      "zone" : "Jhotwara"
    },
    "259" : {
      "address" : "Shop No. H-12, Rajdhani Anaj Mandi Road, No. 9, Sikar Rd, Anaj Mandi, Murlipura",
      "imageRef" : "2021~October~2021-10-25~2~259",
      "isClean" : true,
      "latLng" : "26.9908589,75.7697101",
      "locality" : " Murlipura",
      "time" : "13:27",
      "user" : "ev0wnTlCHecAviBhj2QYe4lEAj13",
      "ward" : "7",
      "zone" : "Murlipura"
    },