{
  "1" : {
    "1" : {
      "address" : "VR8C+936, Jhalana Gram, Malviya Nagar",
      "imageRef" : "2021~October~2021-10-18~1~1",
      "isClean" : true,
      "latLng" : "26.8659912,75.8201658",
      "locality" : " Malviya Nagar",
      "time" : "11:43",
      "user" : "umal2udO10ZJaW3ah3qMPoqGVf33",
      "ward" : "Not Found",
      "zone" : "Not Found"
    },
    "2" : {
      "address" : "L-4, Jhotwara Rd, Chitrakoot",
      "imageRef" : "2021~October~2021-10-18~1~2",
      "isClean" : true,
      "latLng" : "26.8957297,75.7341905",
      "locality" : " Chitrakoot",
      "time" : "13:14",
      "user" : "0b6XWvRirOVJkEFYilWAWDwrsNX2",
      "ward" : "57",
      "zone" : "Jhotwara"
    },
    "lastKey" : "2"
  },
  "2" : {
    "1" : {
      "address" : "Road no 17 ,near payu ka khejda, bank of baroda ke pass, Vishwakarma Industrial Area",
      "imageRef" : "2021~October~2021-10-18~2~1",
      "isAnalysis" : "yes",
      "isClean" : true,
      "latLng" : "27.0050748,75.796939",
      "locality" : " Vishwakarma Industrial Area",
      "penalty" : "100",
      "time" : "10:00",
      "user" : "H5rob2uJ8jgknIAbGnblhi40tUE2",
      "ward" : "Not Found",
      "zone" : "Not Found"
    },
    "2" : {
      "address" : "28, Vishwakarma Industrial Area",
      "imageRef" : "2021~October~2021-10-18~2~2",
      "isAnalysis" : "yes",
      "isClean" : true,
      "latLng" : "27.0069175,75.7976705",
      "locality" : " Vishwakarma Industrial Area",
      "penalty" : "100",
      "time" : "10:02",
      "user" : "H5rob2uJ8jgknIAbGnblhi40tUE2",
      "ward" : "5",
      "zone" : "Murlipura"
    },
    "3" : {
      "address" : "28, Vishwakarma Industrial Area",
      "imageRef" : "2021~October~2021-10-18~2~3",
      "isAnalysis" : "yes",
      "isClean" : true,
      "latLng" : "27.0065376,75.7980396",
      "locality" : " Vishwakarma Industrial Area",
      "penalty" : "100",
      "time" : "10:04",
      "user" : "H5rob2uJ8jgknIAbGnblhi40tUE2",
      "ward" : "Not Found",
      "zone" : "Not Found"
    },
    "4" : {
      "address" : "28, Vishwakarma Industrial Area",
      "imageRef" : "2021~October~2021-10-18~2~4",
      "isAnalysis" : "yes",
      "isClean" : true,
      "latLng" : "27.0069352,75.797689",
      "locality" : " Vishwakarma Industrial Area",
      "penalty" : "100",
      "time" : "10:09",
      "user" : "H5rob2uJ8jgknIAbGnblhi40tUE2",
      "ward" : "5",
      "zone" : "Murlipura"
    },
    "5" : {
      "address" : "H 332 B, Road No. 17, VKIA, Shree Ram Nagar - B, Vishwakarma Industrial Area",
      "imageRef" : "2021~October~2021-10-18~2~5",
      "isAnalysis" : "yes",
      "isClean" : true,
      "latLng" : "27.0000609,75.7957134",
      "locality" : " Vishwakarma Industrial Area",
      "penalty" : "100",
      "time" : "10:09",
      "user" : "H5rob2uJ8jgknIAbGnblhi40tUE2",
      "ward" : "Not Found",
      "zone" : "Not Found"
    },
    "6" : {
      "address" : "d 18, road number17, Vishal Nagar, Prem Nagar",
      "imageRef" : "2021~October~2021-10-18~2~6",
      "isClean" : true,
      "latLng" : "27.0026506,75.8003516",
      "locality" : " Prem Nagar",
      "time" : "10:13",
      "user" : "H5rob2uJ8jgknIAbGnblhi40tUE2",
      "ward" : "Not Found",
      "zone" : "Not Found"
    },
    "7" : {
      "address" : "Mansarovar, near Meera Marg, Ward 27, Mansarovar Sector 8, Mansarovar",
      "imageRef" : "2021~October~2021-10-18~2~7",
      "isClean" : true,
      "latLng" : "26.8566591,75.7662354",
      "locality" : " Mansarovar",
      "time" : "10:14",
      "user" : "eZzDR9ysuBdwPavzKl0PwU5GzG03",
      "ward" : "76",
      "zone" : "Mansarovar"
    },
    "8" : {
      "address" : "112/183, Mansarovar Sector 7, Agarwal Farm, Sector 9, Mansarovar",
      "imageRef" : "2021~October~2021-10-18~2~8",
      "isAnalysis" : "yes",
      "isClean" : true,
      "latLng" : "26.8547148,75.7696711",
      "locality" : " Mansarovar",
      "penalty" : "100",
      "time" : "10:17",
      "user" : "Tl5UT0qNdafe50GoGCw9DLzcdui2",
      "ward" : "82",
      "zone" : "Mansarovar"
    },
    "9" : {
      "address" : "Mansarovar, near Meera Marg, Ward 27, Mansarovar Sector 8, Mansarovar",
      "imageRef" : "2021~October~2021-10-18~2~9",
      "isClean" : true,
      "latLng" : "26.8566591,75.7662354",
      "locality" : " Mansarovar",
      "time" : "10:21",
      "user" : "eZzDR9ysuBdwPavzKl0PwU5GzG03",
      "ward" : "76",
      "zone" : "Mansarovar"
    },
    "10" : {
      "address" : "6/30, SMS Colony, Mansarovar",
      "imageRef" : "2021~October~2021-10-18~2~10",
      "isClean" : true,
      "latLng" : "26.8540094,75.7742912",
      "locality" : " Mansarovar",
      "time" : "10:27",
      "user" : "Tl5UT0qNdafe50GoGCw9DLzcdui2",
      "ward" : "81",
      "zone" : "Mansarovar"
    },
    "11" : {
      "address" : "6/30, SMS Colony, Mansarovar",
      "imageRef" : "2021~October~2021-10-18~2~11",
      "isAnalysis" : "yes",
      "isClean" : true,
      "latLng" : "26.8540094,75.7742912",
      "locality" : " Mansarovar",
      "penalty" : "100",
      "time" : "10:28",
      "user" : "Tl5UT0qNdafe50GoGCw9DLzcdui2",
      "ward" : "81",
      "zone" : "Mansarovar"
    },
    "12" : {
      "address" : "VQ4F+G76, Mansarovar Sector 7, Shipra Path, Barh Devariya, Mansarovar",
      "imageRef" : "2021~October~2021-10-18~2~12",
      "isAnalysis" : "yes",
      "isClean" : true,
      "latLng" : "26.8562901,75.773049",
      "locality" : " Mansarovar",
      "penalty" : "100",
      "time" : "10:33",
      "user" : "Tl5UT0qNdafe50GoGCw9DLzcdui2",
      "ward" : "82",
      "zone" : "Mansarovar"
    },
    "13" : {
      "address" : "C, 126, Gandhi Path W, Maa Hinglaj Nagar, Lalarpura",
      "imageRef" : "2021~October~2021-10-18~2~13",
      "isAnalysis" : "yes",
      "isClean" : true,
      "latLng" : "26.8986701,75.7100718",
      "locality" : " Lalarpura",
      "penalty" : "100",
      "time" : "10:34",
      "user" : "wtqzVbREAof4XGAD2bdmR1bCZb13",
      "ward" : "Not Found",
      "zone" : "Not Found"
    },
    "14" : {
      "address" : "C, 126, Gandhi Path W, Maa Hinglaj Nagar, Lalarpura",
      "imageRef" : "2021~October~2021-10-18~2~14",
      "isAnalysis" : "yes",
      "isClean" : true,
      "latLng" : "26.8986701,75.7100718",
      "locality" : " Lalarpura",
      "penalty" : "100",
      "time" : "10:34",
      "user" : "wtqzVbREAof4XGAD2bdmR1bCZb13",
      "ward" : "Not Found",
      "zone" : "Not Found"
    },
    "15" : {
      "address" : "39, Lalarpura",
      "imageRef" : "2021~October~2021-10-18~2~15",
      "isAnalysis" : "yes",
      "isClean" : true,
      "latLng" : "26.8988805,75.7145233",
      "locality" : " Lalarpura",
      "penalty" : "100",
      "time" : "10:37",
      "user" : "wtqzVbREAof4XGAD2bdmR1bCZb13",
      "ward" : "Not Found",
      "zone" : "Not Found"
    },
    "16" : {
      "address" : "45, Jhotwara Road, Heerapura, Heerawala",
      "imageRef" : "2021~October~2021-10-18~2~16",
      "isAnalysis" : "yes",
      "isClean" : true,
      "latLng" : "26.8909113,75.7350106",
      "locality" : " Heerawala",
      "penalty" : "100",
      "time" : "10:39",
      "user" : "LB5ZuA5FjaclXAeRLRT2dIRkowk2",
      "ward" : "60",
      "zone" : "Jhotwara"
    },
    "17" : {
      "address" : "VPX8+5FQ, Lalarpura",
      "imageRef" : "2021~October~2021-10-18~2~17",
      "isAnalysis" : "yes",
      "isClean" : true,
      "latLng" : "26.8978618,75.7161531",
      "locality" : " Lalarpura",
      "penalty" : "100",
      "time" : "10:40",
      "user" : "wtqzVbREAof4XGAD2bdmR1bCZb13",
      "ward" : "Not Found",
      "zone" : "Not Found"
    },
    "18" : {
      "address" : "VPX8+5FQ, Lalarpura",
      "imageRef" : "2021~October~2021-10-18~2~18",
      "isAnalysis" : "yes",
      "isClean" : true,
      "latLng" : "26.8978618,75.7161531",
      "locality" : " Lalarpura",
      "penalty" : "100",
      "time" : "10:41",
      "user" : "wtqzVbREAof4XGAD2bdmR1bCZb13",
      "ward" : "Not Found",
      "zone" : "Not Found"
    },
    "19" : {
      "address" : "VPX8+5FQ, Lalarpura",
      "imageRef" : "2021~October~2021-10-18~2~19",
      "isAnalysis" : "yes",
      "isClean" : true,
      "latLng" : "26.8978618,75.7161531",
      "locality" : " Lalarpura",
      "penalty" : "100",
      "time" : "10:42",
      "user" : "wtqzVbREAof4XGAD2bdmR1bCZb13",
      "ward" : "Not Found",
      "zone" : "Not Found"
    },
    "20" : {
      "address" : "45, Jhotwara Road, Heerapura, Heerawala",
      "imageRef" : "2021~October~2021-10-18~2~20",
      "isAnalysis" : "yes",
      "isClean" : true,
      "latLng" : "26.8909113,75.7350106",
      "locality" : " Heerawala",
      "penalty" : "100",
      "time" : "10:42",
      "user" : "LB5ZuA5FjaclXAeRLRT2dIRkowk2",
      "ward" : "60",
      "zone" : "Jhotwara"
    },
    "21" : {
      "address" : "27,28, Maharana Pratap Marg, Shree Ram Nagar - A, Sunder Nagar, Panchyawala",
      "imageRef" : "2021~October~2021-10-18~2~21",
      "isClean" : true,
      "latLng" : "26.9098125,75.7245374",
      "locality" : " Panchyawala",
      "time" : "10:55",
      "user" : "5O4HmxdGWmcOa1J2WhJr16wb8uG3",
      "ward" : "53",
      "zone" : "Jhotwara"
    },
    "22" : {
      "address" : "WING-B, JAIPUR STOCK EXCHANGE, D-Block, Crystal Court, Malviya Nagar",
      "imageRef" : "2021~October~2021-10-18~2~22",
      "isAnalysis" : "yes",
      "isClean" : true,
      "latLng" : "26.8567887,75.8066135",
      "locality" : " Malviya Nagar",
      "penalty" : "100",
      "time" : "10:57",
      "user" : "AfGurwTzesfcNInqIkyjFGXDoub2",
      "ward" : "130",
      "zone" : "Malviya Nagar"
    },
    "23" : {
      "address" : "Mansarovar, Padmavti Colony, Nirman Nagar, Ranisati Nagar",
      "imageRef" : "2021~October~2021-10-18~2~23",
      "isAnalysis" : "yes",
      "isClean" : true,
      "latLng" : "26.8798101,75.7506677",
      "locality" : " Ranisati Nagar",
      "penalty" : "100",
      "time" : "10:59",
      "user" : "LB5ZuA5FjaclXAeRLRT2dIRkowk2",
      "ward" : "64",
      "zone" : "Jhotwara"
    },
    "24" : {
      "address" : "69, nand vihar, Amrapali Marg, Nand Vihar Colony, Nemi Nagar Extension, Block A, Vaishali Nagar",
      "imageRef" : "2021~October~2021-10-18~2~24",
      "isAnalysis" : "yes",
      "isClean" : true,
      "latLng" : "26.9116419,75.7300856",
      "locality" : " Vaishali Nagar",
      "penalty" : "100",
      "time" : "10:59",
      "user" : "5O4HmxdGWmcOa1J2WhJr16wb8uG3",
      "ward" : "54",
      "zone" : "Jhotwara"
    },
    "25" : {
      "address" : "Mansarovar, Padmavti Colony, Nirman Nagar, Ranisati Nagar",
      "imageRef" : "2021~October~2021-10-18~2~25",
      "isClean" : true,
      "latLng" : "26.8798101,75.7506677",
      "locality" : " Ranisati Nagar",
      "time" : "11:01",
      "user" : "LB5ZuA5FjaclXAeRLRT2dIRkowk2",
      "ward" : "64",
      "zone" : "Jhotwara"
    },
    "26" : {
      "address" : "68, Vivekanand Marg, Laxmi Nagar, Ward Number 7, Jhotwara",
      "imageRef" : "2021~October~2021-10-18~2~26",
      "isClean" : true,
      "latLng" : "26.9599296,75.7372428",
      "locality" : " Jhotwara",
      "time" : "11:02",
      "user" : "ev0wnTlCHecAviBhj2QYe4lEAj13",
      "ward" : "19",
      "zone" : "Murlipura"
    },
    "27" : {
      "address" : "HI-101/A, Hans Vihar, RIICO Industrial Area, Mansarovar",
      "imageRef" : "2021~October~2021-10-18~2~27",
      "isAnalysis" : "yes",
      "isClean" : true,
      "latLng" : "26.8347573,75.7780428",
      "locality" : " Mansarovar",
      "penalty" : "100",
      "time" : "11:03",
      "user" : "EY0cg0gEW0WKz60icDpLpkaWSij2",
      "ward" : "84",
      "zone" : "Sanganer"
    },
    "28" : {
      "address" : "Mansarovar, Padmavti Colony, Nirman Nagar, Ranisati Nagar",
      "imageRef" : "2021~October~2021-10-18~2~28",
      "isClean" : true,
      "latLng" : "26.8798101,75.7506677",
      "locality" : " Ranisati Nagar",
      "time" : "11:04",
      "user" : "LB5ZuA5FjaclXAeRLRT2dIRkowk2",
      "ward" : "64",
      "zone" : "Jhotwara"
    },
    "29" : {
      "address" : "68, Vivekanand Marg, Laxmi Nagar, Ward Number 7, Jhotwara",
      "imageRef" : "2021~October~2021-10-18~2~29",
      "isAnalysis" : "yes",
      "isClean" : true,
      "latLng" : "26.9599296,75.7372428",
      "locality" : " Jhotwara",
      "penalty" : "100",
      "time" : "11:04",
      "user" : "ev0wnTlCHecAviBhj2QYe4lEAj13",
      "ward" : "19",
      "zone" : "Murlipura"
    },
    "30" : {
      "address" : "Mansarovar, Padmavti Colony, Nirman Nagar, Ranisati Nagar",
      "imageRef" : "2021~October~2021-10-18~2~30",
      "isClean" : true,
      "latLng" : "26.8798101,75.7506677",
      "locality" : " Ranisati Nagar",
      "time" : "11:04",
      "user" : "LB5ZuA5FjaclXAeRLRT2dIRkowk2",
      "ward" : "64",
      "zone" : "Jhotwara"
    },
    "31" : {
      "address" : "2, Telephone Colony, Barkat Nagar, Tonk Phatak",
      "imageRef" : "2021~October~2021-10-18~2~31",
      "isClean" : true,
      "latLng" : "26.8785967,75.7970016",
      "locality" : " Tonk Phatak",
      "time" : "11:04",
      "user" : "IuLu0Y5oXnOBk36uubivHnKRMZE2",
      "ward" : "141",
      "zone" : "Malviya Nagar"
    },
    "32" : {
      "address" : "Diggi Malpura Rd, Dada Gurudev Nagar, Sanganer",
      "imageRef" : "2021~October~2021-10-18~2~32",
      "isClean" : true,
      "latLng" : "26.8035659,75.7733044",
      "locality" : " Sanganer",
      "time" : "11:05",
      "user" : "HSwWpGvJO1P2lkqjZZRTT1Vt0LE3",
      "ward" : "91",
      "zone" : "Sanganer"
    },
    "33" : {
      "address" : "68, Vivekanand Marg, Laxmi Nagar, Ward Number 7, Jhotwara",
      "imageRef" : "2021~October~2021-10-18~2~33",
      "isClean" : true,
      "latLng" : "26.9599296,75.7372428",
      "locality" : " Jhotwara",
      "time" : "11:05",
      "user" : "ev0wnTlCHecAviBhj2QYe4lEAj13",
      "ward" : "19",
      "zone" : "Murlipura"
    },
    "34" : {
      "address" : "2, Telephone Colony, Barkat Nagar, Tonk Phatak",
      "imageRef" : "2021~October~2021-10-18~2~34",
      "isClean" : true,
      "latLng" : "26.8785967,75.7970016",
      "locality" : " Tonk Phatak",
      "time" : "11:05",
      "user" : "IuLu0Y5oXnOBk36uubivHnKRMZE2",
      "ward" : "141",
      "zone" : "Malviya Nagar"
    },
    "35" : {
      "address" : "415, Diggi Rd, near sawaimadhopur railway pulia, Ganesh Vihar Colony, Dada Gurudev Nagar, Sanganer",
      "imageRef" : "2021~October~2021-10-18~2~35",
      "isClean" : true,
      "latLng" : "26.8074637,75.7766004",
      "locality" : " Sanganer",
      "time" : "11:05",
      "user" : "HSwWpGvJO1P2lkqjZZRTT1Vt0LE3",
      "ward" : "92",
      "zone" : "Sanganer"
    },
    "36" : {
      "address" : "Shop No G 1 Plot No A 13 Opp Samudhik Bhawan Adarsh Bazar, Barkat Nagar, Telephone Colony, Bank Colony, Tonk Phatak",
      "imageRef" : "2021~October~2021-10-18~2~36",
      "isAnalysis" : "yes",
      "isClean" : true,
      "latLng" : "26.8774118,75.79701",
      "locality" : " Tonk Phatak",
      "penalty" : "100",
      "time" : "11:06",
      "user" : "IuLu0Y5oXnOBk36uubivHnKRMZE2",
      "ward" : "141",
      "zone" : "Malviya Nagar"
    },
    "37" : {
      "address" : "Mansarovar, Padmavti Colony, Nirman Nagar, Ranisati Nagar",
      "imageRef" : "2021~October~2021-10-18~2~37",
      "isClean" : true,
      "latLng" : "26.8798101,75.7506677",
      "locality" : " Ranisati Nagar",
      "time" : "11:06",
      "user" : "LB5ZuA5FjaclXAeRLRT2dIRkowk2",
      "ward" : "64",
      "zone" : "Jhotwara"
    },
    "38" : {
      "address" : "Mansarovar, Padmavti Colony, Nirman Nagar, Ranisati Nagar",
      "imageRef" : "2021~October~2021-10-18~2~38",
      "isClean" : true,
      "latLng" : "26.8798101,75.7506677",
      "locality" : " Ranisati Nagar",
      "time" : "11:06",
      "user" : "LB5ZuA5FjaclXAeRLRT2dIRkowk2",
      "ward" : "64",
      "zone" : "Jhotwara"
    },
    "39" : {
      "address" : "415, Diggi Rd, near sawaimadhopur railway pulia, Ganesh Vihar Colony, Dada Gurudev Nagar, Sanganer",
      "imageRef" : "2021~October~2021-10-18~2~39",
      "isClean" : true,
      "latLng" : "26.8074552,75.7765955",
      "locality" : " Sanganer",
      "time" : "11:06",
      "user" : "HSwWpGvJO1P2lkqjZZRTT1Vt0LE3",
      "ward" : "92",
      "zone" : "Sanganer"
    },
    "40" : {
      "address" : "G-4, PLOT NO. 15 SALASAR RESIDENCY, Laxmi Nagar III, Ward Number 7, Jhotwara",
      "imageRef" : "2021~October~2021-10-18~2~40",
      "isClean" : true,
      "latLng" : "26.9626809,75.7417813",
      "locality" : " Jhotwara",
      "time" : "11:07",
      "user" : "ev0wnTlCHecAviBhj2QYe4lEAj13",
      "ward" : "19",
      "zone" : "Murlipura"
    },
    "41" : {
      "address" : "Sawaimadhopur Puliya, Dada Gurudev Nagar, Sanganer",
      "imageRef" : "2021~October~2021-10-18~2~41",
      "isAnalysis" : "yes",
      "isClean" : true,
      "latLng" : "26.806247,75.7762429",
      "locality" : " Sanganer",
      "penalty" : "100",
      "time" : "11:08",
      "user" : "HSwWpGvJO1P2lkqjZZRTT1Vt0LE3",
      "ward" : "92",
      "zone" : "Sanganer"
    },
    "42" : {
      "address" : "140 OFFICERS CAMPUS JANAK MARG, Sirsi Rd, R.F.C. Colony, Hanuman Nagar Extension, Officers Campus Colony, Khatipura",
      "imageRef" : "2021~October~2021-10-18~2~42",
      "isClean" : true,
      "latLng" : "26.9205821,75.7391476",
      "locality" : " Khatipura",
      "time" : "11:08",
      "user" : "5O4HmxdGWmcOa1J2WhJr16wb8uG3",
      "ward" : "42",
      "zone" : "Vidhyadhar"
    },
    "43" : {
      "address" : "415, Diggi Rd, near sawaimadhopur railway pulia, Ganesh Vihar Colony, Dada Gurudev Nagar, Sanganer",
      "imageRef" : "2021~October~2021-10-18~2~43",
      "isClean" : true,
      "latLng" : "26.8074593,75.776595",
      "locality" : " Sanganer",
      "time" : "11:09",
      "user" : "HSwWpGvJO1P2lkqjZZRTT1Vt0LE3",
      "ward" : "92",
      "zone" : "Sanganer"
    },
    "44" : {
      "address" : "NH52, Jhotwara Industrial Area, Jhotwara",
      "imageRef" : "2021~October~2021-10-18~2~44",
      "isAnalysis" : "yes",
      "isClean" : true,
      "latLng" : "26.965513,75.7439463",
      "locality" : " Jhotwara",
      "penalty" : "100",
      "time" : "11:10",
      "user" : "ev0wnTlCHecAviBhj2QYe4lEAj13",
      "ward" : "14",
      "zone" : "Murlipura"
    },
    "45" : {
      "address" : "28, Sirsi Rd, Jai Bhawani Colony, Officers Campus Colony, Jaswant Nagar",
      "imageRef" : "2021~October~2021-10-18~2~45",
      "isClean" : true,
      "latLng" : "26.9220675,75.7425661",
      "locality" : " Jaswant Nagar",
      "time" : "11:10",
      "user" : "5O4HmxdGWmcOa1J2WhJr16wb8uG3",
      "ward" : "42",
      "zone" : "Vidhyadhar"
    },
    "46" : {
      "address" : "Shop No G 1 Plot No A 13 Opp Samudhik Bhawan Adarsh Bazar, Barkat Nagar, Telephone Colony, Bank Colony, Tonk Phatak",
      "imageRef" : "2021~October~2021-10-18~2~46",
      "isClean" : true,
      "latLng" : "26.8774118,75.79701",
      "locality" : " Tonk Phatak",
      "time" : "11:11",
      "user" : "IuLu0Y5oXnOBk36uubivHnKRMZE2",
      "ward" : "141",
      "zone" : "Malviya Nagar"
    },
    "47" : {
      "address" : "NH52, Jhotwara Industrial Area, Jhotwara",
      "imageRef" : "2021~October~2021-10-18~2~47",
      "isClean" : true,
      "latLng" : "26.965513,75.7439463",
      "locality" : " Jhotwara",
      "time" : "11:11",
      "user" : "ev0wnTlCHecAviBhj2QYe4lEAj13",
      "ward" : "14",
      "zone" : "Murlipura"
    },
    "48" : {
      "address" : "HI-101/A, Hans Vihar, RIICO Industrial Area, Mansarovar",
      "imageRef" : "2021~October~2021-10-18~2~48",
      "isClean" : true,
      "latLng" : "26.8347573,75.7780428",
      "locality" : " Mansarovar",
      "time" : "11:11",
      "user" : "EY0cg0gEW0WKz60icDpLpkaWSij2",
      "ward" : "84",
      "zone" : "Sanganer"
    },
    "49" : {
      "address" : "HI-101/A, Hans Vihar, RIICO Industrial Area, Mansarovar",
      "imageRef" : "2021~October~2021-10-18~2~49",
      "isClean" : true,
      "latLng" : "26.8347573,75.7780428",
      "locality" : " Mansarovar",
      "time" : "11:12",
      "user" : "EY0cg0gEW0WKz60icDpLpkaWSij2",
      "ward" : "84",
      "zone" : "Sanganer"
    },
    "50" : {
      "address" : "Imali Phatak, Chitragupt Nagar 1st, Imli Phatak, Tonk Phatak",
      "imageRef" : "2021~October~2021-10-18~2~50",
      "isClean" : true,
      "latLng" : "26.887234,75.7898494",
      "locality" : " Tonk Phatak",
      "time" : "11:12",
      "user" : "IuLu0Y5oXnOBk36uubivHnKRMZE2",
      "ward" : "145",
      "zone" : "Malviya Nagar"
    },
    "51" : {
      "address" : "Imali Phatak, Chitragupt Nagar 1st, Imli Phatak, Tonk Phatak",
      "imageRef" : "2021~October~2021-10-18~2~51",
      "isClean" : true,
      "latLng" : "26.887234,75.7898494",
      "locality" : " Tonk Phatak",
      "time" : "11:13",
      "user" : "IuLu0Y5oXnOBk36uubivHnKRMZE2",
      "ward" : "145",
      "zone" : "Malviya Nagar"
    },
    "52" : {
      "address" : "Diggi Malpura Rd, Dada Gurudev Nagar, Sanganer",
      "imageRef" : "2021~October~2021-10-18~2~52",
      "isClean" : true,
      "latLng" : "26.8070354,75.7767607",
      "locality" : " Sanganer",
      "time" : "11:14",
      "user" : "HSwWpGvJO1P2lkqjZZRTT1Vt0LE3",
      "ward" : "92",
      "zone" : "Sanganer"
    },
    "53" : {
      "address" : "26, Khatipura Rd, Parivahan Nagar, Khatipura",
      "imageRef" : "2021~October~2021-10-18~2~53",
      "isClean" : true,
      "latLng" : "26.9259161,75.7460929",
      "locality" : " Khatipura",
      "time" : "11:14",
      "user" : "5O4HmxdGWmcOa1J2WhJr16wb8uG3",
      "ward" : "Not Found",
      "zone" : "Not Found"
    },
    "54" : {
      "address" : "A-1, Sahakar Marg, Ganesh Colony, J P Colony, Tonk Phatak",
      "imageRef" : "2021~October~2021-10-18~2~54",
      "isClean" : true,
      "latLng" : "26.8864531,75.7947264",
      "locality" : " Tonk Phatak",
      "time" : "11:14",
      "user" : "IuLu0Y5oXnOBk36uubivHnKRMZE2",
      "ward" : "145",
      "zone" : "Malviya Nagar"
    },
    "55" : {
      "address" : "XQ83+R7X, Dwarikapuri, Durga Vihar, Anand Vihar, Jhotwara",
      "imageRef" : "2021~October~2021-10-18~2~55",
      "isClean" : true,
      "latLng" : "26.9672035,75.7533201",
      "locality" : " Jhotwara",
      "time" : "11:14",
      "user" : "ev0wnTlCHecAviBhj2QYe4lEAj13",
      "ward" : "14",
      "zone" : "Murlipura"
    },
    "57" : {
      "address" : "A-1, Sahakar Marg, Ganesh Colony, J P Colony, Tonk Phatak",
      "imageRef" : "2021~October~2021-10-18~2~57",
      "isClean" : true,
      "latLng" : "26.8864531,75.7947264",
      "locality" : " Tonk Phatak",
      "time" : "11:15",
      "user" : "IuLu0Y5oXnOBk36uubivHnKRMZE2",
      "ward" : "145",
      "zone" : "Malviya Nagar"
    },
    "58" : {
      "address" : "XQ83+R7X, Dwarikapuri, Durga Vihar, Anand Vihar, Jhotwara",
      "imageRef" : "2021~October~2021-10-18~2~58",
      "isClean" : true,
      "latLng" : "26.9672035,75.7533201",
      "locality" : " Jhotwara",
      "time" : "11:15",
      "user" : "ev0wnTlCHecAviBhj2QYe4lEAj13",
      "ward" : "14",
      "zone" : "Murlipura"
    },
    "59" : {
      "address" : "M-85, J P Marg, J.P. Fatak, J P Colony, Tonk Phatak",
      "imageRef" : "2021~October~2021-10-18~2~59",
      "isClean" : true,
      "latLng" : "26.8825313,75.7959559",
      "locality" : " Tonk Phatak",
      "time" : "11:16",
      "user" : "IuLu0Y5oXnOBk36uubivHnKRMZE2",
      "ward" : "145",
      "zone" : "Malviya Nagar"
    },
    "60" : {
      "address" : "Diggi Malpura Rd, Dada Gurudev Nagar, Bambala",
      "imageRef" : "2021~October~2021-10-18~2~60",
      "isClean" : false,
      "latLng" : "26.8103586,75.7798442",
      "locality" : " Bambala",
      "time" : "11:16",
      "user" : "HSwWpGvJO1P2lkqjZZRTT1Vt0LE3",
      "ward" : "92",
      "zone" : "Sanganer"
    },
    "61" : {
      "address" : "S-6, Crystal Court, D-Block, Crystal Court, Malviya Nagar",
      "imageRef" : "2021~October~2021-10-18~2~61",
      "isClean" : true,
      "latLng" : "26.855255,75.8077863",
      "locality" : " Malviya Nagar",
      "time" : "11:16",
      "user" : "AfGurwTzesfcNInqIkyjFGXDoub2",
      "ward" : "130",
      "zone" : "Malviya Nagar"
    },
    "62" : {
      "address" : "21, near a, Ramdara Colony, Mahaveer Nagar Y, Dada Gurudev Nagar, Sanganer",
      "imageRef" : "2021~October~2021-10-18~2~62",
      "isClean" : true,
      "latLng" : "26.8173973,75.773858",
      "locality" : " Sanganer",
      "time" : "11:17",
      "user" : "EY0cg0gEW0WKz60icDpLpkaWSij2",
      "ward" : "89",
      "zone" : "Sanganer"
    },
    "63" : {
      "address" : "F-416, Nakul Path, Lal Kothi Scheme, Lalkothi",
      "imageRef" : "2021~October~2021-10-18~2~63",
      "isClean" : true,
      "latLng" : "26.8861522,75.7963838",
      "locality" : " Lalkothi",
      "time" : "11:17",
      "user" : "IuLu0Y5oXnOBk36uubivHnKRMZE2",
      "ward" : "142",
      "zone" : "Malviya Nagar"
    },
    "64" : {
      "address" : "3, Narayan Nagar Vistar, Deep Nagar, Jhotwara",
      "imageRef" : "2021~October~2021-10-18~2~64",
      "isClean" : true,
      "latLng" : "26.9653774,75.7460524",
      "locality" : " Jhotwara",
      "time" : "11:18",
      "user" : "ev0wnTlCHecAviBhj2QYe4lEAj13",
      "ward" : "14",
      "zone" : "Murlipura"
    },
    "65" : {
      "address" : "VR45+332, D-Block, Crystal Court, Malviya Nagar",
      "imageRef" : "2021~October~2021-10-18~2~65",
      "isClean" : true,
      "latLng" : "26.8551127,75.8076218",
      "locality" : " Malviya Nagar",
      "time" : "11:18",
      "user" : "AfGurwTzesfcNInqIkyjFGXDoub2",
      "ward" : "130",
      "zone" : "Malviya Nagar"
    },
    "66" : {
      "address" : "Unnamed Road, Vidhyadhar Nagar, Jagatpura",
      "imageRef" : "2021~October~2021-10-18~2~66",
      "isClean" : true,
      "latLng" : "26.8273161,75.8437723",
      "locality" : " Jagatpura",
      "time" : "11:18",
      "user" : "0fwKH9Zi3hZBdTXlse3SMQJ0zjr1",
      "ward" : "116",
      "zone" : "Jagatpura"
    },
    "67" : {
      "address" : "21, near a, Ramdara Colony, Mahaveer Nagar Y, Dada Gurudev Nagar, Sanganer",
      "imageRef" : "2021~October~2021-10-18~2~67",
      "isClean" : true,
      "latLng" : "26.8173973,75.773858",
      "locality" : " Sanganer",
      "time" : "11:18",
      "user" : "EY0cg0gEW0WKz60icDpLpkaWSij2",
      "ward" : "89",
      "zone" : "Sanganer"
    },
    "68" : {
      "address" : "Unnamed Road, Vidhyadhar Nagar, Jagatpura",
      "imageRef" : "2021~October~2021-10-18~2~68",
      "isClean" : true,
      "latLng" : "26.8273161,75.8437723",
      "locality" : " Jagatpura",
      "time" : "11:18",
      "user" : "0fwKH9Zi3hZBdTXlse3SMQJ0zjr1",
      "ward" : "116",
      "zone" : "Jagatpura"
    },
    "69" : {
      "address" : "F-416, Nakul Path, Lal Kothi Scheme, Lalkothi",
      "imageRef" : "2021~October~2021-10-18~2~69",
      "isClean" : true,
      "latLng" : "26.8861522,75.7963838",
      "locality" : " Lalkothi",
      "time" : "11:18",
      "user" : "IuLu0Y5oXnOBk36uubivHnKRMZE2",
      "ward" : "142",
      "zone" : "Malviya Nagar"
    },
    "70" : {
      "address" : "Unnamed Road, Vidhyadhar Nagar, Jagatpura",
      "imageRef" : "2021~October~2021-10-18~2~70",
      "isAnalysis" : "yes",
      "isClean" : true,
      "latLng" : "26.8273161,75.8437723",
      "locality" : " Jagatpura",
      "penalty" : "100",
      "time" : "11:19",
      "user" : "0fwKH9Zi3hZBdTXlse3SMQJ0zjr1",
      "ward" : "116",
      "zone" : "Jagatpura"
    },
    "71" : {
      "address" : "Unnamed Road, Vidhyadhar Nagar, Jagatpura",
      "imageRef" : "2021~October~2021-10-18~2~71",
      "isClean" : true,
      "latLng" : "26.8273161,75.8437723",
      "locality" : " Jagatpura",
      "time" : "11:19",
      "user" : "0fwKH9Zi3hZBdTXlse3SMQJ0zjr1",
      "ward" : "116",
      "zone" : "Jagatpura"
    },
    "72" : {
      "address" : "6, Gopalpura Bypass Rd, Shiv Shakti Nagar, Brijlalpura",
      "imageRef" : "2021~October~2021-10-18~2~72",
      "isClean" : true,
      "latLng" : "26.8798643,75.755598",
      "locality" : " Brijlalpura",
      "time" : "11:19",
      "user" : "LB5ZuA5FjaclXAeRLRT2dIRkowk2",
      "ward" : "Not Found",
      "zone" : "Not Found"
    },
    "73" : {
      "address" : "21, near a, Ramdara Colony, Mahaveer Nagar Y, Dada Gurudev Nagar, Sanganer",
      "imageRef" : "2021~October~2021-10-18~2~73",
      "isClean" : true,
      "latLng" : "26.8173973,75.773858",
      "locality" : " Sanganer",
      "time" : "11:20",
      "user" : "EY0cg0gEW0WKz60icDpLpkaWSij2",
      "ward" : "89",
      "zone" : "Sanganer"
    },
    "74" : {
      "address" : "F-416, Nakul Path, Lal Kothi Scheme, Lalkothi",
      "imageRef" : "2021~October~2021-10-18~2~74",
      "isClean" : true,
      "latLng" : "26.8861522,75.7963838",
      "locality" : " Lalkothi",
      "time" : "11:20",
      "user" : "IuLu0Y5oXnOBk36uubivHnKRMZE2",
      "ward" : "142",
      "zone" : "Malviya Nagar"
    },
    "75" : {
      "address" : "Unnamed Road, Vidhyadhar Nagar, Jagatpura",
      "imageRef" : "2021~October~2021-10-18~2~75",
      "isClean" : true,
      "latLng" : "26.8273161,75.8437723",
      "locality" : " Jagatpura",
      "time" : "11:20",
      "user" : "0fwKH9Zi3hZBdTXlse3SMQJ0zjr1",
      "ward" : "116",
      "zone" : "Jagatpura"
    },
    "76" : {
      "address" : "Pashu Dhan Bhavan, Sawai Ram Singh Rd, Lalkothi",
      "imageRef" : "2021~October~2021-10-18~2~76",
      "isClean" : true,
      "latLng" : "26.8831994,75.800104",
      "locality" : " Lalkothi",
      "time" : "11:21",
      "user" : "IuLu0Y5oXnOBk36uubivHnKRMZE2",
      "ward" : "142",
      "zone" : "Malviya Nagar"
    },
    "77" : {
      "address" : "Unnamed Road, Vidhyadhar Nagar, Jagatpura",
      "imageRef" : "2021~October~2021-10-18~2~77",
      "isClean" : true,
      "latLng" : "26.8273161,75.8437723",
      "locality" : " Jagatpura",
      "time" : "11:21",
      "user" : "0fwKH9Zi3hZBdTXlse3SMQJ0zjr1",
      "ward" : "116",
      "zone" : "Jagatpura"
    },
    "78" : {
      "address" : "Pashu Dhan Bhavan, Sawai Ram Singh Rd, Lalkothi",
      "imageRef" : "2021~October~2021-10-18~2~78",
      "isClean" : true,
      "latLng" : "26.8831994,75.800104",
      "locality" : " Lalkothi",
      "time" : "11:21",
      "user" : "IuLu0Y5oXnOBk36uubivHnKRMZE2",
      "ward" : "142",
      "zone" : "Malviya Nagar"
    },
    "79" : {
      "address" : "F-6, Vidhayak Nagar, Lalkothi",
      "imageRef" : "2021~October~2021-10-18~2~79",
      "isClean" : true,
      "latLng" : "26.8851802,75.799066",
      "locality" : " Lalkothi",
      "time" : "11:22",
      "user" : "IuLu0Y5oXnOBk36uubivHnKRMZE2",
      "ward" : "142",
      "zone" : "Malviya Nagar"
    },
    "80" : {
      "address" : "21, near a, Ramdara Colony, Mahaveer Nagar Y, Dada Gurudev Nagar, Sanganer",
      "imageRef" : "2021~October~2021-10-18~2~80",
      "isClean" : true,
      "latLng" : "26.8173973,75.773858",
      "locality" : " Sanganer",
      "time" : "11:22",
      "user" : "EY0cg0gEW0WKz60icDpLpkaWSij2",
      "ward" : "89",
      "zone" : "Sanganer"
    },
    "81" : {
      "address" : "RJ SH 12, Dada Gurudev Nagar, Sanganer",
      "imageRef" : "2021~October~2021-10-18~2~81",
      "isClean" : false,
      "latLng" : "26.8180592,75.7867464",
      "locality" : " Sanganer",
      "time" : "11:22",
      "user" : "5ey5OTJPSaVtScapKMAk3f1NkXA3",
      "ward" : "90",
      "zone" : "Sanganer"
    },
    "82" : {
      "address" : "F-6, Vidhayak Nagar, Lalkothi",
      "imageRef" : "2021~October~2021-10-18~2~82",
      "isClean" : true,
      "latLng" : "26.8851802,75.799066",
      "locality" : " Lalkothi",
      "time" : "11:23",
      "user" : "IuLu0Y5oXnOBk36uubivHnKRMZE2",
      "ward" : "142",
      "zone" : "Malviya Nagar"
    },
    "84" : {
      "address" : "85, RJ SH 12, Dada Gurudev Nagar, Sanganer",
      "imageRef" : "2021~October~2021-10-18~2~84",
      "isClean" : false,
      "latLng" : "26.8185981,75.7864629",
      "locality" : " Sanganer",
      "time" : "11:23",
      "user" : "5ey5OTJPSaVtScapKMAk3f1NkXA3",
      "ward" : "90",
      "zone" : "Sanganer"
    },
    "85" : {
      "address" : "Unnamed Road, Vidhyadhar Nagar, Jagatpura",
      "imageRef" : "2021~October~2021-10-18~2~85",
      "isClean" : true,
      "latLng" : "26.8273161,75.8437723",
      "locality" : " Jagatpura",
      "time" : "11:23",
      "user" : "0fwKH9Zi3hZBdTXlse3SMQJ0zjr1",
      "ward" : "116",
      "zone" : "Jagatpura"
    },
    "86" : {
      "address" : "Unnamed Road, Vidhyadhar Nagar, Jagatpura",
      "imageRef" : "2021~October~2021-10-18~2~86",
      "isClean" : true,
      "latLng" : "26.8273161,75.8437723",
      "locality" : " Jagatpura",
      "time" : "11:24",
      "user" : "0fwKH9Zi3hZBdTXlse3SMQJ0zjr1",
      "ward" : "116",
      "zone" : "Jagatpura"
    },
    "87" : {
      "address" : "F-6, Vidhayak Nagar, Lalkothi",
      "imageRef" : "2021~October~2021-10-18~2~87",
      "isClean" : true,
      "latLng" : "26.8851802,75.799066",
      "locality" : " Lalkothi",
      "time" : "11:24",
      "user" : "IuLu0Y5oXnOBk36uubivHnKRMZE2",
      "ward" : "142",
      "zone" : "Malviya Nagar"
    },
    "88" : {
      "address" : "22, Sawai Mansingh Rd, Lalkothi",
      "imageRef" : "2021~October~2021-10-18~2~88",
      "isAnalysis" : "yes",
      "isClean" : true,
      "latLng" : "26.8847943,75.8010905",
      "locality" : " Lalkothi",
      "penalty" : "100",
      "time" : "11:25",
      "user" : "IuLu0Y5oXnOBk36uubivHnKRMZE2",
      "ward" : "142",
      "zone" : "Malviya Nagar"
    },
    "89" : {
      "address" : "2, Kedia Palace Rd, near Murlipura Police Station, Vijay Nagar, Murlipura",
      "imageRef" : "2021~October~2021-10-18~2~89",
      "isClean" : false,
      "latLng" : "26.9700877,75.7652174",
      "locality" : " Murlipura",
      "time" : "11:25",
      "user" : "IfTaCIc9ildHleifFcUvTbvprz43",
      "ward" : "18",
      "zone" : "Murlipura"
    },
    "90" : {
      "address" : "2, Kedia Palace Rd, near Murlipura Police Station, Vijay Nagar, Murlipura",
      "imageRef" : "2021~October~2021-10-18~2~90",
      "isClean" : true,
      "latLng" : "26.9700933,75.765215",
      "locality" : " Murlipura",
      "time" : "11:26",
      "user" : "IfTaCIc9ildHleifFcUvTbvprz43",
      "ward" : "18",
      "zone" : "Murlipura"
    },
    "91" : {
      "address" : "6, Gopalpura Bypass Rd, Shiv Shakti Nagar, Brijlalpura",
      "imageRef" : "2021~October~2021-10-18~2~91",
      "isClean" : true,
      "latLng" : "26.8798643,75.755598",
      "locality" : " Brijlalpura",
      "time" : "11:26",
      "user" : "LB5ZuA5FjaclXAeRLRT2dIRkowk2",
      "ward" : "Not Found",
      "zone" : "Not Found"
    },
    "92" : {
      "address" : "D-39, D-39, Mahesh Marg, Kalyan Colony, D-Block, Sector 9, Malviya Nagar",
      "imageRef" : "2021~October~2021-10-18~2~92",
      "isClean" : true,
      "latLng" : "26.8533951,75.8095133",
      "locality" : " Malviya Nagar",
      "time" : "11:26",
      "user" : "AfGurwTzesfcNInqIkyjFGXDoub2",
      "ward" : "130",
      "zone" : "Malviya Nagar"
    },
    "93" : {
      "address" : "Shop No 29 Kedia Palace Road Near krishna Hotel Murlipura, Paramhans Colony, SONI KA BAG, Murlipura",
      "imageRef" : "2021~October~2021-10-18~2~93",
      "isClean" : true,
      "latLng" : "26.97034,75.7662733",
      "locality" : " Murlipura",
      "time" : "11:26",
      "user" : "IfTaCIc9ildHleifFcUvTbvprz43",
      "ward" : "18",
      "zone" : "Murlipura"
    },
    "94" : {
      "address" : "Unnamed Road, Vidhyadhar Nagar, Jagatpura",
      "imageRef" : "2021~October~2021-10-18~2~94",
      "isClean" : true,
      "latLng" : "26.8273161,75.8437723",
      "locality" : " Jagatpura",
      "time" : "11:27",
      "user" : "0fwKH9Zi3hZBdTXlse3SMQJ0zjr1",
      "ward" : "116",
      "zone" : "Jagatpura"
    },
    "95" : {
      "address" : "D-39, D-39, Mahesh Marg, Kalyan Colony, D-Block, Sector 9, Malviya Nagar",
      "imageRef" : "2021~October~2021-10-18~2~95",
      "isClean" : true,
      "latLng" : "26.8534043,75.8095061",
      "locality" : " Malviya Nagar",
      "time" : "11:27",
      "user" : "AfGurwTzesfcNInqIkyjFGXDoub2",
      "ward" : "130",
      "zone" : "Malviya Nagar"
    },
    "96" : {
      "address" : "Unnamed Road, Printers Colony, Dada Gurudev Nagar, Sanganer",
      "imageRef" : "2021~October~2021-10-18~2~96",
      "isAnalysis" : "yes",
      "isClean" : false,
      "latLng" : "26.8166172,75.7846826",
      "locality" : " Sanganer",
      "penalty" : 0,
      "time" : "11:27",
      "user" : "5ey5OTJPSaVtScapKMAk3f1NkXA3",
      "ward" : "90",
      "zone" : "Sanganer"
    },
    "97" : {
      "address" : "22, Sawai Mansingh Rd, Lalkothi",
      "imageRef" : "2021~October~2021-10-18~2~97",
      "isClean" : true,
      "latLng" : "26.8847943,75.8010905",
      "locality" : " Lalkothi",
      "time" : "11:27",
      "user" : "IuLu0Y5oXnOBk36uubivHnKRMZE2",
      "ward" : "142",
      "zone" : "Malviya Nagar"
    },
    "98" : {
      "address" : "Unnamed Road, Printers Colony, Dada Gurudev Nagar, Sanganer",
      "imageRef" : "2021~October~2021-10-18~2~98",
      "isClean" : false,
      "latLng" : "26.8166172,75.7846826",
      "locality" : " Sanganer",
      "time" : "11:28",
      "user" : "5ey5OTJPSaVtScapKMAk3f1NkXA3",
      "ward" : "90",
      "zone" : "Sanganer"
    },
    "99" : {
      "address" : "6, Gopalpura Bypass Rd, Shiv Shakti Nagar, Brijlalpura",
      "imageRef" : "2021~October~2021-10-18~2~99",
      "isClean" : true,
      "latLng" : "26.8798643,75.755598",
      "locality" : " Brijlalpura",
      "time" : "11:28",
      "user" : "LB5ZuA5FjaclXAeRLRT2dIRkowk2",
      "ward" : "Not Found",
      "zone" : "Not Found"
    },
    "100" : {
      "address" : "D-38, Kalyan Colony, D-Block, Malviya Nagar",
      "imageRef" : "2021~October~2021-10-18~2~100",
      "isClean" : true,
      "latLng" : "26.8535034,75.8093847",
      "locality" : " Malviya Nagar",
      "time" : "11:29",
      "user" : "AfGurwTzesfcNInqIkyjFGXDoub2",
      "ward" : "130",
      "zone" : "Malviya Nagar"
    },
    "101" : {
      "address" : "Unnamed Road, Vidhyadhar Nagar, Jagatpura",
      "imageRef" : "2021~October~2021-10-18~2~101",
      "isClean" : true,
      "latLng" : "26.8273161,75.8437723",
      "locality" : " Jagatpura",
      "time" : "11:29",
      "user" : "0fwKH9Zi3hZBdTXlse3SMQJ0zjr1",
      "ward" : "116",
      "zone" : "Jagatpura"
    },
    "102" : {
      "address" : "Unnamed Road, Printers Colony, Dada Gurudev Nagar, Sanganer",
      "imageRef" : "2021~October~2021-10-18~2~102",
      "isClean" : false,
      "latLng" : "26.8166172,75.7846826",
      "locality" : " Sanganer",
      "time" : "11:29",
      "user" : "5ey5OTJPSaVtScapKMAk3f1NkXA3",
      "ward" : "90",
      "zone" : "Sanganer"
    },
    "103" : {
      "address" : "Laxmi Tower, Main Market, Nagar Nigam Rd, near K.K.Electrical, Raigarh Chhota Mohalla, Dada Gurudev Nagar, Sanganer",
      "imageRef" : "2021~October~2021-10-18~2~103",
      "isClean" : false,
      "latLng" : "26.8127334,75.7844031",
      "locality" : " Sanganer",
      "time" : "11:29",
      "user" : "5ey5OTJPSaVtScapKMAk3f1NkXA3",
      "ward" : "93",
      "zone" : "Sanganer"
    },
    "104" : {
      "address" : "plot no E 788-789 , Awadhpuri , Near Ram Mandir, opp. Police Headquarter, Satya Vihar, Krishna Nagar I, Lalkothi",
      "imageRef" : "2021~October~2021-10-18~2~104",
      "isClean" : true,
      "latLng" : "26.887488,75.8003244",
      "locality" : " Lalkothi",
      "time" : "11:29",
      "user" : "IuLu0Y5oXnOBk36uubivHnKRMZE2",
      "ward" : "142",
      "zone" : "Malviya Nagar"
    },
    "105" : {
      "address" : "Unnamed Road, Vidhyadhar Nagar, Jagatpura",
      "imageRef" : "2021~October~2021-10-18~2~105",
      "isClean" : false,
      "latLng" : "26.8273161,75.8437723",
      "locality" : " Jagatpura",
      "time" : "11:30",
      "user" : "0fwKH9Zi3hZBdTXlse3SMQJ0zjr1",
      "ward" : "116",
      "zone" : "Jagatpura"
    },
    "106" : {
      "address" : "Laxmi Tower, Main Market, Nagar Nigam Rd, near K.K.Electrical, Raigarh Chhota Mohalla, Dada Gurudev Nagar, Sanganer",
      "imageRef" : "2021~October~2021-10-18~2~106",
      "isClean" : false,
      "latLng" : "26.8127334,75.7844031",
      "locality" : " Sanganer",
      "time" : "11:30",
      "user" : "5ey5OTJPSaVtScapKMAk3f1NkXA3",
      "ward" : "93",
      "zone" : "Sanganer"
    },
    "107" : {
      "address" : "plot no E 788-789 , Awadhpuri , Near Ram Mandir, opp. Police Headquarter, Satya Vihar, Krishna Nagar I, Lalkothi",
      "imageRef" : "2021~October~2021-10-18~2~107",
      "isAnalysis" : "yes",
      "isClean" : true,
      "latLng" : "26.887488,75.8003244",
      "locality" : " Lalkothi",
      "penalty" : "100",
      "time" : "11:30",
      "user" : "IuLu0Y5oXnOBk36uubivHnKRMZE2",
      "ward" : "142",
      "zone" : "Malviya Nagar"
    },
    "108" : {
      "address" : "Samyak Creation, 26, Kalyan Colony, Aacharya Tulsi Marg, Opp. Gaurav Towers, Malviya Nagar, beside Dominoes, Vidhyadhar Nagar, Sector 10, Malviya Nagar",
      "imageRef" : "2021~October~2021-10-18~2~108",
      "isClean" : true,
      "latLng" : "26.8503114,75.812264",
      "locality" : " Malviya Nagar",
      "time" : "11:30",
      "user" : "AfGurwTzesfcNInqIkyjFGXDoub2",
      "ward" : "130",
      "zone" : "Malviya Nagar"
    },
    "109" : {
      "address" : "6, Gopalpura Bypass Rd, Shiv Shakti Nagar, Brijlalpura",
      "imageRef" : "2021~October~2021-10-18~2~109",
      "isClean" : true,
      "latLng" : "26.8798643,75.755598",
      "locality" : " Brijlalpura",
      "time" : "11:31",
      "user" : "LB5ZuA5FjaclXAeRLRT2dIRkowk2",
      "ward" : "Not Found",
      "zone" : "Not Found"
    },
    "110" : {
      "address" : "356, Rd Number 14, Vishwakarma Industrial Area",
      "imageRef" : "2021~October~2021-10-18~2~110",
      "isClean" : true,
      "latLng" : "26.9988637,75.7908083",
      "locality" : " Vishwakarma Industrial Area",
      "time" : "11:31",
      "user" : "H5rob2uJ8jgknIAbGnblhi40tUE2",
      "ward" : "Not Found",
      "zone" : "Not Found"
    },
    "111" : {
      "address" : "4/461, Pradhan Marg, Vidyut Abhiyanta Colony, Sector 4, Malviya Nagar",
      "imageRef" : "2021~October~2021-10-18~2~111",
      "isClean" : true,
      "latLng" : "26.8490479,75.8136505",
      "locality" : " Malviya Nagar",
      "time" : "11:32",
      "user" : "AfGurwTzesfcNInqIkyjFGXDoub2",
      "ward" : "130",
      "zone" : "Malviya Nagar"
    },
    "112" : {
      "address" : "Main bazar anaaj Mandi, Raigarh Bada Mohalla, Sanganer",
      "imageRef" : "2021~October~2021-10-18~2~112",
      "isClean" : true,
      "latLng" : "26.8122578,75.7837404",
      "locality" : " Sanganer",
      "time" : "11:32",
      "user" : "5ey5OTJPSaVtScapKMAk3f1NkXA3",
      "ward" : "94",
      "zone" : "Sanganer"
    },
    "113" : {
      "address" : "6, Gopalpura Bypass Rd, Shiv Shakti Nagar, Brijlalpura",
      "imageRef" : "2021~October~2021-10-18~2~113",
      "isClean" : true,
      "latLng" : "26.8798643,75.755598",
      "locality" : " Brijlalpura",
      "time" : "11:33",
      "user" : "LB5ZuA5FjaclXAeRLRT2dIRkowk2",
      "ward" : "Not Found",
      "zone" : "Not Found"
    },
    "114" : {
      "address" : "76, Minwara Rd, Hastinapur Vistar, Panchyawala",
      "imageRef" : "2021~October~2021-10-18~2~114",
      "isClean" : true,
      "latLng" : "26.911955,75.726975",
      "locality" : " Panchyawala",
      "time" : "11:33",
      "user" : "lesTp06fnmbFxUpdCWwLQu8Q5Uz1",
      "ward" : "53",
      "zone" : "Jhotwara"
    },
    "115" : {
      "address" : "Main bazar anaaj Mandi, Raigarh Bada Mohalla, Sanganer",
      "imageRef" : "2021~October~2021-10-18~2~115",
      "isClean" : true,
      "latLng" : "26.8122578,75.7837404",
      "locality" : " Sanganer",
      "time" : "11:33",
      "user" : "5ey5OTJPSaVtScapKMAk3f1NkXA3",
      "ward" : "94",
      "zone" : "Sanganer"
    },
    "116" : {
      "address" : "4/461, Pradhan Marg, Vidyut Abhiyanta Colony, Sector 4, Malviya Nagar",
      "imageRef" : "2021~October~2021-10-18~2~116",
      "isClean" : true,
      "latLng" : "26.8492077,75.8139316",
      "locality" : " Malviya Nagar",
      "time" : "11:33",
      "user" : "AfGurwTzesfcNInqIkyjFGXDoub2",
      "ward" : "132",
      "zone" : "Malviya Nagar"
    },
    "117" : {
      "address" : "7, Dhawas, Vikash Nagar-D, Amrapali Circle, Vaishali Nagar",
      "imageRef" : "2021~October~2021-10-18~2~117",
      "isClean" : true,
      "latLng" : "26.8921323,75.7251642",
      "locality" : " Vaishali Nagar",
      "time" : "11:33",
      "user" : "f63WCJ0Lynd58cD0s0IXlxY2ANp2",
      "ward" : "59",
      "zone" : "Jhotwara"
    },
    "118" : {
      "address" : "40, Dada Bari Rd, Dada Gurudev Nagar, Sanganer",
      "imageRef" : "2021~October~2021-10-18~2~118",
      "isClean" : true,
      "latLng" : "26.812895,75.7741794",
      "locality" : " Sanganer",
      "time" : "11:34",
      "user" : "5ey5OTJPSaVtScapKMAk3f1NkXA3",
      "ward" : "92",
      "zone" : "Sanganer"
    },
    "119" : {
      "address" : "6th, Ajmer Rd, DCM",
      "imageRef" : "2021~October~2021-10-18~2~119",
      "isClean" : true,
      "latLng" : "26.8950148,75.7488166",
      "locality" : " DCM",
      "time" : "11:34",
      "user" : "f63WCJ0Lynd58cD0s0IXlxY2ANp2",
      "ward" : "62",
      "zone" : "Jhotwara"
    },
    "120" : {
      "address" : "21, near a, Ramdara Colony, Mahaveer Nagar Y, Dada Gurudev Nagar, Sanganer",
      "imageRef" : "2021~October~2021-10-18~2~120",
      "isClean" : true,
      "latLng" : "26.8173973,75.773858",
      "locality" : " Sanganer",
      "time" : "11:34",
      "user" : "EY0cg0gEW0WKz60icDpLpkaWSij2",
      "ward" : "89",
      "zone" : "Sanganer"
    },
    "121" : {
      "address" : "35,36, Minwara Rd, near Chopra Marriage Garden, Chandra Vihar Colony, Panchyawala",
      "imageRef" : "2021~October~2021-10-18~2~121",
      "isClean" : true,
      "latLng" : "26.9116493,75.7236824",
      "locality" : " Panchyawala",
      "time" : "11:35",
      "user" : "lesTp06fnmbFxUpdCWwLQu8Q5Uz1",
      "ward" : "53",
      "zone" : "Jhotwara"
    },
    "122" : {
      "address" : "C 314, Hari Marg, Block B, Vidyut Abhiyanta Colony, Malviya Nagar",
      "imageRef" : "2021~October~2021-10-18~2~122",
      "isClean" : true,
      "latLng" : "26.8536571,75.8105532",
      "locality" : " Malviya Nagar",
      "time" : "11:35",
      "user" : "AfGurwTzesfcNInqIkyjFGXDoub2",
      "ward" : "132",
      "zone" : "Malviya Nagar"
    },
    "123" : {
      "address" : "C-286, Pradhan Marg, Block A, Sector 4, Malviya Nagar",
      "imageRef" : "2021~October~2021-10-18~2~123",
      "isClean" : true,
      "latLng" : "26.8535836,75.8103818",
      "locality" : " Malviya Nagar",
      "time" : "11:36",
      "user" : "AfGurwTzesfcNInqIkyjFGXDoub2",
      "ward" : "132",
      "zone" : "Malviya Nagar"
    },
    "124" : {
      "address" : "6, Gopalpura Bypass Rd, Shiv Shakti Nagar, Brijlalpura",
      "imageRef" : "2021~October~2021-10-18~2~124",
      "isClean" : true,
      "latLng" : "26.8798643,75.755598",
      "locality" : " Brijlalpura",
      "time" : "11:36",
      "user" : "LB5ZuA5FjaclXAeRLRT2dIRkowk2",
      "ward" : "Not Found",
      "zone" : "Not Found"
    },
    "125" : {
      "address" : "Sanganer, Dada Gurudev Nagar, Sanganer",
      "imageRef" : "2021~October~2021-10-18~2~125",
      "isClean" : true,
      "latLng" : "26.815136,75.7732521",
      "locality" : " Sanganer",
      "time" : "11:37",
      "user" : "5ey5OTJPSaVtScapKMAk3f1NkXA3",
      "ward" : "89",
      "zone" : "Sanganer"
    },
    "126" : {
      "address" : "Sanganer, Dada Gurudev Nagar, Sanganer",
      "imageRef" : "2021~October~2021-10-18~2~126",
      "isClean" : true,
      "latLng" : "26.815136,75.7732521",
      "locality" : " Sanganer",
      "time" : "11:38",
      "user" : "5ey5OTJPSaVtScapKMAk3f1NkXA3",
      "ward" : "89",
      "zone" : "Sanganer"
    },
    "127" : {
      "address" : "35,36, Minwara Rd, near Chopra Marriage Garden, Chandra Vihar Colony, Panchyawala",
      "imageRef" : "2021~October~2021-10-18~2~127",
      "isClean" : true,
      "latLng" : "26.9116493,75.7236824",
      "locality" : " Panchyawala",
      "time" : "11:39",
      "user" : "lesTp06fnmbFxUpdCWwLQu8Q5Uz1",
      "ward" : "53",
      "zone" : "Jhotwara"
    },
    "128" : {
      "address" : "14, 14, Pradhan Marg, Moji Nagar, Malviya Nagar",
      "imageRef" : "2021~October~2021-10-18~2~128",
      "isClean" : true,
      "latLng" : "26.8581122,75.8089664",
      "locality" : " Malviya Nagar",
      "time" : "11:39",
      "user" : "AfGurwTzesfcNInqIkyjFGXDoub2",
      "ward" : "Not Found",
      "zone" : "Not Found"
    },
    "129" : {
      "address" : "6, Gopalpura Bypass Rd, Shiv Shakti Nagar, Brijlalpura",
      "imageRef" : "2021~October~2021-10-18~2~129",
      "isClean" : true,
      "latLng" : "26.8798643,75.755598",
      "locality" : " Brijlalpura",
      "time" : "11:39",
      "user" : "LB5ZuA5FjaclXAeRLRT2dIRkowk2",
      "ward" : "Not Found",
      "zone" : "Not Found"
    },
    "130" : {
      "address" : "WP4C+36G, Lalarpura",
      "imageRef" : "2021~October~2021-10-18~2~130",
      "isClean" : true,
      "latLng" : "26.9052868,75.72063",
      "locality" : " Lalarpura",
      "time" : "11:40",
      "user" : "lesTp06fnmbFxUpdCWwLQu8Q5Uz1",
      "ward" : "53",
      "zone" : "Jhotwara"
    },
    "131" : {
      "address" : "365, Ganesh Nagar Extn., Ridhi Sidhi Nagar Extension, Ganesh Vihar Extension, Jhotwara",
      "imageRef" : "2021~October~2021-10-18~2~131",
      "isClean" : true,
      "latLng" : "26.9588358,75.7173856",
      "locality" : " Jhotwara",
      "time" : "11:40",
      "user" : "ev0wnTlCHecAviBhj2QYe4lEAj13",
      "ward" : "43",
      "zone" : "Jhotwara"
    },
    "132" : {
      "address" : "6, Gopalpura Bypass Rd, Shiv Shakti Nagar, Brijlalpura",
      "imageRef" : "2021~October~2021-10-18~2~132",
      "isAnalysis" : "yes",
      "isClean" : true,
      "latLng" : "26.8798643,75.755598",
      "locality" : " Brijlalpura",
      "penalty" : "100",
      "time" : "11:40",
      "user" : "LB5ZuA5FjaclXAeRLRT2dIRkowk2",
      "ward" : "Not Found",
      "zone" : "Not Found"
    },
    "133" : {
      "address" : "Jaipur Stock Exchange Building, Jawahar Lal Nehru Marg, Malviya Nagar, Mauji Colony, Moji Nagar, Malviya Nagar",
      "imageRef" : "2021~October~2021-10-18~2~133",
      "isClean" : true,
      "latLng" : "26.8590023,75.8068636",
      "locality" : " Malviya Nagar",
      "time" : "11:40",
      "user" : "AfGurwTzesfcNInqIkyjFGXDoub2",
      "ward" : "Not Found",
      "zone" : "Not Found"
    },
    "134" : {
      "address" : "WP4C+36G, Lalarpura",
      "imageRef" : "2021~October~2021-10-18~2~134",
      "isAnalysis" : "yes",
      "isClean" : true,
      "latLng" : "26.9052868,75.72063",
      "locality" : " Lalarpura",
      "penalty" : "100",
      "time" : "11:41",
      "user" : "lesTp06fnmbFxUpdCWwLQu8Q5Uz1",
      "ward" : "53",
      "zone" : "Jhotwara"
    },
    "135" : {
      "address" : "6, Gopalpura Bypass Rd, Shiv Shakti Nagar, Brijlalpura",
      "imageRef" : "2021~October~2021-10-18~2~135",
      "isAnalysis" : "yes",
      "isClean" : true,
      "latLng" : "26.8798643,75.755598",
      "locality" : " Brijlalpura",
      "penalty" : "100",
      "time" : "11:42",
      "user" : "LB5ZuA5FjaclXAeRLRT2dIRkowk2",
      "ward" : "Not Found",
      "zone" : "Not Found"
    },
    "136" : {
      "address" : "WP4C+36G, Lalarpura",
      "imageRef" : "2021~October~2021-10-18~2~136",
      "isClean" : true,
      "latLng" : "26.9052868,75.72063",
      "locality" : " Lalarpura",
      "time" : "11:43",
      "user" : "lesTp06fnmbFxUpdCWwLQu8Q5Uz1",
      "ward" : "53",
      "zone" : "Jhotwara"
    },
    "137" : {
      "address" : "6, Gopalpura Bypass Rd, Shiv Shakti Nagar, Brijlalpura",
      "imageRef" : "2021~October~2021-10-18~2~137",
      "isAnalysis" : "yes",
      "isClean" : true,
      "latLng" : "26.8798643,75.755598",
      "locality" : " Brijlalpura",
      "penalty" : "100",
      "time" : "11:43",
      "user" : "LB5ZuA5FjaclXAeRLRT2dIRkowk2",
      "ward" : "Not Found",
      "zone" : "Not Found"
    },
    "138" : {
      "address" : "6, Gopalpura Bypass Rd, Shiv Shakti Nagar, Brijlalpura",
      "imageRef" : "2021~October~2021-10-18~2~138",
      "isClean" : true,
      "latLng" : "26.8798643,75.755598",
      "locality" : " Brijlalpura",
      "time" : "11:44",
      "user" : "LB5ZuA5FjaclXAeRLRT2dIRkowk2",
      "ward" : "Not Found",
      "zone" : "Not Found"
    },
    "139" : {
      "address" : "41, New Khandelwal Nagar, Paldi Meena",
      "imageRef" : "2021~October~2021-10-18~2~139",
      "isClean" : true,
      "latLng" : "26.8847371,75.8840758",
      "locality" : " Paldi Meena",
      "time" : "11:46",
      "user" : "GBRKc08bQXWC4plszyunxlaOVeo2",
      "ward" : "124",
      "zone" : "Jagatpura"
    },
    "140" : {
      "address" : "6, Gopalpura Bypass Rd, Shiv Shakti Nagar, Brijlalpura",
      "imageRef" : "2021~October~2021-10-18~2~140",
      "isClean" : true,
      "latLng" : "26.8798643,75.755598",
      "locality" : " Brijlalpura",
      "time" : "11:48",
      "user" : "LB5ZuA5FjaclXAeRLRT2dIRkowk2",
      "ward" : "Not Found",
      "zone" : "Not Found"
    },
    "141" : {
      "address" : "22, Nangal Rd, Bajrang Colony, Nirmal Vihar, Nangal Jaisabohra",
      "imageRef" : "2021~October~2021-10-18~2~141",
      "isClean" : true,
      "latLng" : "26.9670392,75.7376941",
      "locality" : " Nangal Jaisabohra",
      "time" : "11:48",
      "user" : "ev0wnTlCHecAviBhj2QYe4lEAj13",
      "ward" : "19",
      "zone" : "Murlipura"
    },
    "142" : {
      "address" : "55-56, near Railway Station, Dev Nagar, Dada Gurudev Nagar, Sanganer",
      "imageRef" : "2021~October~2021-10-18~2~142",
      "isClean" : true,
      "latLng" : "26.8182673,75.773322",
      "locality" : " Sanganer",
      "time" : "11:48",
      "user" : "5ey5OTJPSaVtScapKMAk3f1NkXA3",
      "ward" : "89",
      "zone" : "Sanganer"
    },
    "143" : {
      "address" : "8, Ajmeer Rd, Purani Chungi, Vidhyut Nagar",
      "imageRef" : "2021~October~2021-10-18~2~143",
      "isAnalysis" : "yes",
      "isClean" : true,
      "latLng" : "26.8973,75.7532339",
      "locality" : " Vidhyut Nagar",
      "penalty" : "100",
      "time" : "11:49",
      "user" : "f63WCJ0Lynd58cD0s0IXlxY2ANp2",
      "ward" : "62",
      "zone" : "Jhotwara"
    },
    "144" : {
      "address" : "15, Kings Rd, Ajmera Garden, Shanti Nagar, Brijlalpura",
      "imageRef" : "2021~October~2021-10-18~2~144",
      "isAnalysis" : "yes",
      "isClean" : true,
      "latLng" : "26.8922252,75.7511477",
      "locality" : " Brijlalpura",
      "penalty" : "100",
      "time" : "11:49",
      "user" : "f63WCJ0Lynd58cD0s0IXlxY2ANp2",
      "ward" : "64",
      "zone" : "Jhotwara"
    },
    "145" : {
      "address" : "15, Kings Rd, Ajmera Garden, Shanti Nagar, Brijlalpura",
      "imageRef" : "2021~October~2021-10-18~2~145",
      "isClean" : true,
      "latLng" : "26.8922252,75.7511477",
      "locality" : " Brijlalpura",
      "time" : "11:49",
      "user" : "f63WCJ0Lynd58cD0s0IXlxY2ANp2",
      "ward" : "64",
      "zone" : "Jhotwara"
    },
    "146" : {
      "address" : "6, Gopalpura Bypass Rd, Shiv Shakti Nagar, Brijlalpura",
      "imageRef" : "2021~October~2021-10-18~2~146",
      "isClean" : true,
      "latLng" : "26.8798643,75.755598",
      "locality" : " Brijlalpura",
      "time" : "11:50",
      "user" : "LB5ZuA5FjaclXAeRLRT2dIRkowk2",
      "ward" : "Not Found",
      "zone" : "Not Found"
    },
    "147" : {
      "address" : "6, Gopalpura Bypass Rd, Shiv Shakti Nagar, Brijlalpura",
      "imageRef" : "2021~October~2021-10-18~2~147",
      "isClean" : true,
      "latLng" : "26.8798643,75.755598",
      "locality" : " Brijlalpura",
      "time" : "11:51",
      "user" : "LB5ZuA5FjaclXAeRLRT2dIRkowk2",
      "ward" : "Not Found",
      "zone" : "Not Found"
    },
    "148" : {
      "address" : "15, Kings Rd, Ajmera Garden, Shanti Nagar, Brijlalpura",
      "imageRef" : "2021~October~2021-10-18~2~148",
      "isClean" : true,
      "latLng" : "26.8922252,75.7511477",
      "locality" : " Brijlalpura",
      "time" : "11:51",
      "user" : "f63WCJ0Lynd58cD0s0IXlxY2ANp2",
      "ward" : "64",
      "zone" : "Jhotwara"
    },
    "149" : {
      "address" : "59, Benar Rd, Nirmal Vihar, Jhotwara",
      "imageRef" : "2021~October~2021-10-18~2~149",
      "isClean" : true,
      "latLng" : "26.9795461,75.7455103",
      "locality" : " Jhotwara",
      "time" : "11:54",
      "user" : "ev0wnTlCHecAviBhj2QYe4lEAj13",
      "ward" : "12",
      "zone" : "Murlipura"
    },
    "150" : {
      "address" : "27, Pandit TN Mishra Marg, Everest Vihar, Padmavti Colony, Shiv Shakti Nagar, Ranisati Nagar",
      "imageRef" : "2021~October~2021-10-18~2~150",
      "isClean" : true,
      "latLng" : "26.8835255,75.7551377",
      "locality" : " Ranisati Nagar",
      "time" : "11:54",
      "user" : "f63WCJ0Lynd58cD0s0IXlxY2ANp2",
      "ward" : "Not Found",
      "zone" : "Not Found"
    },
    "151" : {
      "address" : "113, Mauji Colony Rd, Mauji Colony, Moji Nagar, Malviya Nagar",
      "imageRef" : "2021~October~2021-10-18~2~151",
      "isClean" : true,
      "latLng" : "26.8587111,75.8070548",
      "locality" : " Malviya Nagar",
      "time" : "11:56",
      "user" : "AfGurwTzesfcNInqIkyjFGXDoub2",
      "ward" : "Not Found",
      "zone" : "Not Found"
    },
    "152" : {
      "address" : "59, Benar Rd, Nirmal Vihar, Jhotwara",
      "imageRef" : "2021~October~2021-10-18~2~152",
      "isClean" : true,
      "latLng" : "26.9795461,75.7455103",
      "locality" : " Jhotwara",
      "time" : "11:56",
      "user" : "ev0wnTlCHecAviBhj2QYe4lEAj13",
      "ward" : "12",
      "zone" : "Murlipura"
    },
    "153" : {
      "address" : "Rd Number 8, Vishwakarma Industrial Area",
      "imageRef" : "2021~October~2021-10-18~2~153",
      "isClean" : true,
      "latLng" : "26.9847583,75.77562",
      "locality" : " Vishwakarma Industrial Area",
      "time" : "12:00",
      "user" : "IfTaCIc9ildHleifFcUvTbvprz43",
      "ward" : "8",
      "zone" : "Murlipura"
    },
    "154" : {
      "address" : "E-109, Vishwakarma Industrial Area",
      "imageRef" : "2021~October~2021-10-18~2~154",
      "isClean" : true,
      "latLng" : "26.9848231,75.7762196",
      "locality" : " Vishwakarma Industrial Area",
      "time" : "12:01",
      "user" : "IfTaCIc9ildHleifFcUvTbvprz43",
      "ward" : "8",
      "zone" : "Murlipura"
    },
    "155" : {
      "address" : "411, Khatipura Rd, near Jhotwara, overbridge, Jhotwara",
      "imageRef" : "2021~October~2021-10-18~2~155",
      "isClean" : true,
      "latLng" : "26.9421761,75.762873",
      "locality" : " Jhotwara",
      "time" : "12:01",
      "user" : "5O4HmxdGWmcOa1J2WhJr16wb8uG3",
      "ward" : "34",
      "zone" : "Vidhyadhar"
    },
    "156" : {
      "address" : "S-67, RIICO Complex, Road No. 14, V.K.I, Vishwakarma Industrial Area",
      "imageRef" : "2021~October~2021-10-18~2~156",
      "isClean" : true,
      "latLng" : "26.9974614,75.773554",
      "locality" : " Vishwakarma Industrial Area",
      "time" : "12:01",
      "user" : "RxDvTuUUsCTs9GcCg5g0iG9fA3t2",
      "ward" : "8",
      "zone" : "Murlipura"
    },
    "157" : {
      "address" : "C-250/A, C-250/A, Hans Marg, Gem Enclave, Malviya Nagar",
      "imageRef" : "2021~October~2021-10-18~2~157",
      "isClean" : true,
      "latLng" : "26.8578112,75.8118249",
      "locality" : " Malviya Nagar",
      "time" : "12:02",
      "user" : "AfGurwTzesfcNInqIkyjFGXDoub2",
      "ward" : "132",
      "zone" : "Malviya Nagar"
    },
    "158" : {
      "address" : "VQHF+XM7, Tejaji nagar, Chhayadip Nagar, Shri Gopal Nagar, Gopal Pura Mode",
      "imageRef" : "2021~October~2021-10-18~2~158",
      "isClean" : true,
      "latLng" : "26.8798612,75.7742125",
      "locality" : " Gopal Pura Mode",
      "time" : "12:03",
      "user" : "f63WCJ0Lynd58cD0s0IXlxY2ANp2",
      "ward" : "78",
      "zone" : "Mansarovar"
    },
    "159" : {
      "address" : "S-67, RIICO Complex, Road No. 14, V.K.I, Vishwakarma Industrial Area",
      "imageRef" : "2021~October~2021-10-18~2~159",
      "isClean" : true,
      "latLng" : "26.9974614,75.773554",
      "locality" : " Vishwakarma Industrial Area",
      "time" : "12:03",
      "user" : "RxDvTuUUsCTs9GcCg5g0iG9fA3t2",
      "ward" : "8",
      "zone" : "Murlipura"
    },
    "160" : {
      "address" : "S-67, RIICO Complex, Road No. 14, V.K.I, Vishwakarma Industrial Area",
      "imageRef" : "2021~October~2021-10-18~2~160",
      "isClean" : true,
      "latLng" : "26.9974614,75.773554",
      "locality" : " Vishwakarma Industrial Area",
      "time" : "12:03",
      "user" : "RxDvTuUUsCTs9GcCg5g0iG9fA3t2",
      "ward" : "8",
      "zone" : "Murlipura"
    },
    "161" : {
      "address" : "394-C, 394-C, Setu Path, Gem Enclave, Malviya Nagar",
      "imageRef" : "2021~October~2021-10-18~2~161",
      "isClean" : true,
      "latLng" : "26.8579878,75.8111849",
      "locality" : " Malviya Nagar",
      "time" : "12:05",
      "user" : "AfGurwTzesfcNInqIkyjFGXDoub2",
      "ward" : "132",
      "zone" : "Malviya Nagar"
    },
    "162" : {
      "address" : "76, Ajmer Rd, Jagdamba Nagar, Vikash Nagar-D, Heerapura, Vaishali Nagar",
      "imageRef" : "2021~October~2021-10-18~2~162",
      "isClean" : true,
      "latLng" : "26.8925188,75.7250523",
      "locality" : " Vaishali Nagar",
      "time" : "12:05",
      "user" : "OeCnghJYjVcG0jAsX9gPY6vGDnl2",
      "ward" : "59",
      "zone" : "Jhotwara"
    },
    "163" : {
      "address" : "76, Ajmer Rd, Jagdamba Nagar, Vikash Nagar-D, Heerapura, Vaishali Nagar",
      "imageRef" : "2021~October~2021-10-18~2~163",
      "isClean" : true,
      "latLng" : "26.8925188,75.7250523",
      "locality" : " Vaishali Nagar",
      "time" : "12:05",
      "user" : "OeCnghJYjVcG0jAsX9gPY6vGDnl2",
      "ward" : "59",
      "zone" : "Jhotwara"
    },
    "164" : {
      "address" : "SP818F, Road No. 14, Vishwakarma Industrial Area",
      "imageRef" : "2021~October~2021-10-18~2~164",
      "isClean" : true,
      "latLng" : "26.9975389,75.775906",
      "locality" : " Vishwakarma Industrial Area",
      "time" : "12:05",
      "user" : "RxDvTuUUsCTs9GcCg5g0iG9fA3t2",
      "ward" : "8",
      "zone" : "Murlipura"
    },
    "165" : {
      "address" : "76, Ajmer Rd, Jagdamba Nagar, Vikash Nagar-D, Heerapura, Vaishali Nagar",
      "imageRef" : "2021~October~2021-10-18~2~165",
      "isClean" : true,
      "latLng" : "26.8925188,75.7250523",
      "locality" : " Vaishali Nagar",
      "time" : "12:06",
      "user" : "OeCnghJYjVcG0jAsX9gPY6vGDnl2",
      "ward" : "59",
      "zone" : "Jhotwara"
    },
    "166" : {
      "address" : "SP818F, Road No. 14, Vishwakarma Industrial Area",
      "imageRef" : "2021~October~2021-10-18~2~166",
      "isClean" : true,
      "latLng" : "26.9975389,75.775906",
      "locality" : " Vishwakarma Industrial Area",
      "time" : "12:06",
      "user" : "RxDvTuUUsCTs9GcCg5g0iG9fA3t2",
      "ward" : "8",
      "zone" : "Murlipura"
    },
    "167" : {
      "address" : "rajasthan silindar fectory, vishwkarma Road Number 14 k pass, Vishwakarma Industrial Area",
      "imageRef" : "2021~October~2021-10-18~2~167",
      "isClean" : true,
      "latLng" : "26.9970704,75.7788126",
      "locality" : " Vishwakarma Industrial Area",
      "time" : "12:07",
      "user" : "RxDvTuUUsCTs9GcCg5g0iG9fA3t2",
      "ward" : "8",
      "zone" : "Murlipura"
    },
    "168" : {
      "address" : "Ambabadi Shopping centre, Ambabari, Vidyadhar Nagar",
      "imageRef" : "2021~October~2021-10-18~2~168",
      "isClean" : true,
      "latLng" : "26.9408251,75.7763349",
      "locality" : " Vidyadhar Nagar",
      "time" : "12:07",
      "user" : "5O4HmxdGWmcOa1J2WhJr16wb8uG3",
      "ward" : "27",
      "zone" : "Vidhyadhar"
    },
    "169" : {
      "address" : "67, Vishnu Vihar, Amrapali Circle, Vaishali Nagar",
      "imageRef" : "2021~October~2021-10-18~2~169",
      "isClean" : true,
      "latLng" : "26.8922232,75.7264458",
      "locality" : " Vaishali Nagar",
      "time" : "12:07",
      "user" : "OeCnghJYjVcG0jAsX9gPY6vGDnl2",
      "ward" : "59",
      "zone" : "Jhotwara"
    },
    "170" : {
      "address" : "rajasthan silindar fectory, vishwkarma Road Number 14 k pass, Vishwakarma Industrial Area",
      "imageRef" : "2021~October~2021-10-18~2~170",
      "isClean" : true,
      "latLng" : "26.9970704,75.7788126",
      "locality" : " Vishwakarma Industrial Area",
      "time" : "12:08",
      "user" : "RxDvTuUUsCTs9GcCg5g0iG9fA3t2",
      "ward" : "8",
      "zone" : "Murlipura"
    },
    "171" : {
      "address" : "6-7, Ambabari, Vidyadhar Nagar",
      "imageRef" : "2021~October~2021-10-18~2~171",
      "isClean" : true,
      "latLng" : "26.9404815,75.7769782",
      "locality" : " Vidyadhar Nagar",
      "time" : "12:09",
      "user" : "5O4HmxdGWmcOa1J2WhJr16wb8uG3",
      "ward" : "27",
      "zone" : "Vidhyadhar"
    },
    "172" : {
      "address" : "76, Dhawas, Vikash Nagar-D, Amrapali Circle, Vaishali Nagar",
      "imageRef" : "2021~October~2021-10-18~2~172",
      "isClean" : true,
      "latLng" : "26.8927473,75.7255498",
      "locality" : " Vaishali Nagar",
      "time" : "12:09",
      "user" : "OeCnghJYjVcG0jAsX9gPY6vGDnl2",
      "ward" : "59",
      "zone" : "Jhotwara"
    },
    "173" : {
      "address" : "15, Benar Rd, Dadi Ka Phatak, Durga Vihar, Anand Vihar, Jhotwara",
      "imageRef" : "2021~October~2021-10-18~2~173",
      "isClean" : true,
      "latLng" : "26.9671656,75.7544999",
      "locality" : " Jhotwara",
      "time" : "12:10",
      "user" : "ev0wnTlCHecAviBhj2QYe4lEAj13",
      "ward" : "14",
      "zone" : "Murlipura"
    },
    "174" : {
      "address" : "F-428 B, Rd Number 12, Vishwakarma Industrial Area",
      "imageRef" : "2021~October~2021-10-18~2~174",
      "isClean" : true,
      "latLng" : "26.9927804,75.7777597",
      "locality" : " Vishwakarma Industrial Area",
      "time" : "12:12",
      "user" : "RxDvTuUUsCTs9GcCg5g0iG9fA3t2",
      "ward" : "8",
      "zone" : "Murlipura"
    },
    "175" : {
      "address" : "30, Benar Rd, Anand Vihar-A, Vikash Nagar, Dadi Ka Phatak",
      "imageRef" : "2021~October~2021-10-18~2~175",
      "isClean" : true,
      "latLng" : "26.9652777,75.7558187",
      "locality" : " Dadi Ka Phatak",
      "time" : "12:12",
      "user" : "ev0wnTlCHecAviBhj2QYe4lEAj13",
      "ward" : "14",
      "zone" : "Murlipura"
    },
    "176" : {
      "address" : "537, Barkat Nagar Rd, Madhuvan Colony, Barkat Nagar, Tonk Phatak",
      "imageRef" : "2021~October~2021-10-18~2~176",
      "isClean" : true,
      "latLng" : "26.8795285,75.7893848",
      "locality" : " Tonk Phatak",
      "time" : "12:12",
      "user" : "f63WCJ0Lynd58cD0s0IXlxY2ANp2",
      "ward" : "Not Found",
      "zone" : "Not Found"
    },
    "177" : {
      "address" : "F-428 B, Rd Number 12, Vishwakarma Industrial Area",
      "imageRef" : "2021~October~2021-10-18~2~177",
      "isClean" : true,
      "latLng" : "26.9927804,75.7777597",
      "locality" : " Vishwakarma Industrial Area",
      "time" : "12:12",
      "user" : "RxDvTuUUsCTs9GcCg5g0iG9fA3t2",
      "ward" : "8",
      "zone" : "Murlipura"
    },
    "178" : {
      "address" : "Maharishi Arvind Institute Of Science & Management Science & Management Institute, Ambabari, Vidyadhar Nagar",
      "imageRef" : "2021~October~2021-10-18~2~178",
      "isClean" : true,
      "latLng" : "26.9433773,75.7770653",
      "locality" : " Vidyadhar Nagar",
      "time" : "12:12",
      "user" : "5O4HmxdGWmcOa1J2WhJr16wb8uG3",
      "ward" : "27",
      "zone" : "Vidhyadhar"
    },
    "179" : {
      "address" : "537, Barkat Nagar Rd, Madhuvan Colony, Barkat Nagar, Tonk Phatak",
      "imageRef" : "2021~October~2021-10-18~2~179",
      "isClean" : true,
      "latLng" : "26.8795285,75.7893848",
      "locality" : " Tonk Phatak",
      "time" : "12:13",
      "user" : "f63WCJ0Lynd58cD0s0IXlxY2ANp2",
      "ward" : "Not Found",
      "zone" : "Not Found"
    },
    "180" : {
      "address" : "F-428 B, Rd Number 12, Vishwakarma Industrial Area",
      "imageRef" : "2021~October~2021-10-18~2~180",
      "isClean" : true,
      "latLng" : "26.9927804,75.7777597",
      "locality" : " Vishwakarma Industrial Area",
      "time" : "12:14",
      "user" : "RxDvTuUUsCTs9GcCg5g0iG9fA3t2",
      "ward" : "8",
      "zone" : "Murlipura"
    },
    "181" : {
      "address" : "30, Benar Rd, Anand Vihar-A, Vikash Nagar, Dadi Ka Phatak",
      "imageRef" : "2021~October~2021-10-18~2~181",
      "isClean" : true,
      "latLng" : "26.9652777,75.7558187",
      "locality" : " Dadi Ka Phatak",
      "time" : "12:15",
      "user" : "ev0wnTlCHecAviBhj2QYe4lEAj13",
      "ward" : "14",
      "zone" : "Murlipura"
    },
    "182" : {
      "address" : "XQQF+H93, Anaj Mandi, Vishwakarma Industrial Area",
      "imageRef" : "2021~October~2021-10-18~2~182",
      "isClean" : true,
      "latLng" : "26.9888072,75.773512",
      "locality" : " Vishwakarma Industrial Area",
      "time" : "12:16",
      "user" : "RxDvTuUUsCTs9GcCg5g0iG9fA3t2",
      "ward" : "8",
      "zone" : "Murlipura"
    },
    "183" : {
      "address" : "XQQF+H93, Anaj Mandi, Vishwakarma Industrial Area",
      "imageRef" : "2021~October~2021-10-18~2~183",
      "isClean" : true,
      "latLng" : "26.9888072,75.773512",
      "locality" : " Vishwakarma Industrial Area",
      "time" : "12:16",
      "user" : "RxDvTuUUsCTs9GcCg5g0iG9fA3t2",
      "ward" : "8",
      "zone" : "Murlipura"
    },
    "184" : {
      "address" : "C-25, Mall Rd, Shiv Park, Ambabari, Vidyadhar Nagar",
      "imageRef" : "2021~October~2021-10-18~2~184",
      "isClean" : true,
      "latLng" : "26.9469596,75.7770551",
      "locality" : " Vidyadhar Nagar",
      "time" : "12:16",
      "user" : "5O4HmxdGWmcOa1J2WhJr16wb8uG3",
      "ward" : "27",
      "zone" : "Vidhyadhar"
    },
    "185" : {
      "address" : "C-M/88, Mahesh Colony, J P Colony, Tonk Phatak",
      "imageRef" : "2021~October~2021-10-18~2~185",
      "isClean" : true,
      "latLng" : "26.8829719,75.7957983",
      "locality" : " Tonk Phatak",
      "time" : "12:17",
      "user" : "f63WCJ0Lynd58cD0s0IXlxY2ANp2",
      "ward" : "145",
      "zone" : "Malviya Nagar"
    },
    "186" : {
      "address" : "C-M/88, Mahesh Colony, J P Colony, Tonk Phatak",
      "imageRef" : "2021~October~2021-10-18~2~186",
      "isClean" : true,
      "latLng" : "26.8829719,75.7957983",
      "locality" : " Tonk Phatak",
      "time" : "12:17",
      "user" : "f63WCJ0Lynd58cD0s0IXlxY2ANp2",
      "ward" : "145",
      "zone" : "Malviya Nagar"
    },
    "187" : {
      "address" : "XQPF+VX3, Vishwakarma Industrial Area",
      "imageRef" : "2021~October~2021-10-18~2~187",
      "isClean" : true,
      "latLng" : "26.9870596,75.7749119",
      "locality" : " Vishwakarma Industrial Area",
      "time" : "12:18",
      "user" : "RxDvTuUUsCTs9GcCg5g0iG9fA3t2",
      "ward" : "8",
      "zone" : "Murlipura"
    },
    "188" : {
      "address" : "XQPF+VX3, Vishwakarma Industrial Area",
      "imageRef" : "2021~October~2021-10-18~2~188",
      "isClean" : true,
      "latLng" : "26.9870596,75.7749119",
      "locality" : " Vishwakarma Industrial Area",
      "time" : "12:18",
      "user" : "RxDvTuUUsCTs9GcCg5g0iG9fA3t2",
      "ward" : "8",
      "zone" : "Murlipura"
    },
    "189" : {
      "address" : "XQ2G+76R, Sector 2, Sector-1, Vidyadhar Nagar",
      "imageRef" : "2021~October~2021-10-18~2~189",
      "isClean" : true,
      "latLng" : "26.9506441,75.7755556",
      "locality" : " Vidyadhar Nagar",
      "time" : "12:18",
      "user" : "5O4HmxdGWmcOa1J2WhJr16wb8uG3",
      "ward" : "26",
      "zone" : "Vidhyadhar"
    },
    "190" : {
      "address" : "C-6/93, Chitrakoot, Bhawani Nagar",
      "imageRef" : "2021~October~2021-10-18~2~190",
      "isClean" : true,
      "latLng" : "26.9609793,75.7627696",
      "locality" : " Bhawani Nagar",
      "time" : "12:18",
      "user" : "ev0wnTlCHecAviBhj2QYe4lEAj13",
      "ward" : "25",
      "zone" : "Vidhyadhar"
    },
    "191" : {
      "address" : "XQPF+VX3, Vishwakarma Industrial Area",
      "imageRef" : "2021~October~2021-10-18~2~191",
      "isClean" : true,
      "latLng" : "26.9870596,75.7749119",
      "locality" : " Vishwakarma Industrial Area",
      "time" : "12:19",
      "user" : "RxDvTuUUsCTs9GcCg5g0iG9fA3t2",
      "ward" : "8",
      "zone" : "Murlipura"
    },
    "192" : {
      "address" : "XQMG+VX6, Vishwakarma Industrial Area",
      "imageRef" : "2021~October~2021-10-18~2~192",
      "isClean" : true,
      "latLng" : "26.984938,75.7771597",
      "locality" : " Vishwakarma Industrial Area",
      "time" : "12:19",
      "user" : "RxDvTuUUsCTs9GcCg5g0iG9fA3t2",
      "ward" : "8",
      "zone" : "Murlipura"
    },
    "193" : {
      "address" : "C-6/93, Chitrakoot, Bhawani Nagar",
      "imageRef" : "2021~October~2021-10-18~2~193",
      "isClean" : true,
      "latLng" : "26.9609793,75.7627696",
      "locality" : " Bhawani Nagar",
      "time" : "12:20",
      "user" : "ev0wnTlCHecAviBhj2QYe4lEAj13",
      "ward" : "25",
      "zone" : "Vidhyadhar"
    },
    "194" : {
      "address" : "XQMG+VX6, Vishwakarma Industrial Area",
      "imageRef" : "2021~October~2021-10-18~2~194",
      "isClean" : true,
      "latLng" : "26.984938,75.7771597",
      "locality" : " Vishwakarma Industrial Area",
      "time" : "12:20",
      "user" : "RxDvTuUUsCTs9GcCg5g0iG9fA3t2",
      "ward" : "8",
      "zone" : "Murlipura"
    },
    "195" : {
      "address" : "13, Rd Number 8, Vishwakarma Industrial Area",
      "imageRef" : "2021~October~2021-10-18~2~195",
      "isClean" : true,
      "latLng" : "26.9847419,75.7735496",
      "locality" : " Vishwakarma Industrial Area",
      "time" : "12:21",
      "user" : "RxDvTuUUsCTs9GcCg5g0iG9fA3t2",
      "ward" : "7",
      "zone" : "Murlipura"
    },
    "196" : {
      "address" : "132, Sector 1 Rd, Sector 2, Sector-1, Vidyadhar Nagar",
      "imageRef" : "2021~October~2021-10-18~2~196",
      "isClean" : true,
      "latLng" : "26.950522,75.7762586",
      "locality" : " Vidyadhar Nagar",
      "time" : "12:22",
      "user" : "5O4HmxdGWmcOa1J2WhJr16wb8uG3",
      "ward" : "26",
      "zone" : "Vidhyadhar"
    },
    "197" : {
      "address" : "13, Rd Number 8, Vishwakarma Industrial Area",
      "imageRef" : "2021~October~2021-10-18~2~197",
      "isClean" : true,
      "latLng" : "26.9847419,75.7735496",
      "locality" : " Vishwakarma Industrial Area",
      "time" : "12:22",
      "user" : "RxDvTuUUsCTs9GcCg5g0iG9fA3t2",
      "ward" : "7",
      "zone" : "Murlipura"
    },
    "198" : {
      "address" : "23, near Central Bank Of India, Murlipura",
      "imageRef" : "2021~October~2021-10-18~2~198",
      "isClean" : true,
      "latLng" : "26.9713787,75.7654353",
      "locality" : " Murlipura",
      "time" : "12:23",
      "user" : "ev0wnTlCHecAviBhj2QYe4lEAj13",
      "ward" : "16",
      "zone" : "Murlipura"
    },
    "199" : {
      "address" : "113, Ambabari, AWHO Colony, Vidyadhar Nagar",
      "imageRef" : "2021~October~2021-10-18~2~199",
      "isClean" : true,
      "latLng" : "26.950187,75.7747401",
      "locality" : " Vidyadhar Nagar",
      "time" : "12:24",
      "user" : "5O4HmxdGWmcOa1J2WhJr16wb8uG3",
      "ward" : "27",
      "zone" : "Vidhyadhar"
    },
    "200" : {
      "address" : "13, Rd Number 8, Vishwakarma Industrial Area",
      "imageRef" : "2021~October~2021-10-18~2~200",
      "isClean" : true,
      "latLng" : "26.9847419,75.7735496",
      "locality" : " Vishwakarma Industrial Area",
      "time" : "12:24",
      "user" : "RxDvTuUUsCTs9GcCg5g0iG9fA3t2",
      "ward" : "7",
      "zone" : "Murlipura"
    },
    "201" : {
      "address" : "Sindi Camp Bus Stand, Vishwakarma Industrial Area",
      "imageRef" : "2021~October~2021-10-18~2~201",
      "isClean" : true,
      "latLng" : "26.9787639,75.7775146",
      "locality" : " Vishwakarma Industrial Area",
      "time" : "12:25",
      "user" : "RxDvTuUUsCTs9GcCg5g0iG9fA3t2",
      "ward" : "8",
      "zone" : "Murlipura"
    },
    "202" : {
      "address" : "132, Sector 1 Rd, Sector 2, Sector-1, Vidyadhar Nagar",
      "imageRef" : "2021~October~2021-10-18~2~202",
      "isClean" : true,
      "latLng" : "26.950557,75.7761442",
      "locality" : " Vidyadhar Nagar",
      "time" : "12:25",
      "user" : "5O4HmxdGWmcOa1J2WhJr16wb8uG3",
      "ward" : "26",
      "zone" : "Vidhyadhar"
    },
    "203" : {
      "address" : "Sindi Camp Bus Stand, Vishwakarma Industrial Area",
      "imageRef" : "2021~October~2021-10-18~2~203",
      "isClean" : true,
      "latLng" : "26.9787639,75.7775146",
      "locality" : " Vishwakarma Industrial Area",
      "time" : "12:26",
      "user" : "RxDvTuUUsCTs9GcCg5g0iG9fA3t2",
      "ward" : "8",
      "zone" : "Murlipura"
    },
    "204" : {
      "address" : "B59, Murlipura Scheme, Jamna Puri",
      "imageRef" : "2021~October~2021-10-18~2~204",
      "isClean" : true,
      "latLng" : "26.9746865,75.7771823",
      "locality" : " Jamna Puri",
      "time" : "12:27",
      "user" : "RxDvTuUUsCTs9GcCg5g0iG9fA3t2",
      "ward" : "8",
      "zone" : "Murlipura"
    },
    "205" : {
      "address" : "1/474, Sector 2, Sector-1, Vidyadhar Nagar",
      "imageRef" : "2021~October~2021-10-18~2~205",
      "isClean" : true,
      "latLng" : "26.9546633,75.775736",
      "locality" : " Vidyadhar Nagar",
      "time" : "12:28",
      "user" : "5O4HmxdGWmcOa1J2WhJr16wb8uG3",
      "ward" : "26",
      "zone" : "Vidhyadhar"
    },
    "206" : {
      "address" : "B59, Murlipura Scheme, Jamna Puri",
      "imageRef" : "2021~October~2021-10-18~2~206",
      "isClean" : true,
      "latLng" : "26.9746865,75.7771823",
      "locality" : " Jamna Puri",
      "time" : "12:29",
      "user" : "RxDvTuUUsCTs9GcCg5g0iG9fA3t2",
      "ward" : "8",
      "zone" : "Murlipura"
    },
    "207" : {
      "address" : "Bus Stop - Commerce College, Jawahar Lal Nehru Marg, Gandhi Nagar",
      "imageRef" : "2021~October~2021-10-18~2~207",
      "isClean" : true,
      "latLng" : "26.8836999,75.8119066",
      "locality" : " Gandhi Nagar",
      "time" : "12:33",
      "user" : "f63WCJ0Lynd58cD0s0IXlxY2ANp2",
      "ward" : "Not Found",
      "zone" : "Not Found"
    },
    "208" : {
      "address" : "3, Path Number 7, Pratap Nagar, Vikas Nagar, Bhawani Nagar",
      "imageRef" : "2021~October~2021-10-18~2~208",
      "isClean" : true,
      "latLng" : "26.9609784,75.7626909",
      "locality" : " Bhawani Nagar",
      "time" : "12:36",
      "user" : "5O4HmxdGWmcOa1J2WhJr16wb8uG3",
      "ward" : "25",
      "zone" : "Vidhyadhar"
    },
    "209" : {
      "address" : "11 MB 127, Indira Gandhi Nagar, Ghati Karolan",
      "imageRef" : "2021~October~2021-10-18~2~209",
      "isClean" : true,
      "latLng" : "26.8392208,75.8651963",
      "locality" : " Ghati Karolan",
      "time" : "12:41",
      "user" : "21autIQPg1Y8EgGd364o1nuNIKV2",
      "ward" : "120",
      "zone" : "Jagatpura"
    },
    "210" : {
      "address" : "207A, 200 Feet Rd, Patrakar Colony, Vardhman Nagar, Karni Vihar",
      "imageRef" : "2021~October~2021-10-18~2~210",
      "isClean" : true,
      "latLng" : "26.8820496,75.7410063",
      "locality" : " Karni Vihar",
      "time" : "12:47",
      "user" : "izE6j6yODDeEfeUuTivNXPpHrBF3",
      "ward" : "63",
      "zone" : "Jhotwara"
    },
    "211" : {
      "address" : "Karni Palace, Shree Ram Nagar - A, Sunder Nagar, Vaishali Nagar",
      "imageRef" : "2021~October~2021-10-18~2~211",
      "isClean" : false,
      "latLng" : "26.911395,75.7293817",
      "locality" : " Vaishali Nagar",
      "time" : "12:56",
      "user" : "IfTaCIc9ildHleifFcUvTbvprz43",
      "ward" : "54",
      "zone" : "Jhotwara"
    },
    "212" : {
      "address" : "Shop No 34 Hastinapur, Karni Palace Rd, Shree Ram Nagar - A, Sunder Nagar, Vaishali Nagar",
      "imageRef" : "2021~October~2021-10-18~2~212",
      "isClean" : true,
      "latLng" : "26.9114955,75.7283534",
      "locality" : " Vaishali Nagar",
      "time" : "13:00",
      "user" : "IfTaCIc9ildHleifFcUvTbvprz43",
      "ward" : "53",
      "zone" : "Jhotwara"
    },
    "213" : {
      "address" : "Shop No 34 Hastinapur, Karni Palace Rd, Shree Ram Nagar - A, Sunder Nagar, Vaishali Nagar",
      "imageRef" : "2021~October~2021-10-18~2~213",
      "isClean" : true,
      "latLng" : "26.9114955,75.7283534",
      "locality" : " Vaishali Nagar",
      "time" : "13:02",
      "user" : "IfTaCIc9ildHleifFcUvTbvprz43",
      "ward" : "53",
      "zone" : "Jhotwara"
    },
    "214" : {
      "address" : "20, Acharya Vinoba Bhave Nagar, Hariman Path, B Block, Vaishali Nagar",
      "imageRef" : "2021~October~2021-10-18~2~214",
      "isClean" : true,
      "latLng" : "26.9071524,75.7355961",
      "locality" : " Vaishali Nagar",
      "time" : "13:04",
      "user" : "IfTaCIc9ildHleifFcUvTbvprz43",
      "ward" : "54",
      "zone" : "Jhotwara"
    },
    "215" : {
      "address" : "B-9, Jhotwara Road, Lalarpura",
      "imageRef" : "2021~October~2021-10-18~2~215",
      "isAnalysis" : "yes",
      "isClean" : true,
      "latLng" : "26.90837,75.729015",
      "locality" : " Lalarpura",
      "penalty" : "100",
      "time" : "13:04",
      "user" : "IfTaCIc9ildHleifFcUvTbvprz43",
      "ward" : "54",
      "zone" : "Jhotwara"
    },
    "216" : {
      "address" : "50A, Iskcon Rd, Radhaswami Nagar, Mansarovar",
      "imageRef" : "2021~October~2021-10-18~2~216",
      "isAnalysis" : "yes",
      "isClean" : true,
      "latLng" : "26.843525,75.7624042",
      "locality" : " Mansarovar",
      "penalty" : "100",
      "time" : "13:07",
      "user" : "O4yqmOT1T8aQwXBYTqcdxr4X4bR2",
      "ward" : "74",
      "zone" : "Mansarovar"
    },
    "217" : {
      "address" : "50A, Iskcon Rd, Radhaswami Nagar, Mansarovar",
      "imageRef" : "2021~October~2021-10-18~2~217",
      "isAnalysis" : "yes",
      "isClean" : true,
      "latLng" : "26.843525,75.7624042",
      "locality" : " Mansarovar",
      "penalty" : "100",
      "time" : "13:10",
      "user" : "O4yqmOT1T8aQwXBYTqcdxr4X4bR2",
      "ward" : "74",
      "zone" : "Mansarovar"
    },
    "218" : {
      "address" : "10/689, Kaveri Path, Mansarovar Sector 1, Mansarovar",
      "imageRef" : "2021~October~2021-10-18~2~218",
      "isClean" : true,
      "latLng" : "26.8754258,75.7556798",
      "locality" : " Mansarovar",
      "time" : "13:12",
      "user" : "LB5ZuA5FjaclXAeRLRT2dIRkowk2",
      "ward" : "70",
      "zone" : "Mansarovar"
    },
    "219" : {
      "address" : "10/689, Kaveri Path, Mansarovar Sector 1, Mansarovar",
      "imageRef" : "2021~October~2021-10-18~2~219",
      "isAnalysis" : "yes",
      "isClean" : true,
      "latLng" : "26.8754258,75.7556798",
      "locality" : " Mansarovar",
      "penalty" : "100",
      "time" : "13:13",
      "user" : "LB5ZuA5FjaclXAeRLRT2dIRkowk2",
      "ward" : "70",
      "zone" : "Mansarovar"
    },
    "220" : {
      "address" : "10/689, Kaveri Path, Mansarovar Sector 1, Mansarovar",
      "imageRef" : "2021~October~2021-10-18~2~220",
      "isClean" : true,
      "latLng" : "26.8754258,75.7556798",
      "locality" : " Mansarovar",
      "time" : "13:15",
      "user" : "LB5ZuA5FjaclXAeRLRT2dIRkowk2",
      "ward" : "70",
      "zone" : "Mansarovar"
    },
    "221" : {
      "address" : "10/689, Kaveri Path, Mansarovar Sector 1, Mansarovar",
      "imageRef" : "2021~October~2021-10-18~2~221",
      "isClean" : true,
      "latLng" : "26.8754258,75.7556798",
      "locality" : " Mansarovar",
      "time" : "13:15",
      "user" : "LB5ZuA5FjaclXAeRLRT2dIRkowk2",
      "ward" : "70",
      "zone" : "Mansarovar"
    },
    "222" : {
      "address" : "10/689, Kaveri Path, Mansarovar Sector 1, Mansarovar",
      "imageRef" : "2021~October~2021-10-18~2~222",
      "isAnalysis" : "yes",
      "isClean" : true,
      "latLng" : "26.8754258,75.7556798",
      "locality" : " Mansarovar",
      "penalty" : "100",
      "time" : "13:17",
      "user" : "LB5ZuA5FjaclXAeRLRT2dIRkowk2",
      "ward" : "70",
      "zone" : "Mansarovar"
    },
    "223" : {
      "address" : "Jaipur, Kundanpura, Ghati Karolan",
      "imageRef" : "2021~October~2021-10-18~2~223",
      "isAnalysis" : "yes",
      "isClean" : true,
      "latLng" : "26.8356597,75.8658656",
      "locality" : " Ghati Karolan",
      "penalty" : "100",
      "time" : "13:17",
      "user" : "21autIQPg1Y8EgGd364o1nuNIKV2",
      "ward" : "119",
      "zone" : "Jagatpura"
    },
    "224" : {
      "address" : "WP2J+PWV, F Block, Chitrakoot",
      "imageRef" : "2021~October~2021-10-18~2~224",
      "isAnalysis" : "yes",
      "isClean" : true,
      "latLng" : "26.9019283,75.7324117",
      "locality" : " Chitrakoot",
      "penalty" : "100",
      "time" : "13:18",
      "user" : "IfTaCIc9ildHleifFcUvTbvprz43",
      "ward" : "57",
      "zone" : "Jhotwara"
    },
    "225" : {
      "address" : "10/689, Kaveri Path, Mansarovar Sector 1, Mansarovar",
      "imageRef" : "2021~October~2021-10-18~2~225",
      "isClean" : true,
      "latLng" : "26.8754258,75.7556798",
      "locality" : " Mansarovar",
      "time" : "13:22",
      "user" : "LB5ZuA5FjaclXAeRLRT2dIRkowk2",
      "ward" : "70",
      "zone" : "Mansarovar"
    },
    "226" : {
      "address" : "10/689, Kaveri Path, Mansarovar Sector 1, Mansarovar",
      "imageRef" : "2021~October~2021-10-18~2~226",
      "isClean" : true,
      "latLng" : "26.8754258,75.7556798",
      "locality" : " Mansarovar",
      "time" : "13:22",
      "user" : "LB5ZuA5FjaclXAeRLRT2dIRkowk2",
      "ward" : "70",
      "zone" : "Mansarovar"
    },
    "227" : {
      "address" : "10/689, Kaveri Path, Mansarovar Sector 1, Mansarovar",
      "imageRef" : "2021~October~2021-10-18~2~227",
      "isClean" : true,
      "latLng" : "26.8754258,75.7556798",
      "locality" : " Mansarovar",
      "time" : "13:24",
      "user" : "LB5ZuA5FjaclXAeRLRT2dIRkowk2",
      "ward" : "70",
      "zone" : "Mansarovar"
    },
    "228" : {
      "address" : "55, Vidyut Nagar, Neelkanth Colony, Bhan Nagar",
      "imageRef" : "2021~October~2021-10-18~2~228",
      "isAnalysis" : "yes",
      "isClean" : true,
      "latLng" : "26.898745,75.7560967",
      "locality" : " Bhan Nagar",
      "penalty" : "100",
      "time" : "13:25",
      "user" : "IfTaCIc9ildHleifFcUvTbvprz43",
      "ward" : "62",
      "zone" : "Jhotwara"
    },
    "229" : {
      "address" : "Chokhi Dhani Tower, Shyam Nagar",
      "imageRef" : "2021~October~2021-10-18~2~229",
      "isAnalysis" : "yes",
      "isClean" : true,
      "latLng" : "26.8986867,75.76581",
      "locality" : " Shyam Nagar",
      "penalty" : "100",
      "time" : "13:28",
      "user" : "IfTaCIc9ildHleifFcUvTbvprz43",
      "ward" : "Not Found",
      "zone" : "Not Found"
    },
    "230" : {
      "address" : "5/93, Sector 2, Sector 6, Vidyadhar Nagar",
      "imageRef" : "2021~October~2021-10-18~2~230",
      "isClean" : true,
      "latLng" : "26.971033,75.7755112",
      "locality" : " Vidyadhar Nagar",
      "time" : "13:29",
      "user" : "RxDvTuUUsCTs9GcCg5g0iG9fA3t2",
      "ward" : "8",
      "zone" : "Murlipura"
    },
    "231" : {
      "address" : "10/689, Kaveri Path, Mansarovar Sector 1, Mansarovar",
      "imageRef" : "2021~October~2021-10-18~2~231",
      "isClean" : true,
      "latLng" : "26.8754258,75.7556798",
      "locality" : " Mansarovar",
      "time" : "13:29",
      "user" : "LB5ZuA5FjaclXAeRLRT2dIRkowk2",
      "ward" : "70",
      "zone" : "Mansarovar"
    },
    "232" : {
      "address" : "10/689, Kaveri Path, Mansarovar Sector 1, Mansarovar",
      "imageRef" : "2021~October~2021-10-18~2~232",
      "isAnalysis" : "yes",
      "isClean" : true,
      "latLng" : "26.8754258,75.7556798",
      "locality" : " Mansarovar",
      "penalty" : "100",
      "time" : "13:30",
      "user" : "LB5ZuA5FjaclXAeRLRT2dIRkowk2",
      "ward" : "70",
      "zone" : "Mansarovar"
    },
    "233" : {
      "address" : "5/93, Sector 2, Sector 6, Vidyadhar Nagar",
      "imageRef" : "2021~October~2021-10-18~2~233",
      "isClean" : true,
      "latLng" : "26.971033,75.7755112",
      "locality" : " Vidyadhar Nagar",
      "time" : "13:32",
      "user" : "RxDvTuUUsCTs9GcCg5g0iG9fA3t2",
      "ward" : "8",
      "zone" : "Murlipura"
    },
    "234" : {
      "address" : "XQGC+6P7, Murlipura",
      "imageRef" : "2021~October~2021-10-18~2~234",
      "isClean" : true,
      "latLng" : "26.9755133,75.7716732",
      "locality" : " Murlipura",
      "time" : "13:32",
      "user" : "RxDvTuUUsCTs9GcCg5g0iG9fA3t2",
      "ward" : "17",
      "zone" : "Murlipura"
    },
    "235" : {
      "address" : "10/689, Kaveri Path, Mansarovar Sector 1, Mansarovar",
      "imageRef" : "2021~October~2021-10-18~2~235",
      "isClean" : true,
      "latLng" : "26.8754258,75.7556798",
      "locality" : " Mansarovar",
      "time" : "13:33",
      "user" : "LB5ZuA5FjaclXAeRLRT2dIRkowk2",
      "ward" : "70",
      "zone" : "Mansarovar"
    },
    "236" : {
      "address" : "XQGC+6P7, Murlipura",
      "imageRef" : "2021~October~2021-10-18~2~236",
      "isClean" : true,
      "latLng" : "26.9755133,75.7716732",
      "locality" : " Murlipura",
      "time" : "13:33",
      "user" : "RxDvTuUUsCTs9GcCg5g0iG9fA3t2",
      "ward" : "17",
      "zone" : "Murlipura"
    },
    "237" : {
      "address" : "10/689, Kaveri Path, Mansarovar Sector 1, Mansarovar",
      "imageRef" : "2021~October~2021-10-18~2~237",
      "isClean" : true,
      "latLng" : "26.8754258,75.7556798",
      "locality" : " Mansarovar",
      "time" : "13:37",
      "user" : "LB5ZuA5FjaclXAeRLRT2dIRkowk2",
      "ward" : "70",
      "zone" : "Mansarovar"
    },
    "238" : {
      "address" : "A-5, Murlipura",
      "imageRef" : "2021~October~2021-10-18~2~238",
      "isAnalysis" : "yes",
      "isClean" : true,
      "latLng" : "26.97575,75.77035",
      "locality" : " Murlipura",
      "penalty" : "100",
      "time" : "13:38",
      "user" : "RxDvTuUUsCTs9GcCg5g0iG9fA3t2",
      "ward" : "17",
      "zone" : "Murlipura"
    },
    "239" : {
      "address" : "A-5, Murlipura",
      "imageRef" : "2021~October~2021-10-18~2~239",
      "isClean" : true,
      "latLng" : "26.97575,75.77035",
      "locality" : " Murlipura",
      "time" : "13:38",
      "user" : "RxDvTuUUsCTs9GcCg5g0iG9fA3t2",
      "ward" : "17",
      "zone" : "Murlipura"
    },
    "240" : {
      "address" : "1, Sindhu Nagar, Murlipura",
      "imageRef" : "2021~October~2021-10-18~2~240",
      "isClean" : true,
      "latLng" : "26.9657984,75.7651876",
      "locality" : " Murlipura",
      "time" : "13:40",
      "user" : "5O4HmxdGWmcOa1J2WhJr16wb8uG3",
      "ward" : "20",
      "zone" : "Murlipura"
    },
    "241" : {
      "address" : "10/689, Kaveri Path, Mansarovar Sector 1, Mansarovar",
      "imageRef" : "2021~October~2021-10-18~2~241",
      "isAnalysis" : "yes",
      "isClean" : true,
      "latLng" : "26.8754258,75.7556798",
      "locality" : " Mansarovar",
      "penalty" : "100",
      "time" : "13:40",
      "user" : "LB5ZuA5FjaclXAeRLRT2dIRkowk2",
      "ward" : "70",
      "zone" : "Mansarovar"
    },
    "242" : {
      "address" : "DTDC Ganesham Associates, Kedia Palace Rd, near cross fit jim,HP petrol pump, Vijay Nagar, Murlipura",
      "imageRef" : "2021~October~2021-10-18~2~242",
      "isClean" : true,
      "latLng" : "26.9689115,75.7571912",
      "locality" : " Murlipura",
      "time" : "13:42",
      "user" : "ev0wnTlCHecAviBhj2QYe4lEAj13",
      "ward" : "15",
      "zone" : "Murlipura"
    },
    "243" : {
      "address" : "Vidyadhar Nagar Depot, Sikar Rd, Sector 2, Vijay Bari, Vidyadhar Nagar",
      "imageRef" : "2021~October~2021-10-18~2~243",
      "isClean" : true,
      "latLng" : "26.9641376,75.7725778",
      "locality" : " Vidyadhar Nagar",
      "time" : "13:43",
      "user" : "5O4HmxdGWmcOa1J2WhJr16wb8uG3",
      "ward" : "21",
      "zone" : "Murlipura"
    },
    "244" : {
      "address" : "Abl Sky Terraces, Ward 27, Mansarovar Sector 5, Mansarovar",
      "imageRef" : "2021~October~2021-10-18~2~244",
      "isClean" : true,
      "latLng" : "26.8660583,75.7712509",
      "locality" : " Mansarovar",
      "time" : "13:43",
      "user" : "LB5ZuA5FjaclXAeRLRT2dIRkowk2",
      "ward" : "76",
      "zone" : "Mansarovar"
    },
    "245" : {
      "address" : "Rail Vihar 2 Block-A, Rail Vihar 2, Sector-9, Vishwakarma Industrial Area, Vidyadhar Nagar",
      "imageRef" : "2021~October~2021-10-18~2~245",
      "isClean" : true,
      "latLng" : "26.9711611,75.7824955",
      "locality" : " Vidyadhar Nagar",
      "time" : "13:44",
      "user" : "ev0wnTlCHecAviBhj2QYe4lEAj13",
      "ward" : "8",
      "zone" : "Murlipura"
    },
    "246" : {
      "address" : "17, Usha Colony, Sector 1, Malviya Nagar",
      "imageRef" : "2021~October~2021-10-18~2~246",
      "isClean" : true,
      "latLng" : "26.8552389,75.8230421",
      "locality" : " Malviya Nagar",
      "time" : "13:45",
      "user" : "AfGurwTzesfcNInqIkyjFGXDoub2",
      "ward" : "Not Found",
      "zone" : "Not Found"
    },
    "247" : {
      "address" : "1 Sikar Road , Near Shri Bhagwan Parshuram Circle, Sikar Rd, Sector 2, Vijay Bari, Vidyadhar Nagar",
      "imageRef" : "2021~October~2021-10-18~2~247",
      "isClean" : true,
      "latLng" : "26.9651296,75.7729244",
      "locality" : " Vidyadhar Nagar",
      "time" : "13:45",
      "user" : "5O4HmxdGWmcOa1J2WhJr16wb8uG3",
      "ward" : "21",
      "zone" : "Murlipura"
    },
    "248" : {
      "address" : "256, Madhuban Garden Rd, Sector 2, Vijay Bari, Vidyadhar Nagar",
      "imageRef" : "2021~October~2021-10-18~2~248",
      "isClean" : true,
      "latLng" : "26.9647086,75.7752869",
      "locality" : " Vidyadhar Nagar",
      "time" : "13:48",
      "user" : "5O4HmxdGWmcOa1J2WhJr16wb8uG3",
      "ward" : "21",
      "zone" : "Murlipura"
    },
    "249" : {
      "address" : "Rail Vihar 2 Block-A, Rail Vihar 2, Sector-9, Vishwakarma Industrial Area, Vidyadhar Nagar",
      "imageRef" : "2021~October~2021-10-18~2~249",
      "isClean" : true,
      "latLng" : "26.9711611,75.7824955",
      "locality" : " Vidyadhar Nagar",
      "time" : "13:49",
      "user" : "ev0wnTlCHecAviBhj2QYe4lEAj13",
      "ward" : "8",
      "zone" : "Murlipura"
    },
    "250" : {
      "address" : "TIRPAL HOUSE\" F-21, Road No 2, Main, Sikar Rd, opp. Jeevan jyoti hospital, Vishwakarma Industrial Area",
      "imageRef" : "2021~October~2021-10-18~2~250",
      "isClean" : true,
      "latLng" : "26.97554,75.7727503",
      "locality" : " Vishwakarma Industrial Area",
      "time" : "13:51",
      "user" : "ev0wnTlCHecAviBhj2QYe4lEAj13",
      "ward" : "8",
      "zone" : "Murlipura"
    },
    "251" : {
      "address" : "172, shiv vihar colony, gali, no.6, Rd Number 5, Arya Nagar, Vishwakarma Industrial Area, Murlipura",
      "imageRef" : "2021~October~2021-10-18~2~251",
      "isClean" : true,
      "latLng" : "26.9790182,75.7711",
      "locality" : " Murlipura",
      "time" : "13:53",
      "user" : "RxDvTuUUsCTs9GcCg5g0iG9fA3t2",
      "ward" : "10",
      "zone" : "Murlipura"
    },
    "252" : {
      "address" : "TIRPAL HOUSE\" F-21, Road No 2, Main, Sikar Rd, opp. Jeevan jyoti hospital, Vishwakarma Industrial Area",
      "imageRef" : "2021~October~2021-10-18~2~252",
      "isClean" : true,
      "latLng" : "26.97554,75.7727503",
      "locality" : " Vishwakarma Industrial Area",
      "time" : "13:55",
      "user" : "ev0wnTlCHecAviBhj2QYe4lEAj13",
      "ward" : "8",
      "zone" : "Murlipura"
    },
    "253" : {
      "address" : "A-38, Rajdhani, Sikar Rd, Anaj Mandi, Murlipura",
      "imageRef" : "2021~October~2021-10-18~2~253",
      "isClean" : true,
      "latLng" : "26.9900239,75.7710492",
      "locality" : " Murlipura",
      "time" : "13:56",
      "user" : "ev0wnTlCHecAviBhj2QYe4lEAj13",
      "ward" : "7",
      "zone" : "Murlipura"
    },
    "254" : {
      "address" : "A-38, Rajdhani, Sikar Rd, Anaj Mandi, Murlipura",
      "imageRef" : "2021~October~2021-10-18~2~254",
      "isClean" : true,
      "latLng" : "26.9900239,75.7710492",
      "locality" : " Murlipura",
      "time" : "14:00",
      "user" : "ev0wnTlCHecAviBhj2QYe4lEAj13",
      "ward" : "7",
      "zone" : "Murlipura"
    },
    "255" : {
      "address" : "Plot No 274 Pratap Nagar Ext Vaidh Ji Ka Chouraha Opp. Road No. 5 Scheme, Vishwakarma Industrial Area, Murlipura",
      "imageRef" : "2021~October~2021-10-18~2~255",
      "isClean" : true,
      "latLng" : "26.9874075,75.7632182",
      "locality" : " Murlipura",
      "time" : "14:04",
      "user" : "ev0wnTlCHecAviBhj2QYe4lEAj13",
      "ward" : "7",
      "zone" : "Murlipura"
    },
    "256" : {
      "address" : "Plot No 274 Pratap Nagar Ext Vaidh Ji Ka Chouraha Opp. Road No. 5 Scheme, Vishwakarma Industrial Area, Murlipura",
      "imageRef" : "2021~October~2021-10-18~2~256",
      "isClean" : true,
      "latLng" : "26.9874075,75.7632182",
      "locality" : " Murlipura",
      "time" : "14:05",
      "user" : "ev0wnTlCHecAviBhj2QYe4lEAj13",
      "ward" : "7",
      "zone" : "Murlipura"
    },
    "257" : {
      "address" : "C-35, Chainpura, Jagatpura",
      "imageRef" : "2021~October~2021-10-18~2~257",
      "isClean" : true,
      "latLng" : "26.8345563,75.8051431",
      "locality" : " Jagatpura",
      "time" : "14:18",
      "user" : "IfTaCIc9ildHleifFcUvTbvprz43",
      "ward" : "106",
      "zone" : "Jagatpura"
    },
    "258" : {
      "address" : "E 55 Sarswati Nagar, Sidharth Nagar - B Jawahar Circle, Airport Rd, Siddharth Nagar, Chainpura, Malviya Nagar",
      "imageRef" : "2021~October~2021-10-18~2~258",
      "isClean" : true,
      "latLng" : "26.8345717,75.806825",
      "locality" : " Malviya Nagar",
      "time" : "14:19",
      "user" : "IfTaCIc9ildHleifFcUvTbvprz43",
      "ward" : "106",
      "zone" : "Jagatpura"
    },
    "259" : {
      "address" : "6-e, Jhalana Institutional Area, Jhalana Doongri",
      "imageRef" : "2021~October~2021-10-18~2~259",
      "isClean" : true,
      "latLng" : "26.8757726,75.8136279",
      "locality" : " Jhalana Doongri",
      "time" : "14:20",
      "user" : "f63WCJ0Lynd58cD0s0IXlxY2ANp2",
      "ward" : "134",
      "zone" : "Malviya Nagar"
    },
    "260" : {
      "address" : "E-11, Saraswati Nagar Extension, Chainpura, Jagatpura",
      "imageRef" : "2021~October~2021-10-18~2~260",
      "isClean" : true,
      "latLng" : "26.8343817,75.8095011",
      "locality" : " Jagatpura",
      "time" : "14:20",
      "user" : "IfTaCIc9ildHleifFcUvTbvprz43",
      "ward" : "106",
      "zone" : "Jagatpura"
    },
    "261" : {
      "address" : "D-140, Gator Rd, Block D, Siddharth Nagar, Jagatpura",
      "imageRef" : "2021~October~2021-10-18~2~261",
      "isClean" : true,
      "latLng" : "26.8346395,75.8112632",
      "locality" : " Jagatpura",
      "time" : "14:21",
      "user" : "IfTaCIc9ildHleifFcUvTbvprz43",
      "ward" : "106",
      "zone" : "Jagatpura"
    },