{
  "1" : {
    "1" : {
      "address" : "XQC7+M36, Pravasi Nagar, Murlipura",
      "imageRef" : "2021~October~2021-10-12~1~1",
      "isClean" : true,
      "latLng" : "26.9717731,75.7627676",
      "locality" : " Murlipura",
      "time" : "14:30",
      "user" : "YkWrRdf2szNa8yiGtDhei5hdkVK2",
      "ward" : "16",
      "zone" : "Murlipura"
    },
    "2" : {
      "address" : "C-7,Mohan Nagar, behind balaji dhram kanta, New Karni Colony, Kishan Vatika, Harmada",
      "imageRef" : "2021~October~2021-10-12~1~2",
      "isClean" : true,
      "latLng" : "27.0079015,75.7707818",
      "locality" : " Harmada",
      "time" : "15:02",
      "user" : "hwFihzMiEXWnYb53htf3U6PtRkG2",
      "ward" : "4",
      "zone" : "Murlipura"
    },
    "3" : {
      "address" : "C-7,Mohan Nagar, behind balaji dhram kanta, New Karni Colony, Kishan Vatika, Harmada",
      "imageRef" : "2021~October~2021-10-12~1~3",
      "isClean" : false,
      "latLng" : "27.0079015,75.7707818",
      "locality" : " Harmada",
      "time" : "15:02",
      "user" : "hwFihzMiEXWnYb53htf3U6PtRkG2",
      "ward" : "4",
      "zone" : "Murlipura"
    },
    "lastKey" : "3"
  },
  "2" : {
    "1" : {
      "address" : "B2/5, Saraswati Marg, Arpit Nagar, Chitrakoot",
      "imageRef" : "2021~October~2021-10-12~2~1",
      "isAnalysis" : "yes",
      "isClean" : true,
      "latLng" : "26.9053054,75.7326062",
      "locality" : " Chitrakoot",
      "penalty" : "100",
      "time" : "10:50",
      "user" : "5O4HmxdGWmcOa1J2WhJr16wb8uG3",
      "ward" : "57",
      "zone" : "Jhotwara"
    },
    "2" : {
      "address" : "Jhotwara, 82,shiv Nagar, 21 south, Niwaru Road, Shanti Path, Jhotwara",
      "imageRef" : "2021~October~2021-10-12~2~2",
      "isAnalysis" : "yes",
      "isClean" : true,
      "latLng" : "26.9577227,75.7344371",
      "locality" : " Jhotwara",
      "penalty" : "100",
      "time" : "10:58",
      "user" : "ev0wnTlCHecAviBhj2QYe4lEAj13",
      "ward" : "28",
      "zone" : "Vidhyadhar"
    },
    "3" : {
      "address" : "72, Laxmi Nagar Second, Niwaru Rd, Laxmi Nagar III, Ward Number 7, Jhotwara",
      "imageRef" : "2021~October~2021-10-12~2~3",
      "isAnalysis" : "yes",
      "isClean" : true,
      "latLng" : "26.9627765,75.740405",
      "locality" : " Jhotwara",
      "penalty" : "100",
      "time" : "11:01",
      "user" : "ev0wnTlCHecAviBhj2QYe4lEAj13",
      "ward" : "19",
      "zone" : "Murlipura"
    },
    "4" : {
      "address" : "72, Laxmi Nagar Second, Niwaru Rd, Laxmi Nagar III, Ward Number 7, Jhotwara",
      "imageRef" : "2021~October~2021-10-12~2~4",
      "isAnalysis" : "yes",
      "isClean" : true,
      "latLng" : "26.9627765,75.740405",
      "locality" : " Jhotwara",
      "penalty" : "100",
      "time" : "11:02",
      "user" : "ev0wnTlCHecAviBhj2QYe4lEAj13",
      "ward" : "19",
      "zone" : "Murlipura"
    },
    "5" : {
      "address" : "Binjari Marg, Jhotwara Industrial Area, Jhotwara",
      "imageRef" : "2021~October~2021-10-12~2~5",
      "isClean" : true,
      "latLng" : "26.9656427,75.7441589",
      "locality" : " Jhotwara",
      "time" : "11:07",
      "user" : "ev0wnTlCHecAviBhj2QYe4lEAj13",
      "ward" : "14",
      "zone" : "Murlipura"
    },
    "6" : {
      "address" : "Binjari Marg, Jhotwara Industrial Area, Jhotwara",
      "imageRef" : "2021~October~2021-10-12~2~6",
      "isAnalysis" : "yes",
      "isClean" : true,
      "latLng" : "26.9656427,75.7441589",
      "locality" : " Jhotwara",
      "penalty" : "100",
      "time" : "11:13",
      "user" : "ev0wnTlCHecAviBhj2QYe4lEAj13",
      "ward" : "14",
      "zone" : "Murlipura"
    },
    "7" : {
      "address" : "31, Macheda, Shankar Vihar Extension, Jamna Puri",
      "imageRef" : "2021~October~2021-10-12~2~7",
      "isAnalysis" : "yes",
      "isClean" : true,
      "latLng" : "26.9834035,75.743773",
      "locality" : " Jamna Puri",
      "penalty" : "100",
      "time" : "11:16",
      "user" : "ev0wnTlCHecAviBhj2QYe4lEAj13",
      "ward" : "12",
      "zone" : "Murlipura"
    },
    "8" : {
      "address" : "39 a maa shakhambri nagar sushilpura, Sodala",
      "imageRef" : "2021~October~2021-10-12~2~8",
      "isClean" : true,
      "latLng" : "26.9035665,75.7613142",
      "locality" : " Sodala",
      "time" : "11:17",
      "user" : "5O4HmxdGWmcOa1J2WhJr16wb8uG3",
      "ward" : "55",
      "zone" : "Jhotwara"
    },
    "9" : {
      "address" : "75-B, Lajpat Nagar, Sin Ka Barah, Jagatpura",
      "imageRef" : "2021~October~2021-10-12~2~9",
      "isClean" : true,
      "latLng" : "26.8220433,75.8480233",
      "locality" : " Jagatpura",
      "time" : "11:19",
      "user" : "IfTaCIc9ildHleifFcUvTbvprz43",
      "ward" : "116",
      "zone" : "Jagatpura"
    },
    "10" : {
      "address" : "9587541630 8386824772, Laxmi Nagar III, Jagannath Puri, Suraj Nagar, Jhotwara",
      "imageRef" : "2021~October~2021-10-12~2~10",
      "isAnalysis" : "yes",
      "isClean" : true,
      "latLng" : "26.9448501,75.7466622",
      "locality" : " Jhotwara",
      "penalty" : "100",
      "time" : "11:20",
      "user" : "q824l6Y9DwXAx5nm9I9C1cImcRo1",
      "ward" : "32",
      "zone" : "Vidhyadhar"
    },
    "11" : {
      "address" : "2, Shiv Nagar Rd, Dadi Ka Phatak, Anand Vihar, Murlipura",
      "imageRef" : "2021~October~2021-10-12~2~11",
      "isClean" : true,
      "latLng" : "26.9696568,75.7527457",
      "locality" : " Murlipura",
      "time" : "11:21",
      "user" : "ev0wnTlCHecAviBhj2QYe4lEAj13",
      "ward" : "14",
      "zone" : "Murlipura"
    },
    "12" : {
      "address" : "19-6-20/D, Mahal Rd, Tirupati Nagar, Vidhyadhar Nagar, Railway Colony, Jagatpura",
      "imageRef" : "2021~October~2021-10-12~2~12",
      "isAnalysis" : "yes",
      "isClean" : true,
      "latLng" : "26.826025,75.8461333",
      "locality" : " Jagatpura",
      "penalty" : "100",
      "time" : "11:22",
      "user" : "IfTaCIc9ildHleifFcUvTbvprz43",
      "ward" : "116",
      "zone" : "Jagatpura"
    },
    "13" : {
      "address" : "Road, 43, Madan vihar, Dadi Ka Phatak, Dahar Ka Balaji",
      "imageRef" : "2021~October~2021-10-12~2~13",
      "isAnalysis" : "yes",
      "isClean" : true,
      "latLng" : "26.966041,75.7552974",
      "locality" : " Dahar Ka Balaji",
      "penalty" : "100",
      "time" : "11:24",
      "user" : "ev0wnTlCHecAviBhj2QYe4lEAj13",
      "ward" : "14",
      "zone" : "Murlipura"
    },
    "14" : {
      "address" : "Road, 43, Madan vihar, Dadi Ka Phatak, Dahar Ka Balaji",
      "imageRef" : "2021~October~2021-10-12~2~14",
      "isAnalysis" : "yes",
      "isClean" : true,
      "latLng" : "26.966041,75.7552974",
      "locality" : " Dahar Ka Balaji",
      "penalty" : "100",
      "time" : "11:25",
      "user" : "ev0wnTlCHecAviBhj2QYe4lEAj13",
      "ward" : "14",
      "zone" : "Murlipura"
    },
    "15" : {
      "address" : "49, Binjari Marg, Anand Vihar-A, Durga Vihar, Vikash Nagar, Jhotwara",
      "imageRef" : "2021~October~2021-10-12~2~15",
      "isAnalysis" : "yes",
      "isClean" : true,
      "latLng" : "26.9644561,75.755775",
      "locality" : " Jhotwara",
      "penalty" : "100",
      "time" : "11:27",
      "user" : "ev0wnTlCHecAviBhj2QYe4lEAj13",
      "ward" : "14",
      "zone" : "Murlipura"
    },
    "16" : {
      "address" : "100, Jhotwara Industrial Area, Jhotwara",
      "imageRef" : "2021~October~2021-10-12~2~16",
      "isClean" : true,
      "latLng" : "26.9546563,75.7519319",
      "locality" : " Jhotwara",
      "time" : "11:31",
      "user" : "q824l6Y9DwXAx5nm9I9C1cImcRo1",
      "ward" : "19",
      "zone" : "Murlipura"
    },
    "17" : {
      "address" : "120, 120, Krishna Marg, R.F.C. Colony, Hanuman Nagar Extension, Officers Campus Colony, Khatipura",
      "imageRef" : "2021~October~2021-10-12~2~17",
      "isAnalysis" : "yes",
      "isClean" : true,
      "latLng" : "26.9213866,75.7384209",
      "locality" : " Khatipura",
      "penalty" : "100",
      "time" : "11:32",
      "user" : "5O4HmxdGWmcOa1J2WhJr16wb8uG3",
      "ward" : "42",
      "zone" : "Vidhyadhar"
    },
    "18" : {
      "address" : "17, Brij Mandal Colony, Jhotwara",
      "imageRef" : "2021~October~2021-10-12~2~18",
      "isClean" : true,
      "latLng" : "26.9375524,75.7317628",
      "locality" : " Jhotwara",
      "time" : "11:35",
      "user" : "5O4HmxdGWmcOa1J2WhJr16wb8uG3",
      "ward" : "39",
      "zone" : "Vidhyadhar"
    },
    "19" : {
      "address" : "G1-818k, Rd Number 14, Vishwakarma Industrial Area, Murlipura",
      "imageRef" : "2021~October~2021-10-12~2~19",
      "isClean" : true,
      "latLng" : "26.9949977,75.7716891",
      "locality" : " Murlipura",
      "time" : "11:36",
      "user" : "RxDvTuUUsCTs9GcCg5g0iG9fA3t2",
      "ward" : "8",
      "zone" : "Murlipura"
    },
    "20" : {
      "address" : "G1-818k, Rd Number 14, Vishwakarma Industrial Area, Murlipura",
      "imageRef" : "2021~October~2021-10-12~2~20",
      "isClean" : true,
      "latLng" : "26.9949977,75.7716891",
      "locality" : " Murlipura",
      "time" : "11:36",
      "user" : "RxDvTuUUsCTs9GcCg5g0iG9fA3t2",
      "ward" : "8",
      "zone" : "Murlipura"
    },
    "21" : {
      "address" : "42, Laxmi Nagar South, Krishna Colony, Jhotwara",
      "imageRef" : "2021~October~2021-10-12~2~21",
      "isAnalysis" : "yes",
      "isClean" : true,
      "latLng" : "26.9480561,75.7567201",
      "locality" : " Jhotwara",
      "penalty" : "100",
      "time" : "11:37",
      "user" : "q824l6Y9DwXAx5nm9I9C1cImcRo1",
      "ward" : "30",
      "zone" : "Vidhyadhar"
    },
    "22" : {
      "address" : "183, 200 Feet Bypass Rd, Vikas Nagar, Pratik Nagar, Jhotwara",
      "imageRef" : "2021~October~2021-10-12~2~22",
      "isAnalysis" : "yes",
      "isClean" : true,
      "latLng" : "26.9435411,75.732182",
      "locality" : " Jhotwara",
      "penalty" : "100",
      "time" : "11:38",
      "user" : "5O4HmxdGWmcOa1J2WhJr16wb8uG3",
      "ward" : "36",
      "zone" : "Vidhyadhar"
    },
    "23" : {
      "address" : "123, 200 Feet Bypass Rd, Bal Vihar, Jhotwara",
      "imageRef" : "2021~October~2021-10-12~2~23",
      "isAnalysis" : "yes",
      "isClean" : true,
      "latLng" : "26.9483269,75.7325834",
      "locality" : " Jhotwara",
      "penalty" : "100",
      "time" : "11:40",
      "user" : "5O4HmxdGWmcOa1J2WhJr16wb8uG3",
      "ward" : "32",
      "zone" : "Vidhyadhar"
    },
    "24" : {
      "address" : "79/112, Shipra Path, Ward 27, Shipra Path, Barh Devariya, Mansarovar",
      "imageRef" : "2021~October~2021-10-12~2~24",
      "isClean" : true,
      "latLng" : "26.8621408,75.7735065",
      "locality" : " Mansarovar",
      "time" : "11:40",
      "user" : "LB5ZuA5FjaclXAeRLRT2dIRkowk2",
      "ward" : "76",
      "zone" : "Mansarovar"
    },
    "25" : {
      "address" : "128 industrial area jhotwara, 128, Niwaru Rd, Jhotwara Industrial Area, Jhotwara",
      "imageRef" : "2021~October~2021-10-12~2~25",
      "isAnalysis" : "yes",
      "isClean" : true,
      "latLng" : "26.9485921,75.7620019",
      "locality" : " Jhotwara",
      "penalty" : "100",
      "time" : "11:41",
      "user" : "q824l6Y9DwXAx5nm9I9C1cImcRo1",
      "ward" : "19",
      "zone" : "Murlipura"
    },
    "26" : {
      "address" : "431-d, Kalwar Rd, Bal Vihar, Jhotwara",
      "imageRef" : "2021~October~2021-10-12~2~26",
      "isAnalysis" : "yes",
      "isClean" : true,
      "latLng" : "26.9501064,75.7327455",
      "locality" : " Jhotwara",
      "penalty" : "100",
      "time" : "11:44",
      "user" : "5O4HmxdGWmcOa1J2WhJr16wb8uG3",
      "ward" : "32",
      "zone" : "Vidhyadhar"
    },
    "27" : {
      "address" : "79/112, Shipra Path, Ward 27, Shipra Path, Barh Devariya, Mansarovar",
      "imageRef" : "2021~October~2021-10-12~2~27",
      "isClean" : true,
      "latLng" : "26.8621408,75.7735065",
      "locality" : " Mansarovar",
      "time" : "11:44",
      "user" : "LB5ZuA5FjaclXAeRLRT2dIRkowk2",
      "ward" : "76",
      "zone" : "Mansarovar"
    },
    "28" : {
      "address" : "Block-10, Nabard Staff Quarters, Model Town, Malviya Nagar",
      "imageRef" : "2021~October~2021-10-12~2~28",
      "isAnalysis" : "yes",
      "isClean" : true,
      "latLng" : "26.8480183,75.824935",
      "locality" : " Malviya Nagar",
      "penalty" : "100",
      "time" : "11:44",
      "user" : "IfTaCIc9ildHleifFcUvTbvprz43",
      "ward" : "109",
      "zone" : "Jagatpura"
    },
    "29" : {
      "address" : "77, Laxmi Nagar III, Ward Number 7, Jhotwara Industrial Area, Jhotwara",
      "imageRef" : "2021~October~2021-10-12~2~29",
      "isAnalysis" : "yes",
      "isClean" : true,
      "latLng" : "26.9629472,75.7405987",
      "locality" : " Jhotwara",
      "penalty" : "100",
      "time" : "11:45",
      "user" : "5O4HmxdGWmcOa1J2WhJr16wb8uG3",
      "ward" : "19",
      "zone" : "Murlipura"
    },
    "30" : {
      "address" : "E103, Rd Number 7, near Toyota showroom, Vishwakarma Industrial Area",
      "imageRef" : "2021~October~2021-10-12~2~30",
      "isClean" : true,
      "latLng" : "26.9828037,75.7748759",
      "locality" : " Vishwakarma Industrial Area",
      "time" : "11:45",
      "user" : "RxDvTuUUsCTs9GcCg5g0iG9fA3t2",
      "ward" : "8",
      "zone" : "Murlipura"
    },
    "31" : {
      "address" : "E103, Rd Number 7, near Toyota showroom, Vishwakarma Industrial Area",
      "imageRef" : "2021~October~2021-10-12~2~31",
      "isClean" : true,
      "latLng" : "26.9828037,75.7748759",
      "locality" : " Vishwakarma Industrial Area",
      "time" : "11:45",
      "user" : "RxDvTuUUsCTs9GcCg5g0iG9fA3t2",
      "ward" : "8",
      "zone" : "Murlipura"
    },
    "32" : {
      "address" : "160, Arawali Marg, Mansarovar Sector 7, Shipra Path, Barh Devariya, Mansarovar",
      "imageRef" : "2021~October~2021-10-12~2~32",
      "isAnalysis" : "yes",
      "isClean" : true,
      "latLng" : "26.8626161,75.7708522",
      "locality" : " Mansarovar",
      "penalty" : "100",
      "time" : "11:46",
      "user" : "LB5ZuA5FjaclXAeRLRT2dIRkowk2",
      "ward" : "76",
      "zone" : "Mansarovar"
    },
    "33" : {
      "address" : "77, Laxmi Nagar III, Ward Number 7, Jhotwara Industrial Area, Jhotwara",
      "imageRef" : "2021~October~2021-10-12~2~33",
      "isAnalysis" : "yes",
      "isClean" : true,
      "latLng" : "26.9629472,75.7405987",
      "locality" : " Jhotwara",
      "penalty" : "100",
      "time" : "11:47",
      "user" : "5O4HmxdGWmcOa1J2WhJr16wb8uG3",
      "ward" : "19",
      "zone" : "Murlipura"
    },
    "34" : {
      "address" : "507, Champa Nagar, Shanthi Nagar, Mansarovar",
      "imageRef" : "2021~October~2021-10-12~2~34",
      "isClean" : true,
      "latLng" : "26.871211,75.7631585",
      "locality" : " Mansarovar",
      "time" : "11:50",
      "user" : "LB5ZuA5FjaclXAeRLRT2dIRkowk2",
      "ward" : "Not Found",
      "zone" : "Not Found"
    },
    "35" : {
      "address" : "507, Champa Nagar, Shanthi Nagar, Mansarovar",
      "imageRef" : "2021~October~2021-10-12~2~35",
      "isAnalysis" : "yes",
      "isClean" : true,
      "latLng" : "26.871211,75.7631585",
      "locality" : " Mansarovar",
      "penalty" : "100",
      "time" : "11:50",
      "user" : "LB5ZuA5FjaclXAeRLRT2dIRkowk2",
      "ward" : "Not Found",
      "zone" : "Not Found"
    },
    "36" : {
      "address" : "507, Champa Nagar, Shanthi Nagar, Mansarovar",
      "imageRef" : "2021~October~2021-10-12~2~36",
      "isAnalysis" : "yes",
      "isClean" : true,
      "latLng" : "26.871077,75.7632336",
      "locality" : " Mansarovar",
      "penalty" : "100",
      "time" : "11:55",
      "user" : "LB5ZuA5FjaclXAeRLRT2dIRkowk2",
      "ward" : "Not Found",
      "zone" : "Not Found"
    },
    "37" : {
      "address" : "14/64, Mansarovar Sector 1, Mansarovar",
      "imageRef" : "2021~October~2021-10-12~2~37",
      "isClean" : true,
      "latLng" : "26.8733991,75.7596528",
      "locality" : " Mansarovar",
      "time" : "11:58",
      "user" : "LB5ZuA5FjaclXAeRLRT2dIRkowk2",
      "ward" : "Not Found",
      "zone" : "Not Found"
    },
    "38" : {
      "address" : "92, Gokhale Marg, Mansarovar Sector 9, Sector 9, Mansarovar",
      "imageRef" : "2021~October~2021-10-12~2~38",
      "isClean" : true,
      "latLng" : "26.8511456,75.7726301",
      "locality" : " Mansarovar",
      "time" : "12:00",
      "user" : "hSj8KLePtIahPfa2gdHlJlQcsHi2",
      "ward" : "82",
      "zone" : "Mansarovar"
    },
    "39" : {
      "address" : "92, Gokhale Marg, Mansarovar Sector 9, Sector 9, Mansarovar",
      "imageRef" : "2021~October~2021-10-12~2~39",
      "isClean" : true,
      "latLng" : "26.8511456,75.7726301",
      "locality" : " Mansarovar",
      "time" : "12:01",
      "user" : "hSj8KLePtIahPfa2gdHlJlQcsHi2",
      "ward" : "82",
      "zone" : "Mansarovar"
    },
    "40" : {
      "address" : "92, Gokhale Marg, Mansarovar Sector 9, Sector 9, Mansarovar",
      "imageRef" : "2021~October~2021-10-12~2~40",
      "isAnalysis" : "yes",
      "isClean" : true,
      "latLng" : "26.8511456,75.7726301",
      "locality" : " Mansarovar",
      "penalty" : "100",
      "time" : "12:01",
      "user" : "hSj8KLePtIahPfa2gdHlJlQcsHi2",
      "ward" : "82",
      "zone" : "Mansarovar"
    },
    "41" : {
      "address" : "12/80, Shipra Path, Sector 12, Mansarovar Sector 1, Mansarovar",
      "imageRef" : "2021~October~2021-10-12~2~41",
      "isAnalysis" : "yes",
      "isClean" : true,
      "latLng" : "26.8769261,75.7584659",
      "locality" : " Mansarovar",
      "penalty" : "100",
      "time" : "12:19",
      "user" : "LB5ZuA5FjaclXAeRLRT2dIRkowk2",
      "ward" : "Not Found",
      "zone" : "Not Found"
    },
    "42" : {
      "address" : "52/287, Padmani VT Rd, Ward 27, Mansarovar Sector 5, Mansarovar",
      "imageRef" : "2021~October~2021-10-12~2~42",
      "isClean" : true,
      "latLng" : "26.865962,75.7694413",
      "locality" : " Mansarovar",
      "time" : "12:24",
      "user" : "LB5ZuA5FjaclXAeRLRT2dIRkowk2",
      "ward" : "76",
      "zone" : "Mansarovar"
    },
    "43" : {
      "address" : "Near Elements Mall, Ajmer Rd, near Om Sweet Caterers, DCM",
      "imageRef" : "2021~October~2021-10-12~2~43",
      "isAnalysis" : "yes",
      "isClean" : true,
      "latLng" : "26.8943079,75.7476592",
      "locality" : " DCM",
      "penalty" : "100",
      "time" : "12:25",
      "user" : "EY0cg0gEW0WKz60icDpLpkaWSij2",
      "ward" : "62",
      "zone" : "Jhotwara"
    },
    "44" : {
      "address" : "412, Diggi Malpura Rd, Dada Gurudev Nagar, Sanganer",
      "imageRef" : "2021~October~2021-10-12~2~44",
      "isClean" : true,
      "latLng" : "26.8163521,75.7814351",
      "locality" : " Sanganer",
      "time" : "12:30",
      "user" : "EY0cg0gEW0WKz60icDpLpkaWSij2",
      "ward" : "93",
      "zone" : "Sanganer"
    },
    "45" : {
      "address" : "82/33, Sh-12, Ward 27, Mansarovar Sector 8, Mansarovar",
      "imageRef" : "2021~October~2021-10-12~2~45",
      "isAnalysis" : "yes",
      "isClean" : true,
      "latLng" : "26.8540136,75.76157",
      "locality" : " Mansarovar",
      "penalty" : "100",
      "time" : "12:32",
      "user" : "LB5ZuA5FjaclXAeRLRT2dIRkowk2",
      "ward" : "75",
      "zone" : "Mansarovar"
    },
    "46" : {
      "address" : "RQ7J+RGJ, Printers Colony, Dada Gurudev Nagar, Sanganer",
      "imageRef" : "2021~October~2021-10-12~2~46",
      "isClean" : true,
      "latLng" : "26.8145601,75.7811957",
      "locality" : " Sanganer",
      "time" : "12:32",
      "user" : "EY0cg0gEW0WKz60icDpLpkaWSij2",
      "ward" : "93",
      "zone" : "Sanganer"
    },
    "47" : {
      "address" : "B-421, Mandir Marg, Heerapura, Heerawala",
      "imageRef" : "2021~October~2021-10-12~2~47",
      "isClean" : true,
      "latLng" : "26.8928655,75.7298099",
      "locality" : " Heerawala",
      "time" : "12:35",
      "user" : "OeCnghJYjVcG0jAsX9gPY6vGDnl2",
      "ward" : "60",
      "zone" : "Jhotwara"
    },
    "48" : {
      "address" : "B-421, Mandir Marg, Heerapura, Heerawala",
      "imageRef" : "2021~October~2021-10-12~2~48",
      "isClean" : true,
      "latLng" : "26.8928655,75.7298099",
      "locality" : " Heerawala",
      "time" : "12:36",
      "user" : "OeCnghJYjVcG0jAsX9gPY6vGDnl2",
      "ward" : "60",
      "zone" : "Jhotwara"
    },
    "49" : {
      "address" : "11, Bismilla Colony, Jagannath Puri, Udyog Nagar, Jhotwara",
      "imageRef" : "2021~October~2021-10-12~2~49",
      "isAnalysis" : "yes",
      "isClean" : true,
      "latLng" : "26.9511669,75.747319",
      "locality" : " Jhotwara",
      "penalty" : "100",
      "time" : "12:39",
      "user" : "q824l6Y9DwXAx5nm9I9C1cImcRo1",
      "ward" : "28",
      "zone" : "Vidhyadhar"
    },
    "50" : {
      "address" : "Sanganer, Dada Gurudev Nagar, Sanganer",
      "imageRef" : "2021~October~2021-10-12~2~50",
      "isAnalysis" : "yes",
      "isClean" : true,
      "latLng" : "26.8171405,75.7739728",
      "locality" : " Sanganer",
      "penalty" : "100",
      "time" : "12:42",
      "user" : "EY0cg0gEW0WKz60icDpLpkaWSij2",
      "ward" : "89",
      "zone" : "Sanganer"
    },
    "51" : {
      "address" : "55-56, near Railway Station, Dev Nagar, Dada Gurudev Nagar, Sanganer",
      "imageRef" : "2021~October~2021-10-12~2~51",
      "isClean" : true,
      "latLng" : "26.8176299,75.7732364",
      "locality" : " Sanganer",
      "time" : "12:43",
      "user" : "EY0cg0gEW0WKz60icDpLpkaWSij2",
      "ward" : "89",
      "zone" : "Sanganer"
    },
    "52" : {
      "address" : "P.NO 2A-2B OPP DADABADI, DADA GURUDEV NAGAR, SANGANER, Gopi Nagar, Dada Gurudev Nagar, Sanganer",
      "imageRef" : "2021~October~2021-10-12~2~52",
      "isClean" : true,
      "latLng" : "26.81798,75.7755868",
      "locality" : " Sanganer",
      "time" : "12:46",
      "user" : "EY0cg0gEW0WKz60icDpLpkaWSij2",
      "ward" : "89",
      "zone" : "Sanganer"
    },
    "53" : {
      "address" : "66, Dada Gurudev Nagar, Sanganer",
      "imageRef" : "2021~October~2021-10-12~2~53",
      "isAnalysis" : "yes",
      "isClean" : true,
      "latLng" : "26.8140024,75.7751815",
      "locality" : " Sanganer",
      "penalty" : "100",
      "time" : "12:48",
      "user" : "EY0cg0gEW0WKz60icDpLpkaWSij2",
      "ward" : "89",
      "zone" : "Sanganer"
    },
    "54" : {
      "address" : "Shop No.7, Station Road, Dadda Bari, Dada Bari Rd, Bharave Colony, Dada Gurudev Nagar, Sanganer",
      "imageRef" : "2021~October~2021-10-12~2~54",
      "isClean" : true,
      "latLng" : "26.8128212,75.7767181",
      "locality" : " Sanganer",
      "time" : "12:50",
      "user" : "EY0cg0gEW0WKz60icDpLpkaWSij2",
      "ward" : "92",
      "zone" : "Sanganer"
    },
    "55" : {
      "address" : "116, doctor colony sanjay ke pass, Ajmer Rd, Akruti Apartments, Doctors Colony, Chitrakoot",
      "imageRef" : "2021~October~2021-10-12~2~55",
      "isClean" : true,
      "latLng" : "26.8977061,75.7427818",
      "locality" : " Chitrakoot",
      "time" : "12:52",
      "user" : "OeCnghJYjVcG0jAsX9gPY6vGDnl2",
      "ward" : "61",
      "zone" : "Jhotwara"
    },
    "56" : {
      "address" : "116, doctor colony sanjay ke pass, Ajmer Rd, Akruti Apartments, Doctors Colony, Chitrakoot",
      "imageRef" : "2021~October~2021-10-12~2~56",
      "isClean" : true,
      "latLng" : "26.8977061,75.7427818",
      "locality" : " Chitrakoot",
      "time" : "12:52",
      "user" : "OeCnghJYjVcG0jAsX9gPY6vGDnl2",
      "ward" : "61",
      "zone" : "Jhotwara"
    },
    "57" : {
      "address" : "39, Jagdamba Nagar Rd, Dhawas, Heerapura, Girdharipura",
      "imageRef" : "2021~October~2021-10-12~2~57",
      "isClean" : true,
      "latLng" : "26.8920672,75.7264277",
      "locality" : " Girdharipura",
      "time" : "12:53",
      "user" : "OeCnghJYjVcG0jAsX9gPY6vGDnl2",
      "ward" : "59",
      "zone" : "Jhotwara"
    },
    "58" : {
      "address" : "B-107, Mangal Vihar, Ganga Jamuna Colony, near Dadi Ka Phatak, Ganga Jamuna Colony, Murlipura",
      "imageRef" : "2021~October~2021-10-12~2~58",
      "isClean" : true,
      "latLng" : "26.9680484,75.7575122",
      "locality" : " Murlipura",
      "time" : "12:53",
      "user" : "ev0wnTlCHecAviBhj2QYe4lEAj13",
      "ward" : "15",
      "zone" : "Murlipura"
    },
    "59" : {
      "address" : "76, Dhawas, Vikash Nagar-D, Amrapali Circle, Vaishali Nagar",
      "imageRef" : "2021~October~2021-10-12~2~59",
      "isAnalysis" : "yes",
      "isClean" : true,
      "latLng" : "26.8925741,75.7255536",
      "locality" : " Vaishali Nagar",
      "penalty" : "100",
      "time" : "12:53",
      "user" : "OeCnghJYjVcG0jAsX9gPY6vGDnl2",
      "ward" : "59",
      "zone" : "Jhotwara"
    },
    "60" : {
      "address" : "233, Sindhu Nagar, Bhawani Nagar",
      "imageRef" : "2021~October~2021-10-12~2~60",
      "isClean" : true,
      "latLng" : "26.9655159,75.7649477",
      "locality" : " Bhawani Nagar",
      "time" : "12:54",
      "user" : "5O4HmxdGWmcOa1J2WhJr16wb8uG3",
      "ward" : "20",
      "zone" : "Murlipura"
    },
    "61" : {
      "address" : "271 partap nagar circle, Vijay Nagar, SONI KA BAG, Murlipura",
      "imageRef" : "2021~October~2021-10-12~2~61",
      "isClean" : true,
      "latLng" : "26.9660447,75.7648858",
      "locality" : " Murlipura",
      "time" : "12:57",
      "user" : "5O4HmxdGWmcOa1J2WhJr16wb8uG3",
      "ward" : "18",
      "zone" : "Murlipura"
    },
    "62" : {
      "address" : "36, Sikar Rd, SONI KA BAG, Bhawani Nagar",
      "imageRef" : "2021~October~2021-10-12~2~62",
      "isAnalysis" : "yes",
      "isClean" : true,
      "latLng" : "26.9644124,75.7714789",
      "locality" : " Bhawani Nagar",
      "penalty" : "100",
      "time" : "12:58",
      "user" : "ev0wnTlCHecAviBhj2QYe4lEAj13",
      "ward" : "18",
      "zone" : "Murlipura"
    },
    "63" : {
      "address" : "36, Sikar Rd, SONI KA BAG, Bhawani Nagar",
      "imageRef" : "2021~October~2021-10-12~2~63",
      "isClean" : true,
      "latLng" : "26.9644124,75.7714789",
      "locality" : " Bhawani Nagar",
      "time" : "12:58",
      "user" : "ev0wnTlCHecAviBhj2QYe4lEAj13",
      "ward" : "18",
      "zone" : "Murlipura"
    },
    "64" : {
      "address" : "Bandhu Nagar, Sikar Rd, SONI KA BAG, Murlipura",
      "imageRef" : "2021~October~2021-10-12~2~64",
      "isAnalysis" : "yes",
      "isClean" : true,
      "latLng" : "26.9642861,75.7716738",
      "locality" : " Murlipura",
      "penalty" : "100",
      "time" : "13:00",
      "user" : "ev0wnTlCHecAviBhj2QYe4lEAj13",
      "ward" : "18",
      "zone" : "Murlipura"
    },
    "65" : {
      "address" : "10, Dahar Ka Balaji",
      "imageRef" : "2021~October~2021-10-12~2~65",
      "isClean" : true,
      "latLng" : "26.9638354,75.7636003",
      "locality" : " Dahar Ka Balaji",
      "time" : "13:01",
      "user" : "5O4HmxdGWmcOa1J2WhJr16wb8uG3",
      "ward" : "20",
      "zone" : "Murlipura"
    },
    "66" : {
      "address" : "Path Number 6, Vijay Bari, Vidyadhar Nagar",
      "imageRef" : "2021~October~2021-10-12~2~66",
      "isAnalysis" : "yes",
      "isClean" : true,
      "latLng" : "26.9588983,75.7710699",
      "locality" : " Vidyadhar Nagar",
      "penalty" : "100",
      "time" : "13:04",
      "user" : "5O4HmxdGWmcOa1J2WhJr16wb8uG3",
      "ward" : "20",
      "zone" : "Murlipura"
    },
    "67" : {
      "address" : "Road Number 1, SONI KA BAG, Murlipura",
      "imageRef" : "2021~October~2021-10-12~2~67",
      "isClean" : true,
      "latLng" : "26.970609,75.7725908",
      "locality" : " Murlipura",
      "time" : "13:08",
      "user" : "ev0wnTlCHecAviBhj2QYe4lEAj13",
      "ward" : "8",
      "zone" : "Murlipura"
    },
    "68" : {
      "address" : "119/330, Vikramaditya Marg, Mansarovar Sector 11, Jhalana Chhod, Mansarovar",
      "imageRef" : "2021~October~2021-10-12~2~68",
      "isClean" : true,
      "latLng" : "26.8412621,75.7735681",
      "locality" : " Mansarovar",
      "time" : "13:12",
      "user" : "LB5ZuA5FjaclXAeRLRT2dIRkowk2",
      "ward" : "84",
      "zone" : "Sanganer"
    },
    "69" : {
      "address" : "Bank colony, near Rose Public Se.Sec.school, Murlipura Scheme, Murlipura",
      "imageRef" : "2021~October~2021-10-12~2~69",
      "isClean" : true,
      "latLng" : "26.9762248,75.7612071",
      "locality" : " Murlipura",
      "time" : "13:14",
      "user" : "RxDvTuUUsCTs9GcCg5g0iG9fA3t2",
      "ward" : "11",
      "zone" : "Murlipura"
    },
    "70" : {
      "address" : "Bank colony, near Rose Public Se.Sec.school, Murlipura Scheme, Murlipura",
      "imageRef" : "2021~October~2021-10-12~2~70",
      "isClean" : true,
      "latLng" : "26.9762248,75.7612071",
      "locality" : " Murlipura",
      "time" : "13:14",
      "user" : "RxDvTuUUsCTs9GcCg5g0iG9fA3t2",
      "ward" : "11",
      "zone" : "Murlipura"
    },
    "71" : {
      "address" : "Bank colony, near Rose Public Se.Sec.school, Murlipura Scheme, Murlipura",
      "imageRef" : "2021~October~2021-10-12~2~71",
      "isClean" : true,
      "latLng" : "26.9762248,75.7612071",
      "locality" : " Murlipura",
      "time" : "13:14",
      "user" : "RxDvTuUUsCTs9GcCg5g0iG9fA3t2",
      "ward" : "11",
      "zone" : "Murlipura"
    },
    "72" : {
      "address" : "Shri Ram Bartan Bhandar, gali number 9, Rd Number 5, Vishwakarma Industrial Area, Murlipura",
      "imageRef" : "2021~October~2021-10-12~2~72",
      "isAnalysis" : "yes",
      "isClean" : true,
      "latLng" : "26.9790336,75.7698119",
      "locality" : " Murlipura",
      "penalty" : "100",
      "time" : "13:16",
      "user" : "ev0wnTlCHecAviBhj2QYe4lEAj13",
      "ward" : "10",
      "zone" : "Murlipura"
    },
    "73" : {
      "address" : "Shri Ram Bartan Bhandar, gali number 9, Rd Number 5, Vishwakarma Industrial Area, Murlipura",
      "imageRef" : "2021~October~2021-10-12~2~73",
      "isAnalysis" : "yes",
      "isClean" : true,
      "latLng" : "26.9790336,75.7698119",
      "locality" : " Murlipura",
      "penalty" : "0",
      "time" : "13:18",
      "user" : "ev0wnTlCHecAviBhj2QYe4lEAj13",
      "ward" : "10",
      "zone" : "Murlipura"
    },
    "74" : {
      "address" : "80/E, Bank Colony, Murlipura Scheme, Murlipura",
      "imageRef" : "2021~October~2021-10-12~2~74",
      "isClean" : true,
      "latLng" : "26.973226,75.7605264",
      "locality" : " Murlipura",
      "time" : "13:20",
      "user" : "RxDvTuUUsCTs9GcCg5g0iG9fA3t2",
      "ward" : "16",
      "zone" : "Murlipura"
    },
    "75" : {
      "address" : "80/E, Bank Colony, Murlipura Scheme, Murlipura",
      "imageRef" : "2021~October~2021-10-12~2~75",
      "isAnalysis" : "yes",
      "isClean" : true,
      "latLng" : "26.973226,75.7605264",
      "locality" : " Murlipura",
      "penalty" : "100",
      "time" : "13:21",
      "user" : "RxDvTuUUsCTs9GcCg5g0iG9fA3t2",
      "ward" : "16",
      "zone" : "Murlipura"
    },
    "76" : {
      "address" : "408, Pratap Nagar Vistar, Vishwakarma Industrial Area, Murlipura",
      "imageRef" : "2021~October~2021-10-12~2~76",
      "isAnalysis" : "yes",
      "isClean" : true,
      "latLng" : "26.9858123,75.7731822",
      "locality" : " Murlipura",
      "penalty" : "100",
      "time" : "13:23",
      "user" : "ev0wnTlCHecAviBhj2QYe4lEAj13",
      "ward" : "7",
      "zone" : "Murlipura"
    },
    "77" : {
      "address" : "XQRC+2MR, Anaj Mandi, Murlipura",
      "imageRef" : "2021~October~2021-10-12~2~77",
      "isAnalysis" : "yes",
      "isClean" : true,
      "latLng" : "26.9901399,75.7717857",
      "locality" : " Murlipura",
      "penalty" : "100",
      "time" : "13:26",
      "user" : "ev0wnTlCHecAviBhj2QYe4lEAj13",
      "ward" : "7",
      "zone" : "Murlipura"
    },
    "78" : {
      "address" : "XQRC+2MR, Anaj Mandi, Murlipura",
      "imageRef" : "2021~October~2021-10-12~2~78",
      "isAnalysis" : "yes",
      "isClean" : true,
      "latLng" : "26.9901399,75.7717857",
      "locality" : " Murlipura",
      "penalty" : "100",
      "time" : "13:28",
      "user" : "ev0wnTlCHecAviBhj2QYe4lEAj13",
      "ward" : "7",
      "zone" : "Murlipura"
    },
    "79" : {
      "address" : "C-26, 9 Number, Sikar Rd, Anaj Mandi, Murlipura",
      "imageRef" : "2021~October~2021-10-12~2~79",
      "isAnalysis" : "yes",
      "isClean" : true,
      "latLng" : "26.9917043,75.7689882",
      "locality" : " Murlipura",
      "penalty" : "100",
      "time" : "13:32",
      "user" : "ev0wnTlCHecAviBhj2QYe4lEAj13",
      "ward" : "7",
      "zone" : "Murlipura"
    },
    "80" : {
      "address" : "C-26, 9 Number, Sikar Rd, Anaj Mandi, Murlipura",
      "imageRef" : "2021~October~2021-10-12~2~80",
      "isAnalysis" : "yes",
      "isClean" : true,
      "latLng" : "26.9917043,75.7689882",
      "locality" : " Murlipura",
      "penalty" : "100",
      "time" : "13:33",
      "user" : "ev0wnTlCHecAviBhj2QYe4lEAj13",
      "ward" : "7",
      "zone" : "Murlipura"
    },
    "81" : {
      "address" : "Plot No 274 Pratap Nagar Ext Vaidh Ji Ka Chouraha Opp. Road No. 5 Scheme, Vishwakarma Industrial Area, Murlipura",
      "imageRef" : "2021~October~2021-10-12~2~81",
      "isClean" : true,
      "latLng" : "26.9873163,75.7631965",
      "locality" : " Murlipura",
      "time" : "13:37",
      "user" : "ev0wnTlCHecAviBhj2QYe4lEAj13",
      "ward" : "7",
      "zone" : "Murlipura"
    },
    "82" : {
      "address" : "XQMF+V8W, Vishwakarma Industrial Area, Murlipura",
      "imageRef" : "2021~October~2021-10-12~2~82",
      "isClean" : true,
      "latLng" : "26.9846346,75.7733783",
      "locality" : " Murlipura",
      "time" : "13:38",
      "user" : "RxDvTuUUsCTs9GcCg5g0iG9fA3t2",
      "ward" : "7",
      "zone" : "Murlipura"
    },
    "83" : {
      "address" : "XQMF+V8W, Vishwakarma Industrial Area, Murlipura",
      "imageRef" : "2021~October~2021-10-12~2~83",
      "isClean" : true,
      "latLng" : "26.9846346,75.7733783",
      "locality" : " Murlipura",
      "time" : "13:38",
      "user" : "RxDvTuUUsCTs9GcCg5g0iG9fA3t2",
      "ward" : "7",
      "zone" : "Murlipura"
    },
    "84" : {
      "address" : "XQMF+V8W, Vishwakarma Industrial Area, Murlipura",
      "imageRef" : "2021~October~2021-10-12~2~84",
      "isClean" : true,
      "latLng" : "26.9846346,75.7733783",
      "locality" : " Murlipura",
      "time" : "13:38",
      "user" : "RxDvTuUUsCTs9GcCg5g0iG9fA3t2",
      "ward" : "7",
      "zone" : "Murlipura"
    },
    "85" : {
      "address" : "RQCP+CM3, Kundan Nagar",
      "imageRef" : "2021~October~2021-10-12~2~85",
      "isAnalysis" : "yes",
      "isClean" : true,
      "latLng" : "26.8210998,75.7867273",
      "locality" : " Kundan Nagar",
      "penalty" : "100",
      "time" : "14:01",
      "user" : "EY0cg0gEW0WKz60icDpLpkaWSij2",
      "ward" : "90",
      "zone" : "Sanganer"
    },
    "86" : {
      "address" : "RQCP+CM3, Kundan Nagar",
      "imageRef" : "2021~October~2021-10-12~2~86",
      "isClean" : true,
      "latLng" : "26.8210998,75.7867273",
      "locality" : " Kundan Nagar",
      "time" : "14:02",
      "user" : "EY0cg0gEW0WKz60icDpLpkaWSij2",
      "ward" : "90",
      "zone" : "Sanganer"
    },
    "87" : {
      "address" : "SB-54, Sawai Mansingh Rd, Bapu Nagar",
      "imageRef" : "2021~October~2021-10-12~2~87",
      "isAnalysis" : "yes",
      "isClean" : true,
      "latLng" : "26.8931175,75.8070898",
      "locality" : " Bapu Nagar",
      "penalty" : "100",
      "time" : "14:04",
      "user" : "R2QUov9b5oMM9H74iLKfUFx1iNn2",
      "ward" : "142",
      "zone" : "Malviya Nagar"
    },
    "88" : {
      "address" : "Khadi Gramodyog Road, Sanganer, Ganesh Colony, Kundan Nagar",
      "imageRef" : "2021~October~2021-10-12~2~88",
      "isAnalysis" : "yes",
      "isClean" : true,
      "latLng" : "26.8203221,75.7860675",
      "locality" : " Kundan Nagar",
      "penalty" : "100",
      "time" : "14:05",
      "user" : "EY0cg0gEW0WKz60icDpLpkaWSij2",
      "ward" : "90",
      "zone" : "Sanganer"
    },
    "89" : {
      "address" : "Khadi Gramodyog Road, Sanganer, Ganesh Colony, Kundan Nagar",
      "imageRef" : "2021~October~2021-10-12~2~89",
      "isAnalysis" : "yes",
      "isClean" : true,
      "latLng" : "26.8203221,75.7860675",
      "locality" : " Kundan Nagar",
      "penalty" : "100",
      "time" : "14:06",
      "user" : "EY0cg0gEW0WKz60icDpLpkaWSij2",
      "ward" : "90",
      "zone" : "Sanganer"
    },
    "90" : {
      "address" : "Khadi Gramodyog Road, Sanganer, Ganesh Colony, Kundan Nagar",
      "imageRef" : "2021~October~2021-10-12~2~90",
      "isAnalysis" : "yes",
      "isClean" : true,
      "latLng" : "26.820392,75.7859705",
      "locality" : " Kundan Nagar",
      "penalty" : "100",
      "time" : "14:10",
      "user" : "EY0cg0gEW0WKz60icDpLpkaWSij2",
      "ward" : "90",
      "zone" : "Sanganer"
    },
    "91" : {
      "address" : "Khadi Gramodyog Road, Sanganer, Ganesh Colony, Kundan Nagar",
      "imageRef" : "2021~October~2021-10-12~2~91",
      "isAnalysis" : "yes",
      "isClean" : true,
      "latLng" : "26.820392,75.7859705",
      "locality" : " Kundan Nagar",
      "penalty" : "100",
      "time" : "14:10",
      "user" : "EY0cg0gEW0WKz60icDpLpkaWSij2",
      "ward" : "90",
      "zone" : "Sanganer"
    },
    "92" : {
      "address" : "Shop No f-10,jai hanuman plaza, sanganer ,, Ganesh Colony, Kundan Nagar",
      "imageRef" : "2021~October~2021-10-12~2~92",
      "isAnalysis" : "yes",
      "isClean" : true,
      "latLng" : "26.8203944,75.785626",
      "locality" : " Kundan Nagar",
      "penalty" : "100",
      "time" : "14:12",
      "user" : "EY0cg0gEW0WKz60icDpLpkaWSij2",
      "ward" : "90",
      "zone" : "Sanganer"
    },
    "93" : {
      "address" : "Shop No f-10,jai hanuman plaza, sanganer ,, Ganesh Colony, Kundan Nagar",
      "imageRef" : "2021~October~2021-10-12~2~93",
      "isAnalysis" : "yes",
      "isClean" : true,
      "latLng" : "26.8203944,75.785626",
      "locality" : " Kundan Nagar",
      "penalty" : "100",
      "time" : "14:12",
      "user" : "EY0cg0gEW0WKz60icDpLpkaWSij2",
      "ward" : "90",
      "zone" : "Sanganer"
    },
    "94" : {
      "address" : "#16, Near Lakhi Mansion, Ganesh Colony Corner Next to, Sanga Setu Bridge, Boharon Ka Mohalla, Dada Gurudev Nagar, Sanganer",
      "imageRef" : "2021~October~2021-10-12~2~94",
      "isClean" : true,
      "latLng" : "26.8184994,75.7886847",
      "locality" : " Sanganer",
      "time" : "14:19",
      "user" : "EY0cg0gEW0WKz60icDpLpkaWSij2",
      "ward" : "90",
      "zone" : "Sanganer"
    },
    "95" : {
      "address" : "Unnamed Road, Sumer Nagar, Sanganer",
      "imageRef" : "2021~October~2021-10-12~2~95",
      "isAnalysis" : "yes",
      "isClean" : true,
      "latLng" : "26.8433505,75.764221",
      "locality" : " Sanganer",
      "penalty" : "100",
      "time" : "14:21",
      "user" : "LB5ZuA5FjaclXAeRLRT2dIRkowk2",
      "ward" : "83",
      "zone" : "Mansarovar"
    },
    "96" : {
      "address" : "के 10 ,बेसमेंट उन्नति टावर ,सेंट्रल स्पाइएन विध्यधड़ नगर jaipur, Sector 2, Central Spine, Vidyadhar Nagar",
      "imageRef" : "2021~October~2021-10-12~2~96",
      "isAnalysis" : "yes",
      "isClean" : true,
      "latLng" : "26.960015,75.7780276",
      "locality" : " Vidyadhar Nagar",
      "penalty" : "100",
      "time" : "14:21",
      "user" : "5O4HmxdGWmcOa1J2WhJr16wb8uG3",
      "ward" : "21",
      "zone" : "Murlipura"
    },
    "97" : {
      "address" : "Thana Road, Sanganer, near Wireless Office, Sanganer",
      "imageRef" : "2021~October~2021-10-12~2~97",
      "isAnalysis" : "yes",
      "isClean" : true,
      "latLng" : "26.8187846,75.7965081",
      "locality" : " Sanganer",
      "penalty" : "100",
      "time" : "14:22",
      "user" : "EY0cg0gEW0WKz60icDpLpkaWSij2",
      "ward" : "Not Found",
      "zone" : "Not Found"
    },
    "98" : {
      "address" : "Unnamed Road, Sumer Nagar, Sanganer",
      "imageRef" : "2021~October~2021-10-12~2~98",
      "isAnalysis" : "yes",
      "isClean" : true,
      "latLng" : "26.8433505,75.764221",
      "locality" : " Sanganer",
      "penalty" : "100",
      "time" : "14:24",
      "user" : "LB5ZuA5FjaclXAeRLRT2dIRkowk2",
      "ward" : "83",
      "zone" : "Mansarovar"
    },
    "99" : {
      "address" : "Unnamed Road, Sumer Nagar, Sanganer",
      "imageRef" : "2021~October~2021-10-12~2~99",
      "isAnalysis" : "yes",
      "isClean" : true,
      "latLng" : "26.8433505,75.764221",
      "locality" : " Sanganer",
      "penalty" : "100",
      "time" : "14:24",
      "user" : "LB5ZuA5FjaclXAeRLRT2dIRkowk2",
      "ward" : "83",
      "zone" : "Mansarovar"
    },
    "100" : {
      "address" : "Unnamed Road, Sumer Nagar, Sanganer",
      "imageRef" : "2021~October~2021-10-12~2~100",
      "isClean" : true,
      "latLng" : "26.8433505,75.764221",
      "locality" : " Sanganer",
      "time" : "14:25",
      "user" : "LB5ZuA5FjaclXAeRLRT2dIRkowk2",
      "ward" : "83",
      "zone" : "Mansarovar"
    },
    "101" : {
      "address" : "0101, Pravasi Nagar, Murlipura",
      "imageRef" : "2021~October~2021-10-12~2~101",
      "isClean" : true,
      "latLng" : "26.9709975,75.7627544",
      "locality" : " Murlipura",
      "time" : "14:29",
      "user" : "dDuULNYJJPW8kBonfhU5avuk4is2",
      "ward" : "16",
      "zone" : "Murlipura"
    },
    "102" : {
      "address" : "0101, Pravasi Nagar, Murlipura",
      "imageRef" : "2021~October~2021-10-12~2~102",
      "isClean" : true,
      "latLng" : "26.9709975,75.7627544",
      "locality" : " Murlipura",
      "time" : "14:29",
      "user" : "dDuULNYJJPW8kBonfhU5avuk4is2",
      "ward" : "16",
      "zone" : "Murlipura"
    },
    "103" : {
      "address" : "13, Kedia Palace Rd, Vijay Nagar, Murlipura Scheme, Murlipura",
      "imageRef" : "2021~October~2021-10-12~2~103",
      "isAnalysis" : "yes",
      "isClean" : true,
      "latLng" : "26.9709977,75.7627533",
      "locality" : " Murlipura",
      "penalty" : "100",
      "time" : "14:29",
      "user" : "7lRDDV8QvLPY3q0FBarv0bHSfuh2",
      "ward" : "16",
      "zone" : "Murlipura"
    },
    "104" : {
      "address" : "Unnamed Road, Sumer Nagar, Sanganer",
      "imageRef" : "2021~October~2021-10-12~2~104",
      "isClean" : true,
      "latLng" : "26.8433505,75.764221",
      "locality" : " Sanganer",
      "time" : "14:29",
      "user" : "LB5ZuA5FjaclXAeRLRT2dIRkowk2",
      "ward" : "83",
      "zone" : "Mansarovar"
    },
    "105" : {
      "address" : "0101, Pravasi Nagar, Murlipura",
      "imageRef" : "2021~October~2021-10-12~2~105",
      "isClean" : true,
      "latLng" : "26.9709995,75.7627508",
      "locality" : " Murlipura",
      "time" : "14:30",
      "user" : "eXWIaBlC67bq0UQbXoUcoowsF7u1",
      "ward" : "16",
      "zone" : "Murlipura"
    },
    "106" : {
      "address" : "0101, Pravasi Nagar, Murlipura",
      "imageRef" : "2021~October~2021-10-12~2~106",
      "isClean" : true,
      "latLng" : "26.9710015,75.7627465",
      "locality" : " Murlipura",
      "time" : "14:31",
      "user" : "PsvsIlmRDCZD2F5ztUW55ZV7yU22",
      "ward" : "16",
      "zone" : "Murlipura"
    },
    "107" : {
      "address" : "0101, Pravasi Nagar, Murlipura",
      "imageRef" : "2021~October~2021-10-12~2~107",
      "isClean" : true,
      "latLng" : "26.9709977,75.7627533",
      "locality" : " Murlipura",
      "time" : "14:31",
      "user" : "PsvsIlmRDCZD2F5ztUW55ZV7yU22",
      "ward" : "16",
      "zone" : "Murlipura"
    },
    "108" : {
      "address" : "0101, Pravasi Nagar, Murlipura",
      "imageRef" : "2021~October~2021-10-12~2~108",
      "isClean" : true,
      "latLng" : "26.9710039,75.7627512",
      "locality" : " Murlipura",
      "time" : "14:31",
      "user" : "UH4J4sV4aCW17gXmHs76xxVDWl93",
      "ward" : "16",
      "zone" : "Murlipura"
    },
    "109" : {
      "address" : "0101, Pravasi Nagar, Murlipura",
      "imageRef" : "2021~October~2021-10-12~2~109",
      "isClean" : true,
      "latLng" : "26.9710001,75.7627513",
      "locality" : " Murlipura",
      "time" : "14:32",
      "user" : "H5rob2uJ8jgknIAbGnblhi40tUE2",
      "ward" : "16",
      "zone" : "Murlipura"
    },
    "110" : {
      "address" : "0101, Pravasi Nagar, Murlipura",
      "imageRef" : "2021~October~2021-10-12~2~110",
      "isClean" : true,
      "latLng" : "26.9710041,75.7627499",
      "locality" : " Murlipura",
      "time" : "14:34",
      "user" : "PsvsIlmRDCZD2F5ztUW55ZV7yU22",
      "ward" : "16",
      "zone" : "Murlipura"
    },
    "111" : {
      "address" : "0101, Pravasi Nagar, Murlipura",
      "imageRef" : "2021~October~2021-10-12~2~111",
      "isAnalysis" : "yes",
      "isClean" : true,
      "latLng" : "26.9709994,75.7627426",
      "locality" : " Murlipura",
      "penalty" : "100",
      "time" : "14:34",
      "user" : "jgGKPOawiIdGZTTzXtZtMvBJh0S2",
      "ward" : "16",
      "zone" : "Murlipura"
    },
    "112" : {
      "address" : "Unnamed Road, Sumer Nagar, Sanganer",
      "imageRef" : "2021~October~2021-10-12~2~112",
      "isClean" : true,
      "latLng" : "26.8433505,75.764221",
      "locality" : " Sanganer",
      "time" : "14:38",
      "user" : "LB5ZuA5FjaclXAeRLRT2dIRkowk2",
      "ward" : "83",
      "zone" : "Mansarovar"
    },
    "113" : {
      "address" : "Opp Vireless Office Kundan Nagar Sanganer Thana, New Sanganer Road Jaipur, Kundan Nagar",
      "imageRef" : "2021~October~2021-10-12~2~113",
      "isAnalysis" : "yes",
      "isClean" : true,
      "latLng" : "26.8186725,75.792256",
      "locality" : " Kundan Nagar",
      "penalty" : "100",
      "time" : "14:39",
      "user" : "EY0cg0gEW0WKz60icDpLpkaWSij2",
      "ward" : "Not Found",
      "zone" : "Not Found"
    },
    "114" : {
      "address" : "Opp Vireless Office Kundan Nagar Sanganer Thana, New Sanganer Road Jaipur, Kundan Nagar",
      "imageRef" : "2021~October~2021-10-12~2~114",
      "isAnalysis" : "yes",
      "isClean" : true,
      "latLng" : "26.8186725,75.792256",
      "locality" : " Kundan Nagar",
      "penalty" : "100",
      "time" : "14:40",
      "user" : "EY0cg0gEW0WKz60icDpLpkaWSij2",
      "ward" : "Not Found",
      "zone" : "Not Found"
    },
    "115" : {
      "address" : "Unnamed Road, Sumer Nagar, Sanganer",
      "imageRef" : "2021~October~2021-10-12~2~115",
      "isClean" : true,
      "latLng" : "26.8433505,75.764221",
      "locality" : " Sanganer",
      "time" : "14:42",
      "user" : "LB5ZuA5FjaclXAeRLRT2dIRkowk2",
      "ward" : "83",
      "zone" : "Mansarovar"
    },
    "116" : {
      "address" : "Shop No. 40, Road No. 14, Main, Sikar Rd, Harmada",
      "imageRef" : "2021~October~2021-10-12~2~116",
      "isClean" : true,
      "latLng" : "26.9985962,75.7702738",
      "locality" : " Harmada",
      "time" : "14:43",
      "user" : "OeCnghJYjVcG0jAsX9gPY6vGDnl2",
      "ward" : "3",
      "zone" : "Murlipura"
    },
    "117" : {
      "address" : "Shop No. 40, Road No. 14, Main, Sikar Rd, Harmada",
      "imageRef" : "2021~October~2021-10-12~2~117",
      "isClean" : true,
      "latLng" : "26.9985962,75.7702738",
      "locality" : " Harmada",
      "time" : "14:43",
      "user" : "OeCnghJYjVcG0jAsX9gPY6vGDnl2",
      "ward" : "3",
      "zone" : "Murlipura"
    },
    "118" : {
      "address" : "Shop No. 40, Road No. 14, Main, Sikar Rd, Harmada",
      "imageRef" : "2021~October~2021-10-12~2~118",
      "isAnalysis" : "yes",
      "isClean" : true,
      "latLng" : "26.9985962,75.7702738",
      "locality" : " Harmada",
      "penalty" : "0",
      "time" : "14:44",
      "user" : "OeCnghJYjVcG0jAsX9gPY6vGDnl2",
      "ward" : "3",
      "zone" : "Murlipura"
    },
    "119" : {
      "address" : "Unnamed Road, Sumer Nagar, Sanganer",
      "imageRef" : "2021~October~2021-10-12~2~119",
      "isClean" : true,
      "latLng" : "26.8433505,75.764221",
      "locality" : " Sanganer",
      "time" : "14:44",
      "user" : "LB5ZuA5FjaclXAeRLRT2dIRkowk2",
      "ward" : "83",
      "zone" : "Mansarovar"
    },
    "120" : {
      "address" : "9-a, Sikar Rd, Vishwakarma Industrial Area, Murlipura",
      "imageRef" : "2021~October~2021-10-12~2~120",
      "isClean" : true,
      "latLng" : "26.9911034,75.7722145",
      "locality" : " Murlipura",
      "time" : "14:44",
      "user" : "OeCnghJYjVcG0jAsX9gPY6vGDnl2",
      "ward" : "7",
      "zone" : "Murlipura"
    },
    "121" : {
      "address" : "Higher Secondary School Rd, Sanganer",
      "imageRef" : "2021~October~2021-10-12~2~121",
      "isAnalysis" : "yes",
      "isClean" : true,
      "latLng" : "26.8154901,75.7893178",
      "locality" : " Sanganer",
      "penalty" : "100",
      "time" : "14:45",
      "user" : "EY0cg0gEW0WKz60icDpLpkaWSij2",
      "ward" : "94",
      "zone" : "Sanganer"
    },
    "122" : {
      "address" : "9-a, Sikar Rd, Vishwakarma Industrial Area, Murlipura",
      "imageRef" : "2021~October~2021-10-12~2~122",
      "isAnalysis" : "yes",
      "isClean" : true,
      "latLng" : "26.9911034,75.7722145",
      "locality" : " Murlipura",
      "penalty" : "100",
      "time" : "14:45",
      "user" : "OeCnghJYjVcG0jAsX9gPY6vGDnl2",
      "ward" : "7",
      "zone" : "Murlipura"
    },
    "123" : {
      "address" : "Plot No. 4, Sikar Rd, Vishwakarma Industrial Area",
      "imageRef" : "2021~October~2021-10-12~2~123",
      "isClean" : true,
      "latLng" : "26.9832093,75.7744854",
      "locality" : " Vishwakarma Industrial Area",
      "time" : "14:46",
      "user" : "RxDvTuUUsCTs9GcCg5g0iG9fA3t2",
      "ward" : "8",
      "zone" : "Murlipura"
    },
    "124" : {
      "address" : "9-a, Sikar Rd, Vishwakarma Industrial Area, Murlipura",
      "imageRef" : "2021~October~2021-10-12~2~124",
      "isAnalysis" : "yes",
      "isClean" : true,
      "latLng" : "26.9911034,75.7722145",
      "locality" : " Murlipura",
      "penalty" : "100",
      "time" : "14:46",
      "user" : "OeCnghJYjVcG0jAsX9gPY6vGDnl2",
      "ward" : "7",
      "zone" : "Murlipura"
    },
    "125" : {
      "address" : "#24, Shikarpura Rd, opposite Boy’s Sr. Sec. School, Sanganer",
      "imageRef" : "2021~October~2021-10-12~2~125",
      "isClean" : true,
      "latLng" : "26.8146994,75.7890922",
      "locality" : " Sanganer",
      "time" : "14:47",
      "user" : "EY0cg0gEW0WKz60icDpLpkaWSij2",
      "ward" : "93",
      "zone" : "Sanganer"
    },
    "126" : {
      "address" : "9-a, Sikar Rd, Vishwakarma Industrial Area, Murlipura",
      "imageRef" : "2021~October~2021-10-12~2~126",
      "isClean" : true,
      "latLng" : "26.9911034,75.7722145",
      "locality" : " Murlipura",
      "time" : "14:48",
      "user" : "OeCnghJYjVcG0jAsX9gPY6vGDnl2",
      "ward" : "7",
      "zone" : "Murlipura"
    },
    "127" : {
      "address" : "No.3, Sikar Rd, Vishwakarma Industrial Area, Murlipura",
      "imageRef" : "2021~October~2021-10-12~2~127",
      "isAnalysis" : "yes",
      "isClean" : true,
      "latLng" : "26.9792276,75.7741324",
      "locality" : " Murlipura",
      "penalty" : "100",
      "time" : "14:52",
      "user" : "OeCnghJYjVcG0jAsX9gPY6vGDnl2",
      "ward" : "8",
      "zone" : "Murlipura"
    },
    "128" : {
      "address" : "Gajanan Tower, Plot 51, Parasram Nagar, Sikar Road,Jaipur, Sikar Rd, Parasram Nagar, Dahar Ka Balaji",
      "imageRef" : "2021~October~2021-10-12~2~128",
      "isAnalysis" : "yes",
      "isClean" : true,
      "latLng" : "26.9538864,75.7712839",
      "locality" : " Dahar Ka Balaji",
      "penalty" : "100",
      "time" : "15:03",
      "user" : "OeCnghJYjVcG0jAsX9gPY6vGDnl2",
      "ward" : "25",
      "zone" : "Vidhyadhar"
    },
    "129" : {
      "address" : "53, Sikar Rd, Parasram Nagar, Dahar Ka Balaji",
      "imageRef" : "2021~October~2021-10-12~2~129",
      "isAnalysis" : "yes",
      "isClean" : true,
      "latLng" : "26.9541663,75.7713768",
      "locality" : " Dahar Ka Balaji",
      "penalty" : "100",
      "time" : "15:13",
      "user" : "RxDvTuUUsCTs9GcCg5g0iG9fA3t2",
      "ward" : "25",
      "zone" : "Vidhyadhar"
    },
    "130" : {
      "address" : "52, Sikar Rd, Parasram Nagar, Dahar Ka Balaji",
      "imageRef" : "2021~October~2021-10-12~2~130",
      "isAnalysis" : "yes",
      "isClean" : true,
      "latLng" : "26.9539596,75.7713461",
      "locality" : " Dahar Ka Balaji",
      "penalty" : "100",
      "time" : "15:13",
      "user" : "OeCnghJYjVcG0jAsX9gPY6vGDnl2",
      "ward" : "25",
      "zone" : "Vidhyadhar"
    },
    "131" : {
      "address" : "53, Sikar Rd, Parasram Nagar, Dahar Ka Balaji",
      "imageRef" : "2021~October~2021-10-12~2~131",
      "isClean" : true,
      "latLng" : "26.9541663,75.7713768",
      "locality" : " Dahar Ka Balaji",
      "time" : "15:13",
      "user" : "RxDvTuUUsCTs9GcCg5g0iG9fA3t2",
      "ward" : "25",
      "zone" : "Vidhyadhar"
    },
    "132" : {
      "address" : "52, Sikar Rd, Parasram Nagar, Dahar Ka Balaji",
      "imageRef" : "2021~October~2021-10-12~2~132",
      "isClean" : true,
      "latLng" : "26.9539596,75.7713461",
      "locality" : " Dahar Ka Balaji",
      "time" : "15:13",
      "user" : "OeCnghJYjVcG0jAsX9gPY6vGDnl2",
      "ward" : "25",
      "zone" : "Vidhyadhar"
    },
    "133" : {
      "address" : "53, Sikar Rd, Parasram Nagar, Dahar Ka Balaji",
      "imageRef" : "2021~October~2021-10-12~2~133",
      "isClean" : true,
      "latLng" : "26.9541663,75.7713768",
      "locality" : " Dahar Ka Balaji",
      "time" : "15:13",
      "user" : "RxDvTuUUsCTs9GcCg5g0iG9fA3t2",
      "ward" : "25",
      "zone" : "Vidhyadhar"
    },
    "134" : {
      "address" : "53, Sikar Rd, Parasram Nagar, Dahar Ka Balaji",
      "imageRef" : "2021~October~2021-10-12~2~134",
      "isAnalysis" : "yes",
      "isClean" : true,
      "latLng" : "26.9541663,75.7713768",
      "locality" : " Dahar Ka Balaji",
      "penalty" : "100",
      "time" : "15:13",
      "user" : "RxDvTuUUsCTs9GcCg5g0iG9fA3t2",
      "ward" : "25",
      "zone" : "Vidhyadhar"
    },
    "135" : {
      "address" : "shop no 1_ 2, Teen Dukan , Dher Ka Balaji, Sikar Rd, Parasram Nagar, Dahar Ka Balaji",
      "imageRef" : "2021~October~2021-10-12~2~135",
      "isAnalysis" : "yes",
      "isClean" : true,
      "latLng" : "26.9564773,75.7714122",
      "locality" : " Dahar Ka Balaji",
      "penalty" : "100",
      "time" : "15:15",
      "user" : "OeCnghJYjVcG0jAsX9gPY6vGDnl2",
      "ward" : "25",
      "zone" : "Vidhyadhar"
    },
    "136" : {
      "address" : "3/272, near Khetan Hospital, Vijay Bari, Vidyadhar Nagar",
      "imageRef" : "2021~October~2021-10-12~2~136",
      "isAnalysis" : "yes",
      "isClean" : true,
      "latLng" : "26.958985,75.7714878",
      "locality" : " Vidyadhar Nagar",
      "penalty" : "100",
      "time" : "15:16",
      "user" : "OeCnghJYjVcG0jAsX9gPY6vGDnl2",
      "ward" : "26",
      "zone" : "Vidhyadhar"
    },
    "137" : {
      "address" : "Opposite-Teen Dukan, Sikar Road Dher Ka Balaji, Sector 2, Radha Govind Colony, Dahar Ka Balaji",
      "imageRef" : "2021~October~2021-10-12~2~137",
      "isClean" : true,
      "latLng" : "26.9587268,75.7716168",
      "locality" : " Dahar Ka Balaji",
      "time" : "15:16",
      "user" : "RxDvTuUUsCTs9GcCg5g0iG9fA3t2",
      "ward" : "26",
      "zone" : "Vidhyadhar"
    },
    "138" : {
      "address" : "Opposite-Teen Dukan, Sikar Road Dher Ka Balaji, Sector 2, Radha Govind Colony, Dahar Ka Balaji",
      "imageRef" : "2021~October~2021-10-12~2~138",
      "isClean" : true,
      "latLng" : "26.9587268,75.7716168",
      "locality" : " Dahar Ka Balaji",
      "time" : "15:16",
      "user" : "RxDvTuUUsCTs9GcCg5g0iG9fA3t2",
      "ward" : "26",
      "zone" : "Vidhyadhar"
    },
    "139" : {
      "address" : "Opposite-Teen Dukan, Sikar Road Dher Ka Balaji, Sector 2, Radha Govind Colony, Dahar Ka Balaji",
      "imageRef" : "2021~October~2021-10-12~2~139",
      "isAnalysis" : "yes",
      "isClean" : true,
      "latLng" : "26.9587268,75.7716168",
      "locality" : " Dahar Ka Balaji",
      "penalty" : "100",
      "time" : "15:16",
      "user" : "RxDvTuUUsCTs9GcCg5g0iG9fA3t2",
      "ward" : "26",
      "zone" : "Vidhyadhar"
    },
    "140" : {
      "address" : "3/272, near Khetan Hospital, Vijay Bari, Vidyadhar Nagar",
      "imageRef" : "2021~October~2021-10-12~2~140",
      "isClean" : true,
      "latLng" : "26.958985,75.7714878",
      "locality" : " Vidyadhar Nagar",
      "time" : "15:17",
      "user" : "OeCnghJYjVcG0jAsX9gPY6vGDnl2",
      "ward" : "26",
      "zone" : "Vidhyadhar"
    },
    "141" : {
      "address" : "3/272, near Khetan Hospital, Vijay Bari, Vidyadhar Nagar",
      "imageRef" : "2021~October~2021-10-12~2~141",
      "isClean" : true,
      "latLng" : "26.958985,75.7714878",
      "locality" : " Vidyadhar Nagar",
      "time" : "15:18",
      "user" : "OeCnghJYjVcG0jAsX9gPY6vGDnl2",
      "ward" : "26",
      "zone" : "Vidhyadhar"
    },
    "142" : {
      "address" : "plot no, 48, Path Number 6, Vijay Bari, Dahar Ka Balaji",
      "imageRef" : "2021~October~2021-10-12~2~142",
      "isClean" : true,
      "latLng" : "26.9587386,75.7684512",
      "locality" : " Dahar Ka Balaji",
      "time" : "15:19",
      "user" : "OeCnghJYjVcG0jAsX9gPY6vGDnl2",
      "ward" : "25",
      "zone" : "Vidhyadhar"
    },
    "143" : {
      "address" : "Vijay Path Road No. 7, Vijay Bari, Dahar Ka Balaji",
      "imageRef" : "2021~October~2021-10-12~2~143",
      "isClean" : true,
      "latLng" : "26.9588047,75.7712162",
      "locality" : " Dahar Ka Balaji",
      "time" : "15:21",
      "user" : "RxDvTuUUsCTs9GcCg5g0iG9fA3t2",
      "ward" : "20",
      "zone" : "Murlipura"
    },
    "144" : {
      "address" : "C-6/93, Chitrakoot, Bhawani Nagar",
      "imageRef" : "2021~October~2021-10-12~2~144",
      "isClean" : true,
      "latLng" : "26.96084,75.76273",
      "locality" : " Bhawani Nagar",
      "time" : "15:21",
      "user" : "OeCnghJYjVcG0jAsX9gPY6vGDnl2",
      "ward" : "25",
      "zone" : "Vidhyadhar"
    },
    "145" : {
      "address" : "Vijay Path Road No. 7, Vijay Bari, Dahar Ka Balaji",
      "imageRef" : "2021~October~2021-10-12~2~145",
      "isAnalysis" : "yes",
      "isClean" : true,
      "latLng" : "26.9588047,75.7712162",
      "locality" : " Dahar Ka Balaji",
      "penalty" : "100",
      "time" : "15:21",
      "user" : "RxDvTuUUsCTs9GcCg5g0iG9fA3t2",
      "ward" : "20",
      "zone" : "Murlipura"
    },
    "146" : {
      "address" : "C-6/93, Chitrakoot, Bhawani Nagar",
      "imageRef" : "2021~October~2021-10-12~2~146",
      "isAnalysis" : "yes",
      "isClean" : true,
      "latLng" : "26.96084,75.762735",
      "locality" : " Bhawani Nagar",
      "penalty" : "100",
      "time" : "15:23",
      "user" : "OeCnghJYjVcG0jAsX9gPY6vGDnl2",
      "ward" : "25",
      "zone" : "Vidhyadhar"
    },
    "147" : {
      "address" : "B-29, Pratap Nagar, Vikas Nagar, Bhawani Nagar",
      "imageRef" : "2021~October~2021-10-12~2~147",
      "isAnalysis" : "yes",
      "isClean" : true,
      "latLng" : "26.9632438,75.7638577",
      "locality" : " Bhawani Nagar",
      "penalty" : "100",
      "time" : "15:24",
      "user" : "OeCnghJYjVcG0jAsX9gPY6vGDnl2",
      "ward" : "20",
      "zone" : "Murlipura"
    },
    "148" : {
      "address" : "C-6/93, Chitrakoot, Bhawani Nagar",
      "imageRef" : "2021~October~2021-10-12~2~148",
      "isClean" : true,
      "latLng" : "26.9608328,75.7627272",
      "locality" : " Bhawani Nagar",
      "time" : "15:24",
      "user" : "RxDvTuUUsCTs9GcCg5g0iG9fA3t2",
      "ward" : "25",
      "zone" : "Vidhyadhar"
    },
    "149" : {
      "address" : "C-6/93, Chitrakoot, Bhawani Nagar",
      "imageRef" : "2021~October~2021-10-12~2~149",
      "isClean" : true,
      "latLng" : "26.9608328,75.7627272",
      "locality" : " Bhawani Nagar",
      "time" : "15:24",
      "user" : "RxDvTuUUsCTs9GcCg5g0iG9fA3t2",
      "ward" : "25",
      "zone" : "Vidhyadhar"
    },
    "150" : {
      "address" : "Pratap Nagar Chowk, Sindhu Nagar, Murlipura",
      "imageRef" : "2021~October~2021-10-12~2~150",
      "isAnalysis" : "yes",
      "isClean" : true,
      "latLng" : "26.9659555,75.7650086",
      "locality" : " Murlipura",
      "penalty" : "100",
      "time" : "15:27",
      "user" : "OeCnghJYjVcG0jAsX9gPY6vGDnl2",
      "ward" : "18",
      "zone" : "Murlipura"
    },
    "151" : {
      "address" : "141, Padmani VT Rd, Ward 27, Mansarovar Sector 6, Mansarovar",
      "imageRef" : "2021~October~2021-10-12~2~151",
      "isClean" : true,
      "latLng" : "26.8598841,75.7638577",
      "locality" : " Mansarovar",
      "time" : "15:27",
      "user" : "LB5ZuA5FjaclXAeRLRT2dIRkowk2",
      "ward" : "75",
      "zone" : "Mansarovar"
    },
    "152" : {
      "address" : "69/354, Ganga Marg, Ward 27, Mansarovar Sector 6, Mansarovar",
      "imageRef" : "2021~October~2021-10-12~2~152",
      "isAnalysis" : "yes",
      "isClean" : true,
      "latLng" : "26.8609815,75.7620878",
      "locality" : " Mansarovar",
      "penalty" : "100",
      "time" : "15:31",
      "user" : "LB5ZuA5FjaclXAeRLRT2dIRkowk2",
      "ward" : "72",
      "zone" : "Mansarovar"
    },
    "153" : {
      "address" : "2-PRTAP, Dahar Ka Balaji",
      "imageRef" : "2021~October~2021-10-12~2~153",
      "isAnalysis" : "yes",
      "isClean" : true,
      "latLng" : "26.9661615,75.764221",
      "locality" : " Dahar Ka Balaji",
      "penalty" : "100",
      "time" : "15:32",
      "user" : "UH4J4sV4aCW17gXmHs76xxVDWl93",
      "ward" : "18",
      "zone" : "Murlipura"
    },
    "154" : {
      "address" : "69/394, near JKJ Jewellers, Ward 27, Mansarovar Sector 6, Mansarovar",
      "imageRef" : "2021~October~2021-10-12~2~154",
      "isClean" : true,
      "latLng" : "26.8619098,75.7618454",
      "locality" : " Mansarovar",
      "time" : "15:32",
      "user" : "LB5ZuA5FjaclXAeRLRT2dIRkowk2",
      "ward" : "72",
      "zone" : "Mansarovar"
    },
    "155" : {
      "address" : "Alka Cinema, Sector 2, Fateh Singh Market, Sector 6, Vidyadhar Nagar",
      "imageRef" : "2021~October~2021-10-12~2~155",
      "isClean" : true,
      "latLng" : "26.9667447,75.7724951",
      "locality" : " Vidyadhar Nagar",
      "time" : "15:34",
      "user" : "OeCnghJYjVcG0jAsX9gPY6vGDnl2",
      "ward" : "8",
      "zone" : "Murlipura"
    },
    "156" : {
      "address" : "69/394, near JKJ Jewellers, Ward 27, Mansarovar Sector 6, Mansarovar",
      "imageRef" : "2021~October~2021-10-12~2~156",
      "isClean" : true,
      "latLng" : "26.8619098,75.7618454",
      "locality" : " Mansarovar",
      "time" : "15:34",
      "user" : "LB5ZuA5FjaclXAeRLRT2dIRkowk2",
      "ward" : "72",
      "zone" : "Mansarovar"
    },
    "157" : {
      "address" : "Alka Cinema, Sector 2, Fateh Singh Market, Sector 6, Vidyadhar Nagar",
      "imageRef" : "2021~October~2021-10-12~2~157",
      "isClean" : true,
      "latLng" : "26.9667447,75.7724951",
      "locality" : " Vidyadhar Nagar",
      "time" : "15:34",
      "user" : "OeCnghJYjVcG0jAsX9gPY6vGDnl2",
      "ward" : "8",
      "zone" : "Murlipura"
    },
    "158" : {
      "address" : "9A, Devdhara Colony, Murlipura Scheme, Murlipura",
      "imageRef" : "2021~October~2021-10-12~2~158",
      "isClean" : true,
      "latLng" : "26.9740325,75.7602241",
      "locality" : " Murlipura",
      "time" : "15:34",
      "user" : "OeCnghJYjVcG0jAsX9gPY6vGDnl2",
      "ward" : "15",
      "zone" : "Murlipura"
    },
    "159" : {
      "address" : "69/394, near JKJ Jewellers, Ward 27, Mansarovar Sector 6, Mansarovar",
      "imageRef" : "2021~October~2021-10-12~2~159",
      "isAnalysis" : "yes",
      "isClean" : true,
      "latLng" : "26.8619098,75.7618454",
      "locality" : " Mansarovar",
      "penalty" : "100",
      "time" : "15:37",
      "user" : "LB5ZuA5FjaclXAeRLRT2dIRkowk2",
      "ward" : "72",
      "zone" : "Mansarovar"
    },
    "160" : {
      "address" : "41, Benar Rd, Suraj Nagar, Vishnu Nagar, Jhotwara",
      "imageRef" : "2021~October~2021-10-12~2~160",
      "isClean" : true,
      "latLng" : "26.9744265,75.7496098",
      "locality" : " Jhotwara",
      "time" : "15:37",
      "user" : "ev0wnTlCHecAviBhj2QYe4lEAj13",
      "ward" : "14",
      "zone" : "Murlipura"
    },
    "161" : {
      "address" : "25, Murlipura",
      "imageRef" : "2021~October~2021-10-12~2~161",
      "isClean" : true,
      "latLng" : "26.9776608,75.7669529",
      "locality" : " Murlipura",
      "time" : "15:38",
      "user" : "OeCnghJYjVcG0jAsX9gPY6vGDnl2",
      "ward" : "11",
      "zone" : "Murlipura"
    },
    "162" : {
      "address" : "B/25, Shyam Mitra Mandal Nagar, Vishwakarma Industrial Area, Murlipura",
      "imageRef" : "2021~October~2021-10-12~2~162",
      "isClean" : true,
      "latLng" : "26.9786577,75.7671709",
      "locality" : " Murlipura",
      "time" : "15:39",
      "user" : "OeCnghJYjVcG0jAsX9gPY6vGDnl2",
      "ward" : "11",
      "zone" : "Murlipura"
    },
    "163" : {
      "address" : "B/25, Shyam Mitra Mandal Nagar, Vishwakarma Industrial Area, Murlipura",
      "imageRef" : "2021~October~2021-10-12~2~163",
      "isClean" : true,
      "latLng" : "26.9786577,75.7671709",
      "locality" : " Murlipura",
      "time" : "15:39",
      "user" : "OeCnghJYjVcG0jAsX9gPY6vGDnl2",
      "ward" : "11",
      "zone" : "Murlipura"
    },
    "164" : {
      "address" : "446/B, Sanjay Nagar D, Bal Vihar, Jhotwara",
      "imageRef" : "2021~October~2021-10-12~2~164",
      "isClean" : true,
      "latLng" : "26.9500038,75.732854",
      "locality" : " Jhotwara",
      "time" : "15:39",
      "user" : "D1PP5vpEf8YWnh9cRlIEBM2M5v42",
      "ward" : "32",
      "zone" : "Vidhyadhar"
    },
    "165" : {
      "address" : "360, Sikar Rd, Ambabari, AWHO Colony, Vidyadhar Nagar",
      "imageRef" : "2021~October~2021-10-12~2~165",
      "isClean" : true,
      "latLng" : "26.9490517,75.7729411",
      "locality" : " Vidyadhar Nagar",
      "time" : "15:41",
      "user" : "5O4HmxdGWmcOa1J2WhJr16wb8uG3",
      "ward" : "27",
      "zone" : "Vidhyadhar"
    },
    "166" : {
      "address" : "Om Toyota Vki Jaipur, Om Toyota Vki Jaipur, Vishwakarma Industrial Area",
      "imageRef" : "2021~October~2021-10-12~2~166",
      "isAnalysis" : "yes",
      "isClean" : true,
      "latLng" : "26.9824891,75.7747202",
      "locality" : " Vishwakarma Industrial Area",
      "penalty" : "100",
      "time" : "15:42",
      "user" : "OeCnghJYjVcG0jAsX9gPY6vGDnl2",
      "ward" : "8",
      "zone" : "Murlipura"
    },
    "167" : {
      "address" : "XQ74+7XF, Dahar Ka Balaji",
      "imageRef" : "2021~October~2021-10-12~2~167",
      "isAnalysis" : "yes",
      "isClean" : true,
      "latLng" : "26.9632942,75.7570898",
      "locality" : " Dahar Ka Balaji",
      "penalty" : "100",
      "time" : "15:42",
      "user" : "ev0wnTlCHecAviBhj2QYe4lEAj13",
      "ward" : "Not Found",
      "zone" : "Not Found"
    },
    "168" : {
      "address" : "XQ74+7XF, Dahar Ka Balaji",
      "imageRef" : "2021~October~2021-10-12~2~168",
      "isAnalysis" : "yes",
      "isClean" : true,
      "latLng" : "26.9632942,75.7570898",
      "locality" : " Dahar Ka Balaji",
      "penalty" : "100",
      "time" : "15:44",
      "user" : "ev0wnTlCHecAviBhj2QYe4lEAj13",
      "ward" : "Not Found",
      "zone" : "Not Found"
    },
    "169" : {
      "address" : "Shop No 9, 10, Sikar Rd, Sector 2, Radha Govind Colony, Dahar Ka Balaji",
      "imageRef" : "2021~October~2021-10-12~2~169",
      "isClean" : true,
      "latLng" : "26.9547014,75.7718511",
      "locality" : " Dahar Ka Balaji",
      "time" : "15:44",
      "user" : "5O4HmxdGWmcOa1J2WhJr16wb8uG3",
      "ward" : "26",
      "zone" : "Vidhyadhar"
    },
    "170" : {
      "address" : "ARG North Avenue, 9 Number Sikar Rd, Vishwakarma Industrial Area",
      "imageRef" : "2021~October~2021-10-12~2~170",
      "isAnalysis" : "yes",
      "isClean" : true,
      "latLng" : "26.9871227,75.7733044",
      "locality" : " Vishwakarma Industrial Area",
      "penalty" : "100",
      "time" : "15:44",
      "user" : "OeCnghJYjVcG0jAsX9gPY6vGDnl2",
      "ward" : "8",
      "zone" : "Murlipura"
    },
    "171" : {
      "address" : "ARG North Avenue, 9 Number Sikar Rd, Vishwakarma Industrial Area",
      "imageRef" : "2021~October~2021-10-12~2~171",
      "isAnalysis" : "yes",
      "isClean" : true,
      "latLng" : "26.9871227,75.7733044",
      "locality" : " Vishwakarma Industrial Area",
      "penalty" : "100",
      "time" : "15:45",
      "user" : "OeCnghJYjVcG0jAsX9gPY6vGDnl2",
      "ward" : "8",
      "zone" : "Murlipura"
    },
    "172" : {
      "address" : "ARG North Avenue, 9 Number Sikar Rd, Vishwakarma Industrial Area",
      "imageRef" : "2021~October~2021-10-12~2~172",
      "isClean" : true,
      "latLng" : "26.9871227,75.7733044",
      "locality" : " Vishwakarma Industrial Area",
      "time" : "15:45",
      "user" : "OeCnghJYjVcG0jAsX9gPY6vGDnl2",
      "ward" : "8",
      "zone" : "Murlipura"
    },
    "173" : {
      "address" : "69/394, near JKJ Jewellers, Ward 27, Mansarovar Sector 6, Mansarovar",
      "imageRef" : "2021~October~2021-10-12~2~173",
      "isAnalysis" : "yes",
      "isClean" : true,
      "latLng" : "26.8619098,75.7618454",
      "locality" : " Mansarovar",
      "penalty" : "100",
      "time" : "15:47",
      "user" : "LB5ZuA5FjaclXAeRLRT2dIRkowk2",
      "ward" : "72",
      "zone" : "Mansarovar"
    },
    "174" : {
      "address" : "C-12, 9 Number, Sikar Rd, Anaj Mandi, Murlipura",
      "imageRef" : "2021~October~2021-10-12~2~174",
      "isAnalysis" : "yes",
      "isClean" : true,
      "latLng" : "26.9886442,75.772024",
      "locality" : " Murlipura",
      "penalty" : "100",
      "time" : "15:47",
      "user" : "OeCnghJYjVcG0jAsX9gPY6vGDnl2",
      "ward" : "7",
      "zone" : "Murlipura"
    },
    "175" : {
      "address" : "SS-144, Rajdhani, Sikar Rd, Anaj Mandi, Vishwakarma Industrial Area, Murlipura",
      "imageRef" : "2021~October~2021-10-12~2~175",
      "isAnalysis" : "yes",
      "isClean" : true,
      "latLng" : "26.9870849,75.7697364",
      "locality" : " Murlipura",
      "penalty" : "100",
      "time" : "15:48",
      "user" : "OeCnghJYjVcG0jAsX9gPY6vGDnl2",
      "ward" : "7",
      "zone" : "Murlipura"
    },
    "176" : {
      "address" : "Alka Cinema, Sector 2, Fateh Singh Market, Sector 6, Vidyadhar Nagar",
      "imageRef" : "2021~October~2021-10-12~2~176",
      "isAnalysis" : "yes",
      "isClean" : true,
      "latLng" : "26.9668412,75.7723063",
      "locality" : " Vidyadhar Nagar",
      "penalty" : "100",
      "time" : "15:48",
      "user" : "RxDvTuUUsCTs9GcCg5g0iG9fA3t2",
      "ward" : "18",
      "zone" : "Murlipura"
    },
    "177" : {
      "address" : "Alka Cinema, Sector 2, Fateh Singh Market, Sector 6, Vidyadhar Nagar",
      "imageRef" : "2021~October~2021-10-12~2~177",
      "isAnalysis" : "yes",
      "isClean" : true,
      "latLng" : "26.9668412,75.7723063",
      "locality" : " Vidyadhar Nagar",
      "penalty" : "100",
      "time" : "15:48",
      "user" : "RxDvTuUUsCTs9GcCg5g0iG9fA3t2",
      "ward" : "18",
      "zone" : "Murlipura"
    },
    "178" : {
      "address" : "SS-144, Rajdhani, Sikar Rd, Anaj Mandi, Vishwakarma Industrial Area, Murlipura",
      "imageRef" : "2021~October~2021-10-12~2~178",
      "isClean" : true,
      "latLng" : "26.9867952,75.7696456",
      "locality" : " Murlipura",
      "time" : "15:49",
      "user" : "OeCnghJYjVcG0jAsX9gPY6vGDnl2",
      "ward" : "7",
      "zone" : "Murlipura"
    },
    "179" : {
      "address" : "SS-144, Rajdhani, Sikar Rd, Anaj Mandi, Vishwakarma Industrial Area, Murlipura",
      "imageRef" : "2021~October~2021-10-12~2~179",
      "isClean" : true,
      "latLng" : "26.9870863,75.7696073",
      "locality" : " Murlipura",
      "time" : "15:51",
      "user" : "RxDvTuUUsCTs9GcCg5g0iG9fA3t2",
      "ward" : "7",
      "zone" : "Murlipura"
    },
    "180" : {
      "address" : "SS-144, Rajdhani, Sikar Rd, Anaj Mandi, Vishwakarma Industrial Area, Murlipura",
      "imageRef" : "2021~October~2021-10-12~2~180",
      "isAnalysis" : "yes",
      "isClean" : true,
      "latLng" : "26.9870863,75.7696073",
      "locality" : " Murlipura",
      "penalty" : "100",
      "time" : "15:51",
      "user" : "RxDvTuUUsCTs9GcCg5g0iG9fA3t2",
      "ward" : "7",
      "zone" : "Murlipura"
    },
    "181" : {
      "address" : "VQ97+H3R, Shanthi Nagar, Mansarovar",
      "imageRef" : "2021~October~2021-10-12~2~181",
      "isAnalysis" : "yes",
      "isClean" : true,
      "latLng" : "26.8689811,75.7627221",
      "locality" : " Mansarovar",
      "penalty" : "100",
      "time" : "15:51",
      "user" : "LB5ZuA5FjaclXAeRLRT2dIRkowk2",
      "ward" : "Not Found",
      "zone" : "Not Found"
    },
    "182" : {
      "address" : "A-86, 9 Number, Sikar Rd, Anaj Mandi, Murlipura",
      "imageRef" : "2021~October~2021-10-12~2~182",
      "isClean" : true,
      "latLng" : "26.9879124,75.7693466",
      "locality" : " Murlipura",
      "time" : "15:52",
      "user" : "OeCnghJYjVcG0jAsX9gPY6vGDnl2",
      "ward" : "7",
      "zone" : "Murlipura"
    },
    "183" : {
      "address" : "SS-144, Rajdhani, Sikar Rd, Anaj Mandi, Vishwakarma Industrial Area, Murlipura",
      "imageRef" : "2021~October~2021-10-12~2~183",
      "isClean" : true,
      "latLng" : "26.9870867,75.7698055",
      "locality" : " Murlipura",
      "time" : "15:53",
      "user" : "RxDvTuUUsCTs9GcCg5g0iG9fA3t2",
      "ward" : "7",
      "zone" : "Murlipura"
    },
    "184" : {
      "address" : "C-47B, Ambabari, Vidyadhar Nagar",
      "imageRef" : "2021~October~2021-10-12~2~184",
      "isAnalysis" : "yes",
      "isClean" : true,
      "latLng" : "26.9442723,75.778169",
      "locality" : " Vidyadhar Nagar",
      "penalty" : "100",
      "time" : "15:53",
      "user" : "GKBkbz6zuQQCKEGiH48PrcquOkv1",
      "ward" : "27",
      "zone" : "Vidhyadhar"
    },
    "185" : {
      "address" : "SS-144, Rajdhani, Sikar Rd, Anaj Mandi, Vishwakarma Industrial Area, Murlipura",
      "imageRef" : "2021~October~2021-10-12~2~185",
      "isClean" : true,
      "latLng" : "26.9870867,75.7698055",
      "locality" : " Murlipura",
      "time" : "15:53",
      "user" : "RxDvTuUUsCTs9GcCg5g0iG9fA3t2",
      "ward" : "7",
      "zone" : "Murlipura"
    },
    "186" : {
      "address" : "G-11, 9 Number, Sikar Rd, Anaj Mandi, Murlipura",
      "imageRef" : "2021~October~2021-10-12~2~186",
      "isClean" : true,
      "latLng" : "26.9884637,75.7685989",
      "locality" : " Murlipura",
      "time" : "15:53",
      "user" : "OeCnghJYjVcG0jAsX9gPY6vGDnl2",
      "ward" : "7",
      "zone" : "Murlipura"
    },
    "187" : {
      "address" : "VQ97+H3R, Shanthi Nagar, Mansarovar",
      "imageRef" : "2021~October~2021-10-12~2~187",
      "isAnalysis" : "yes",
      "isClean" : true,
      "latLng" : "26.8689811,75.7627221",
      "locality" : " Mansarovar",
      "penalty" : "100",
      "time" : "15:54",
      "user" : "LB5ZuA5FjaclXAeRLRT2dIRkowk2",
      "ward" : "Not Found",
      "zone" : "Not Found"
    },
    "188" : {
      "address" : "G-11, 9 Number, Sikar Rd, Anaj Mandi, Murlipura",
      "imageRef" : "2021~October~2021-10-12~2~188",
      "isClean" : true,
      "latLng" : "26.9884637,75.7685989",
      "locality" : " Murlipura",
      "time" : "15:55",
      "user" : "OeCnghJYjVcG0jAsX9gPY6vGDnl2",
      "ward" : "7",
      "zone" : "Murlipura"
    },
    "189" : {
      "address" : "Unnamed Road, Anaj Mandi, Murlipura",
      "imageRef" : "2021~October~2021-10-12~2~189",
      "isClean" : true,
      "latLng" : "26.9884582,75.7686726",
      "locality" : " Murlipura",
      "time" : "15:55",
      "user" : "RxDvTuUUsCTs9GcCg5g0iG9fA3t2",
      "ward" : "7",
      "zone" : "Murlipura"
    },
    "190" : {
      "isAnalysis" : "yes",
      "penalty" : "100"
    },
    "191" : {
      "address" : "Unnamed Road, Anaj Mandi, Murlipura",
      "imageRef" : "2021~October~2021-10-12~2~191",
      "isAnalysis" : "yes",
      "isClean" : true,
      "latLng" : "26.9904073,75.7705761",
      "locality" : " Murlipura",
      "penalty" : "100",
      "time" : "15:56",
      "user" : "OeCnghJYjVcG0jAsX9gPY6vGDnl2",
      "ward" : "7",
      "zone" : "Murlipura"
    },
    "192" : {
      "address" : "Unnamed Road, Anaj Mandi, Murlipura",
      "imageRef" : "2021~October~2021-10-12~2~192",
      "isClean" : true,
      "latLng" : "26.9904073,75.7705761",
      "locality" : " Murlipura",
      "time" : "15:56",
      "user" : "OeCnghJYjVcG0jAsX9gPY6vGDnl2",
      "ward" : "7",
      "zone" : "Murlipura"
    },
    "193" : {
      "address" : "Unnamed Road, Anaj Mandi, Murlipura",
      "imageRef" : "2021~October~2021-10-12~2~193",
      "isClean" : true,
      "latLng" : "26.9904073,75.7705761",
      "locality" : " Murlipura",
      "time" : "15:58",
      "user" : "OeCnghJYjVcG0jAsX9gPY6vGDnl2",
      "ward" : "7",
      "zone" : "Murlipura"
    },
    "194" : {
      "address" : "C-47B, Ambabari, Vidyadhar Nagar",
      "imageRef" : "2021~October~2021-10-12~2~194",
      "isAnalysis" : "yes",
      "isClean" : true,
      "latLng" : "26.9442723,75.7781763",
      "locality" : " Vidyadhar Nagar",
      "penalty" : "100",
      "time" : "15:58",
      "user" : "pxuP3rOV7FOK1hE8IyF9qy0dyAX2",
      "ward" : "27",
      "zone" : "Vidhyadhar"
    },
    "195" : {
      "address" : "9-a, Sikar Rd, Anaj Mandi, Vishwakarma Industrial Area, Murlipura",
      "imageRef" : "2021~October~2021-10-12~2~195",
      "isClean" : true,
      "latLng" : "26.9899728,75.7725812",
      "locality" : " Murlipura",
      "time" : "15:59",
      "user" : "OeCnghJYjVcG0jAsX9gPY6vGDnl2",
      "ward" : "7",
      "zone" : "Murlipura"
    },
    "196" : {
      "address" : "9-a, Sikar Rd, Anaj Mandi, Vishwakarma Industrial Area, Murlipura",
      "imageRef" : "2021~October~2021-10-12~2~196",
      "isClean" : true,
      "latLng" : "26.9899728,75.7725812",
      "locality" : " Murlipura",
      "time" : "16:01",
      "user" : "OeCnghJYjVcG0jAsX9gPY6vGDnl2",
      "ward" : "7",
      "zone" : "Murlipura"
    },
    "197" : {
      "address" : "C-47B, Ambabari, Vidyadhar Nagar",
      "imageRef" : "2021~October~2021-10-12~2~197",
      "isAnalysis" : "yes",
      "isClean" : true,
      "latLng" : "26.944297,75.7781893",
      "locality" : " Vidyadhar Nagar",
      "penalty" : "100",
      "time" : "16:02",
      "user" : "8WGiKf89MXZfrDeJsToxLcYdyPo2",
      "ward" : "27",
      "zone" : "Vidhyadhar"
    },
    "198" : {
      "address" : "B-22 Rajdhani Krishi Upaj Mandi, 9 Number Sikar Rd, Murlipura",
      "imageRef" : "2021~October~2021-10-12~2~198",
      "isClean" : true,
      "latLng" : "26.9915067,75.7664433",
      "locality" : " Murlipura",
      "time" : "16:04",
      "user" : "OeCnghJYjVcG0jAsX9gPY6vGDnl2",
      "ward" : "7",
      "zone" : "Murlipura"
    },
    "199" : {
      "address" : "VQF6+65C, Shanthi Nagar, Mansarovar",
      "imageRef" : "2021~October~2021-10-12~2~199",
      "isAnalysis" : "yes",
      "isClean" : true,
      "latLng" : "26.8729709,75.760266",
      "locality" : " Mansarovar",
      "penalty" : "100",
      "time" : "16:05",
      "user" : "LB5ZuA5FjaclXAeRLRT2dIRkowk2",
      "ward" : "Not Found",
      "zone" : "Not Found"
    },
    "200" : {
      "address" : "226, vivek vihar, near jagatpura railways station, Vivek Vihar Mode, Mayapuri, Jagatpura",
      "imageRef" : "2021~October~2021-10-12~2~200",
      "isClean" : true,
      "latLng" : "26.8384427,75.8276624",
      "locality" : " Jagatpura",
      "time" : "16:08",
      "user" : "IfTaCIc9ildHleifFcUvTbvprz43",
      "ward" : "109",
      "zone" : "Jagatpura"
    },
    "201" : {
      "address" : "Sanganer, 02, Khadi Gramoudyog Road, Asind Nagar, Gem Vihar Colony",
      "imageRef" : "2021~October~2021-10-12~2~201",
      "isClean" : true,
      "latLng" : "26.8213271,75.7854287",
      "locality" : " Gem Vihar Colony",
      "time" : "16:13",
      "user" : "EY0cg0gEW0WKz60icDpLpkaWSij2",
      "ward" : "90",
      "zone" : "Sanganer"
    },
    "202" : {
      "address" : "C-47B, Ambabari, Vidyadhar Nagar",
      "imageRef" : "2021~October~2021-10-12~2~202",
      "isAnalysis" : "yes",
      "isClean" : true,
      "latLng" : "26.9442723,75.7781764",
      "locality" : " Vidyadhar Nagar",
      "penalty" : "100",
      "time" : "16:13",
      "user" : "pxuP3rOV7FOK1hE8IyF9qy0dyAX2",
      "ward" : "27",
      "zone" : "Vidhyadhar"
    },
    "203" : {
      "address" : "C-47B, Ambabari, Vidyadhar Nagar",
      "imageRef" : "2021~October~2021-10-12~2~203",
      "isAnalysis" : "yes",
      "isClean" : true,
      "latLng" : "26.9442723,75.7781764",
      "locality" : " Vidyadhar Nagar",
      "penalty" : "100",
      "time" : "16:13",
      "user" : "pxuP3rOV7FOK1hE8IyF9qy0dyAX2",
      "ward" : "27",
      "zone" : "Vidhyadhar"
    },
    "204" : {
      "address" : "FlipPaisa Office, 2nd Floor, Plot No. 8, Shivram Colony, (Opposite of Golden Domb), Jagatpura, Mayapuri, Jagatpura",
      "imageRef" : "2021~October~2021-10-12~2~204",
      "isAnalysis" : "yes",
      "isClean" : true,
      "latLng" : "26.8346733,75.8309317",
      "locality" : " Jagatpura",
      "penalty" : "100",
      "time" : "16:13",
      "user" : "IfTaCIc9ildHleifFcUvTbvprz43",
      "ward" : "112",
      "zone" : "Jagatpura"
    },
    "205" : {
      "address" : "plot no.10, colony, Shri Ram Vihar, Mayapuri, Jagatpura",
      "imageRef" : "2021~October~2021-10-12~2~205",
      "isAnalysis" : "yes",
      "isClean" : true,
      "latLng" : "26.8335733,75.831195",
      "locality" : " Jagatpura",
      "penalty" : "100",
      "time" : "16:15",
      "user" : "IfTaCIc9ildHleifFcUvTbvprz43",
      "ward" : "112",
      "zone" : "Jagatpura"
    },
    "206" : {
      "address" : "121, Shiv Marg, Asind Nagar, Sanganer",
      "imageRef" : "2021~October~2021-10-12~2~206",
      "isAnalysis" : "yes",
      "isClean" : true,
      "latLng" : "26.8225337,75.7817678",
      "locality" : " Sanganer",
      "penalty" : "100",
      "time" : "16:18",
      "user" : "EY0cg0gEW0WKz60icDpLpkaWSij2",
      "ward" : "90",
      "zone" : "Sanganer"
    },
    "207" : {
      "address" : "112 aasind nagar new sanga ner road, Asind Nagar, Sanganer",
      "imageRef" : "2021~October~2021-10-12~2~207",
      "isClean" : true,
      "latLng" : "26.8218196,75.7810816",
      "locality" : " Sanganer",
      "time" : "16:20",
      "user" : "EY0cg0gEW0WKz60icDpLpkaWSij2",
      "ward" : "90",
      "zone" : "Sanganer"
    },
    "208" : {
      "address" : "1374, Shanti Niketan Colony, Tonk Phatak",
      "imageRef" : "2021~October~2021-10-12~2~208",
      "isAnalysis" : "yes",
      "isClean" : true,
      "latLng" : "26.8747042,75.7925594",
      "locality" : " Tonk Phatak",
      "penalty" : "100",
      "time" : "16:21",
      "user" : "R2QUov9b5oMM9H74iLKfUFx1iNn2",
      "ward" : "Not Found",
      "zone" : "Not Found"
    },
    "209" : {
      "address" : "WQV3+3QW, Shivpuri, Indrapura, Jhotwara",
      "imageRef" : "2021~October~2021-10-12~2~209",
      "isAnalysis" : "yes",
      "isClean" : true,
      "latLng" : "26.9426289,75.7544825",
      "locality" : " Jhotwara",
      "penalty" : "100",
      "time" : "16:21",
      "user" : "q824l6Y9DwXAx5nm9I9C1cImcRo1",
      "ward" : "Not Found",
      "zone" : "Not Found"
    },
    "210" : {
      "address" : "1374, Shanti Niketan Colony, Tonk Phatak",
      "imageRef" : "2021~October~2021-10-12~2~210",
      "isAnalysis" : "yes",
      "isClean" : true,
      "latLng" : "26.8747042,75.7925594",
      "locality" : " Tonk Phatak",
      "penalty" : "100",
      "time" : "16:21",
      "user" : "R2QUov9b5oMM9H74iLKfUFx1iNn2",
      "ward" : "Not Found",
      "zone" : "Not Found"
    },
    "211" : {
      "address" : "30,31, Vishnu Marg, Indrapura, Jhotwara",
      "imageRef" : "2021~October~2021-10-12~2~211",
      "isAnalysis" : "yes",
      "isClean" : true,
      "latLng" : "26.9407097,75.7544531",
      "locality" : " Jhotwara",
      "penalty" : "100",
      "time" : "16:24",
      "user" : "q824l6Y9DwXAx5nm9I9C1cImcRo1",
      "ward" : "Not Found",
      "zone" : "Not Found"
    },
    "212" : {
      "address" : "Laxmi Palace, Printers Colony, Dada Gurudev Nagar, Sanganer",
      "imageRef" : "2021~October~2021-10-12~2~212",
      "isAnalysis" : "yes",
      "isClean" : true,
      "latLng" : "26.818888,75.7838499",
      "locality" : " Sanganer",
      "penalty" : "100",
      "time" : "16:27",
      "user" : "EY0cg0gEW0WKz60icDpLpkaWSij2",
      "ward" : "90",
      "zone" : "Sanganer"
    },
    "213" : {
      "address" : "Getor Jagatpura, Railway station shortcut, Model Town, Jagatpura",
      "imageRef" : "2021~October~2021-10-12~2~213",
      "isAnalysis" : "yes",
      "isClean" : true,
      "latLng" : "26.8372383,75.83249",
      "locality" : " Jagatpura",
      "penalty" : "100",
      "time" : "16:27",
      "user" : "IfTaCIc9ildHleifFcUvTbvprz43",
      "ward" : "109",
      "zone" : "Jagatpura"
    },
    "214" : {
      "address" : "82, Asind Nagar, Gem Vihar Colony",
      "imageRef" : "2021~October~2021-10-12~2~214",
      "isAnalysis" : "yes",
      "isClean" : true,
      "latLng" : "26.8208152,75.7831129",
      "locality" : " Gem Vihar Colony",
      "penalty" : "100",
      "time" : "16:29",
      "user" : "EY0cg0gEW0WKz60icDpLpkaWSij2",
      "ward" : "90",
      "zone" : "Sanganer"
    },
    "215" : {
      "address" : "26, Kalwar Rd, Bhomiya Nagar, Pratik Nagar, Jhotwara",
      "imageRef" : "2021~October~2021-10-12~2~215",
      "isClean" : true,
      "latLng" : "26.9448133,75.7375841",
      "locality" : " Jhotwara",
      "time" : "16:33",
      "user" : "q824l6Y9DwXAx5nm9I9C1cImcRo1",
      "ward" : "36",
      "zone" : "Vidhyadhar"
    },
    "216" : {
      "address" : "17, Brij Mandal Colony, Jhotwara",
      "imageRef" : "2021~October~2021-10-12~2~216",
      "isClean" : true,
      "latLng" : "26.9378173,75.7315426",
      "locality" : " Jhotwara",
      "time" : "16:39",
      "user" : "q824l6Y9DwXAx5nm9I9C1cImcRo1",
      "ward" : "39",
      "zone" : "Vidhyadhar"
    },
    "217" : {
      "address" : "VQ8C+C9P, Ward 27, Mansarovar Sector 5, Mansarovar",
      "imageRef" : "2021~October~2021-10-12~2~217",
      "isAnalysis" : "yes",
      "isClean" : true,
      "latLng" : "26.8660281,75.7710821",
      "locality" : " Mansarovar",
      "penalty" : "100",
      "time" : "16:48",
      "user" : "LB5ZuA5FjaclXAeRLRT2dIRkowk2",
      "ward" : "76",
      "zone" : "Mansarovar"
    },
    "218" : {
      "address" : "74, Panwar Path, Jadon Nagar, Prithviraj Nagar, Durgapura",
      "imageRef" : "2021~October~2021-10-12~2~218",
      "isAnalysis" : "yes",
      "isClean" : true,
      "latLng" : "26.8534522,75.7806246",
      "locality" : " Durgapura",
      "penalty" : "100",
      "time" : "16:52",
      "user" : "jAuektVgF9MuTvDHnUWjDmZwVP92",
      "ward" : "81",
      "zone" : "Mansarovar"
    },
    "219" : {
      "address" : "byee pass, 63, Bajrang Vihar Rd, near shanti nagar, Bajrang Vihar, Gopal Pura Mode",
      "imageRef" : "2021~October~2021-10-12~2~219",
      "isAnalysis" : "yes",
      "isClean" : true,
      "latLng" : "26.8589624,75.7860642",
      "locality" : " Gopal Pura Mode",
      "penalty" : "100",
      "time" : "16:52",
      "user" : "jAuektVgF9MuTvDHnUWjDmZwVP92",
      "ward" : "81",
      "zone" : "Mansarovar"
    },
    "220" : {
      "address" : "17, Mansarovar",
      "imageRef" : "2021~October~2021-10-12~2~220",
      "isClean" : true,
      "latLng" : "26.8573617,75.773512",
      "locality" : " Mansarovar",
      "time" : "16:53",
      "user" : "LB5ZuA5FjaclXAeRLRT2dIRkowk2",
      "ward" : "76",
      "zone" : "Mansarovar"
    },
    "221" : {
      "address" : "46, Shipra Path, Agarwal Farm, Jhalana Chhod, Mansarovar",
      "imageRef" : "2021~October~2021-10-12~2~221",
      "isClean" : true,
      "latLng" : "26.8444575,75.7760265",
      "locality" : " Mansarovar",
      "time" : "17:01",
      "user" : "LB5ZuA5FjaclXAeRLRT2dIRkowk2",
      "ward" : "84",
      "zone" : "Sanganer"
    },
    "222" : {
      "address" : "46, Shipra Path, Agarwal Farm, Jhalana Chhod, Mansarovar",
      "imageRef" : "2021~October~2021-10-12~2~222",
      "isAnalysis" : "yes",
      "isClean" : true,
      "latLng" : "26.8444575,75.7760265",
      "locality" : " Mansarovar",
      "penalty" : "100",
      "time" : "17:02",
      "user" : "LB5ZuA5FjaclXAeRLRT2dIRkowk2",
      "ward" : "84",
      "zone" : "Sanganer"
    },
    "223" : {
      "address" : "46, Shipra Path, Agarwal Farm, Jhalana Chhod, Mansarovar",
      "imageRef" : "2021~October~2021-10-12~2~223",
      "isAnalysis" : "yes",
      "isClean" : true,
      "latLng" : "26.8444575,75.7760265",
      "locality" : " Mansarovar",
      "penalty" : "100",
      "time" : "17:02",
      "user" : "LB5ZuA5FjaclXAeRLRT2dIRkowk2",
      "ward" : "84",
      "zone" : "Sanganer"
    },
    "224" : {
      "address" : "B/88, Dadi Ka Phatak, Murlipura Scheme, Murlipura",
      "imageRef" : "2021~October~2021-10-12~2~224",
      "isAnalysis" : "yes",
      "isClean" : true,
      "latLng" : "26.9700199,75.753335",
      "locality" : " Murlipura",
      "penalty" : "100",
      "time" : "17:05",
      "user" : "ev0wnTlCHecAviBhj2QYe4lEAj13",
      "ward" : "15",
      "zone" : "Murlipura"
    },
    "225" : {
      "address" : "101/A, Macheda, Shankar Vihar Extension, Jamna Puri",
      "imageRef" : "2021~October~2021-10-12~2~225",
      "isClean" : true,
      "latLng" : "26.9766155,75.7539485",
      "locality" : " Jamna Puri",
      "time" : "17:10",
      "user" : "ev0wnTlCHecAviBhj2QYe4lEAj13",
      "ward" : "9",
      "zone" : "Murlipura"
    },
    "226" : {
      "address" : "Sparsh Hospital, 157, Asind Nagar, Sanganer",
      "imageRef" : "2021~October~2021-10-12~2~226",
      "isClean" : true,
      "latLng" : "26.8221869,75.7832534",
      "locality" : " Sanganer",
      "time" : "17:10",
      "user" : "EY0cg0gEW0WKz60icDpLpkaWSij2",
      "ward" : "90",
      "zone" : "Sanganer"
    },
    "227" : {
      "address" : "115, GEM VIHAR, near NK PUBLIC SCHOOL, Asind Nagar, Sanganer",
      "imageRef" : "2021~October~2021-10-12~2~227",
      "isAnalysis" : "yes",
      "isClean" : true,
      "latLng" : "26.8220652,75.7825515",
      "locality" : " Sanganer",
      "penalty" : "100",
      "time" : "17:16",
      "user" : "EY0cg0gEW0WKz60icDpLpkaWSij2",
      "ward" : "90",
      "zone" : "Sanganer"
    },
    "228" : {
      "address" : "78, Shyam Vihar Colony, Dada Gurudev Nagar, Sanganer",
      "imageRef" : "2021~October~2021-10-12~2~228",
      "isAnalysis" : "yes",
      "isClean" : true,
      "latLng" : "26.8207866,75.7801323",
      "locality" : " Sanganer",
      "penalty" : "100",
      "time" : "17:18",
      "user" : "EY0cg0gEW0WKz60icDpLpkaWSij2",
      "ward" : "89",
      "zone" : "Sanganer"
    },
    "229" : {
      "address" : "197, Ramdara Colony, Mahaveer Nagar Y, Dada Gurudev Nagar, Sanganer",
      "imageRef" : "2021~October~2021-10-12~2~229",
      "isClean" : true,
      "latLng" : "26.8214698,75.7776833",
      "locality" : " Sanganer",
      "time" : "17:22",
      "user" : "EY0cg0gEW0WKz60icDpLpkaWSij2",
      "ward" : "89",
      "zone" : "Sanganer"
    },
    "230" : {
      "address" : "XP7R+JVC, Laxmi Nagar III, Jhotwara",
      "imageRef" : "2021~October~2021-10-12~2~230",
      "isAnalysis" : "yes",
      "isClean" : true,
      "latLng" : "26.9642372,75.7422167",
      "locality" : " Jhotwara",
      "penalty" : "100",
      "time" : "17:32",
      "user" : "5O4HmxdGWmcOa1J2WhJr16wb8uG3",
      "ward" : "13",
      "zone" : "Murlipura"
    },
    "231" : {
      "address" : "129, 200 Feet Bypass Rd, Sanjay Nagar, Suraj Nagar, Jhotwara",
      "imageRef" : "2021~October~2021-10-12~2~231",
      "isClean" : true,
      "latLng" : "26.9497576,75.7376941",
      "locality" : " Jhotwara",
      "time" : "17:37",
      "user" : "q824l6Y9DwXAx5nm9I9C1cImcRo1",
      "ward" : "32",
      "zone" : "Vidhyadhar"
    },
    "232" : {
      "address" : "7, Laxmi Nagar, Ward Number 7, Jhotwara Industrial Area, Jhotwara",
      "imageRef" : "2021~October~2021-10-12~2~232",
      "isAnalysis" : "yes",
      "isClean" : true,
      "latLng" : "26.9620473,75.7394299",
      "locality" : " Jhotwara",
      "penalty" : "100",
      "time" : "17:39",
      "user" : "ev0wnTlCHecAviBhj2QYe4lEAj13",
      "ward" : "19",
      "zone" : "Murlipura"
    },
    "233" : {
      "address" : "324/B, Sanjay Nagar D, Bal Vihar, Jhotwara",
      "imageRef" : "2021~October~2021-10-12~2~233",
      "isClean" : true,
      "latLng" : "26.9508576,75.7335611",
      "locality" : " Jhotwara",
      "time" : "17:41",
      "user" : "q824l6Y9DwXAx5nm9I9C1cImcRo1",
      "ward" : "29",
      "zone" : "Vidhyadhar"
    },
    "234" : {
      "address" : "312, Joshi Marg, Bal Vihar, Jhotwara",
      "imageRef" : "2021~October~2021-10-12~2~234",
      "isAnalysis" : "yes",
      "isClean" : true,
      "latLng" : "26.9499438,75.7352216",
      "locality" : " Jhotwara",
      "penalty" : "100",
      "time" : "17:43",
      "user" : "q824l6Y9DwXAx5nm9I9C1cImcRo1",
      "ward" : "32",
      "zone" : "Vidhyadhar"
    },
    "235" : {
      "address" : "315, 200 Feet Bypass Rd, Bal Vihar, Jhotwara",
      "imageRef" : "2021~October~2021-10-12~2~235",
      "isClean" : true,
      "latLng" : "26.9505427,75.7351297",
      "locality" : " Jhotwara",
      "time" : "17:43",
      "user" : "q824l6Y9DwXAx5nm9I9C1cImcRo1",
      "ward" : "29",
      "zone" : "Vidhyadhar"
    },
    "236" : {
      "address" : "134, 134, Shri Krishna Marg, Manglam Vihar, Hanuman Nagar Extension, Khatipura",
      "imageRef" : "2021~October~2021-10-12~2~236",
      "isClean" : true,
      "latLng" : "26.9250144,75.7307481",
      "locality" : " Khatipura",
      "time" : "17:44",
      "user" : "5O4HmxdGWmcOa1J2WhJr16wb8uG3",
      "ward" : "42",
      "zone" : "Vidhyadhar"
    },
    "237" : {
      "address" : "Sanjay Nagar tiraha 59-A Uday nagar, Laxmi Nagar III, Jagannath Puri, Udyog Nagar, Jhotwara",
      "imageRef" : "2021~October~2021-10-12~2~237",
      "isClean" : true,
      "latLng" : "26.9488762,75.7458076",
      "locality" : " Jhotwara",
      "time" : "17:53",
      "user" : "q824l6Y9DwXAx5nm9I9C1cImcRo1",
      "ward" : "29",
      "zone" : "Vidhyadhar"
    },
    "238" : {
      "address" : "6, Gopalpura Bypass Rd, Shiv Shakti Nagar, Brijlalpura",
      "imageRef" : "2021~October~2021-10-12~2~238",
      "isClean" : true,
      "latLng" : "26.8798248,75.7557694",
      "locality" : " Brijlalpura",
      "time" : "18:36",
      "user" : "LB5ZuA5FjaclXAeRLRT2dIRkowk2",
      "ward" : "Not Found",
      "zone" : "Not Found"
    },
    "239" : {
      "address" : "C-47B, अम्बा बाडी, विद्याधर नगर",
      "imageRef" : "2021~October~2021-10-12~2~239",
      "isClean" : true,
      "latLng" : "26.9442722,75.7781741",
      "locality" : " विद्याधर नगर",
      "time" : "15:55",
      "user" : "DM6oXd18FbYVq6z2zGNatc58v2E2",
      "ward" : "27",
      "zone" : "Vidhyadhar"
    },
    "240" : {
      "address" : "C-47B, अम्बा बाडी, विद्याधर नगर",
      "imageRef" : "2021~October~2021-10-12~2~240",
      "isClean" : true,
      "latLng" : "26.9442722,75.7781741",
      "locality" : " विद्याधर नगर",
      "time" : "15:55",
      "user" : "DM6oXd18FbYVq6z2zGNatc58v2E2",
      "ward" : "27",
      "zone" : "Vidhyadhar"
    },
    "241" : {
      "address" : "C-47B, अम्बा बाडी, विद्याधर नगर",
      "imageRef" : "2021~October~2021-10-12~2~241",
      "isClean" : true,
      "latLng" : "26.9442722,75.7781741",
      "locality" : " विद्याधर नगर",
      "time" : "16:14",
      "user" : "DM6oXd18FbYVq6z2zGNatc58v2E2",
      "ward" : "27",
      "zone" : "Vidhyadhar"
    },
    "lastKey" : "241"
  },
  "3" : {
    "1" : {
      "address" : "SB-54, Sawai Mansingh Rd, Bapu Nagar",
      "imageRef" : "2021~October~2021-10-12~3~1",
      "isClean" : true,
      "latLng" : "26.8931175,75.8070898",
      "locality" : " Bapu Nagar",
      "time" : "14:06",
      "user" : "R2QUov9b5oMM9H74iLKfUFx1iNn2",
      "ward" : "142",
      "zone" : "Malviya Nagar"
    },
    "2" : {
      "address" : "0101, Pravasi Nagar, Murlipura",
      "imageRef" : "2021~October~2021-10-12~3~2",
      "isClean" : true,
      "latLng" : "26.9709871,75.7627423",
      "locality" : " Murlipura",
      "time" : "14:14",
      "user" : "U16d89rQwbOSv7mc9Dx0aCnQ8J63",
      "ward" : "16",
      "zone" : "Murlipura"
    },
    "3" : {
      "address" : "0101, Pravasi Nagar, Murlipura",
      "imageRef" : "2021~October~2021-10-12~3~3",
      "isClean" : true,
      "latLng" : "26.9710036,75.7627523",
      "locality" : " Murlipura",
      "time" : "14:27",
      "user" : "aiVgZV8ii7NsM69hxobHMRK8dVZ2",
      "ward" : "16",
      "zone" : "Murlipura"
    },
    "4" : {
      "address" : "0101, Pravasi Nagar, Murlipura",
      "imageRef" : "2021~October~2021-10-12~3~4",
      "isClean" : true,
      "latLng" : "26.9709907,75.7627577",
      "locality" : " Murlipura",
      "time" : "14:30",
      "user" : "eXWIaBlC67bq0UQbXoUcoowsF7u1",
      "ward" : "16",
      "zone" : "Murlipura"
    },
    "5" : {
      "address" : "C-47B, Ambabari, Vidyadhar Nagar",
      "imageRef" : "2021~October~2021-10-12~3~5",
      "isClean" : true,
      "latLng" : "26.9442727,75.7781753",
      "locality" : " Vidyadhar Nagar",
      "time" : "15:35",
      "user" : "U16d89rQwbOSv7mc9Dx0aCnQ8J63",
      "ward" : "27",
      "zone" : "Vidhyadhar"
    },
    "lastKey" : "5"
  }
}
