{
  "1" : {
    "1" : {
      "address" : "C-24 Gokul Vatika, Jawahar Circle, Jawahar Lal Nehru Marg, Sector 8, Durgapura",
      "imageRef" : "2021~October~2021-10-19~1~1",
      "isClean" : true,
      "latLng" : "26.8420893,75.8012778",
      "locality" : " Durgapura",
      "time" : "13:27",
      "user" : "QMfpXg6WqQgOMlD3OHLmEVOZwiq2",
      "ward" : "125",
      "zone" : "Malviya Nagar"
    },
    "2" : {
      "address" : "240, Jhotwara Rd, Heera Nagar Extension, Amrapali Circle, Vaishali Nagar",
      "imageRef" : "2021~October~2021-10-19~1~2",
      "isClean" : true,
      "latLng" : "26.8963024,75.7326062",
      "locality" : " Vaishali Nagar",
      "time" : "13:44",
      "user" : "0b6XWvRirOVJkEFYilWAWDwrsNX2",
      "ward" : "60",
      "zone" : "Jhotwara"
    },
    "3" : {
      "address" : "1298, Sector 1, Malviya Nagar",
      "imageRef" : "2021~October~2021-10-19~1~3",
      "isClean" : true,
      "latLng" : "26.8504623,75.8244294",
      "locality" : " Malviya Nagar",
      "time" : "15:08",
      "user" : "j7hB3Z4P3OdvSGPcavXtaHNuGBt2",
      "ward" : "127",
      "zone" : "Malviya Nagar"
    },
    "4" : {
      "address" : "B 42, Rd Number 5, Shyam Mitra Mandal Nagar, Vishwakarma Industrial Area, Murlipura",
      "imageRef" : "2021~October~2021-10-19~1~4",
      "isClean" : true,
      "latLng" : "26.9789617,75.7696711",
      "locality" : " Murlipura",
      "time" : "16:52",
      "user" : "nkAprmffpIajeFFisMLmPHqQmug1",
      "ward" : "17",
      "zone" : "Murlipura"
    },
    "5" : {
      "address" : "17, Shiv Nagar, Murlipura",
      "imageRef" : "2021~October~2021-10-19~1~5",
      "isClean" : true,
      "latLng" : "26.9729199,75.7702756",
      "locality" : " Murlipura",
      "time" : "16:53",
      "user" : "nkAprmffpIajeFFisMLmPHqQmug1",
      "ward" : "17",
      "zone" : "Murlipura"
    },
    "6" : {
      "address" : "17, Shiv Nagar, Murlipura",
      "imageRef" : "2021~October~2021-10-19~1~6",
      "isClean" : true,
      "latLng" : "26.9729199,75.7702756",
      "locality" : " Murlipura",
      "time" : "16:53",
      "user" : "nkAprmffpIajeFFisMLmPHqQmug1",
      "ward" : "17",
      "zone" : "Murlipura"
    },
    "7" : {
      "address" : "17, Shiv Nagar, Murlipura",
      "imageRef" : "2021~October~2021-10-19~1~7",
      "isClean" : true,
      "latLng" : "26.9729199,75.7702756",
      "locality" : " Murlipura",
      "time" : "16:53",
      "user" : "nkAprmffpIajeFFisMLmPHqQmug1",
      "ward" : "17",
      "zone" : "Murlipura"
    },
    "8" : {
      "address" : "335/A, Shiv Nagar, Vishwakarma Industrial Area, Murlipura",
      "imageRef" : "2021~October~2021-10-19~1~8",
      "isClean" : true,
      "latLng" : "26.9727568,75.7700386",
      "locality" : " Murlipura",
      "time" : "16:54",
      "user" : "nkAprmffpIajeFFisMLmPHqQmug1",
      "ward" : "17",
      "zone" : "Murlipura"
    },
    "9" : {
      "address" : "53-B, Kalyan Nagar, Murlipura",
      "imageRef" : "2021~October~2021-10-19~1~9",
      "isClean" : true,
      "latLng" : "26.9776888,75.7699585",
      "locality" : " Murlipura",
      "time" : "17:05",
      "user" : "WKlSuBosCvfjXpJJYAO04xTZHCl2",
      "ward" : "17",
      "zone" : "Murlipura"
    },
    "10" : {
      "address" : "4/172,Ram Bhawan, Shipra Path, SFS Manasarovar, Mansarovar",
      "imageRef" : "2021~October~2021-10-19~1~10",
      "isClean" : false,
      "latLng" : "26.8369509,75.7774225",
      "locality" : " Mansarovar",
      "time" : "09:30",
      "user" : "Qgn0iJfL8vVjrwtPGwDhNyNDRwB3",
      "ward" : "84",
      "zone" : "Sanganer"
    },
    "11" : {
      "address" : "4/172,Ram Bhawan, Shipra Path, SFS Manasarovar, Mansarovar",
      "imageRef" : "2021~October~2021-10-19~1~11",
      "isClean" : true,
      "latLng" : "26.8369509,75.7774225",
      "locality" : " Mansarovar",
      "time" : "09:42",
      "user" : "Qgn0iJfL8vVjrwtPGwDhNyNDRwB3",
      "ward" : "84",
      "zone" : "Sanganer"
    },
    "12" : {
      "address" : "4/172,Ram Bhawan, Shipra Path, SFS Manasarovar, Mansarovar",
      "imageRef" : "2021~October~2021-10-19~1~12",
      "isClean" : true,
      "latLng" : "26.8369509,75.7774225",
      "locality" : " Mansarovar",
      "time" : "09:43",
      "user" : "Qgn0iJfL8vVjrwtPGwDhNyNDRwB3",
      "ward" : "84",
      "zone" : "Sanganer"
    },
    "lastKey" : "9"
  },
  "2" : {
    "1" : {
      "address" : "356, Rd Number 14, Vishwakarma Industrial Area",
      "imageRef" : "2021~October~2021-10-19~2~1",
      "isAnalysis" : "yes",
      "isClean" : true,
      "latLng" : "26.9988761,75.7909803",
      "locality" : " Vishwakarma Industrial Area",
      "penalty" : "100",
      "time" : "08:30",
      "user" : "H5rob2uJ8jgknIAbGnblhi40tUE2",
      "ward" : "Not Found",
      "zone" : "Not Found"
    },
    "2" : {
      "address" : "356, Rd Number 14, Vishwakarma Industrial Area",
      "imageRef" : "2021~October~2021-10-19~2~2",
      "isClean" : true,
      "latLng" : "26.9988761,75.7909803",
      "locality" : " Vishwakarma Industrial Area",
      "time" : "08:31",
      "user" : "H5rob2uJ8jgknIAbGnblhi40tUE2",
      "ward" : "Not Found",
      "zone" : "Not Found"
    },
    "3" : {
      "address" : "79/113, 79/113, Sapteshwar Marg, Mansarovar Sector 7, Shipra Path, Barh Devariya, Mansarovar",
      "imageRef" : "2021~October~2021-10-19~2~3",
      "isClean" : true,
      "latLng" : "26.8620534,75.7736592",
      "locality" : " Mansarovar",
      "time" : "08:41",
      "user" : "eZzDR9ysuBdwPavzKl0PwU5GzG03",
      "ward" : "76",
      "zone" : "Mansarovar"
    },
    "4" : {
      "address" : "55-56, near Railway Station, Dev Nagar, Dada Gurudev Nagar, Sanganer",
      "imageRef" : "2021~October~2021-10-19~2~4",
      "isClean" : false,
      "latLng" : "26.8184249,75.7733965",
      "locality" : " Sanganer",
      "time" : "09:18",
      "user" : "5ey5OTJPSaVtScapKMAk3f1NkXA3",
      "ward" : "89",
      "zone" : "Sanganer"
    },
    "5" : {
      "address" : "55-56, near Railway Station, Dev Nagar, Dada Gurudev Nagar, Sanganer",
      "imageRef" : "2021~October~2021-10-19~2~5",
      "isClean" : false,
      "latLng" : "26.8184891,75.7732774",
      "locality" : " Sanganer",
      "time" : "09:55",
      "user" : "5ey5OTJPSaVtScapKMAk3f1NkXA3",
      "ward" : "89",
      "zone" : "Sanganer"
    },
    "6" : {
      "address" : "P.NO 2A-2B OPP DADABADI, DADA GURUDEV NAGAR, SANGANER, Gopi Nagar, Dada Gurudev Nagar, Sanganer",
      "imageRef" : "2021~October~2021-10-19~2~6",
      "isClean" : false,
      "latLng" : "26.8180245,75.7755253",
      "locality" : " Sanganer",
      "time" : "10:00",
      "user" : "5ey5OTJPSaVtScapKMAk3f1NkXA3",
      "ward" : "89",
      "zone" : "Sanganer"
    },
    "7" : {
      "address" : "Triraj Tower, Diggi Malpura Rd, near Reliance Fresh Chourdiya Petrol Pump, Kamla Nagar, Dada Gurudev Nagar, Sanganer",
      "imageRef" : "2021~October~2021-10-19~2~7",
      "isClean" : false,
      "latLng" : "26.8185121,75.7816992",
      "locality" : " Sanganer",
      "time" : "10:11",
      "user" : "5ey5OTJPSaVtScapKMAk3f1NkXA3",
      "ward" : "89",
      "zone" : "Sanganer"
    },
    "8" : {
      "address" : "14, 14, Pradhan Marg, Moji Nagar, Malviya Nagar",
      "imageRef" : "2021~October~2021-10-19~2~8",
      "isClean" : true,
      "latLng" : "26.8580325,75.8090574",
      "locality" : " Malviya Nagar",
      "time" : "10:12",
      "user" : "j7hB3Z4P3OdvSGPcavXtaHNuGBt2",
      "ward" : "132",
      "zone" : "Malviya Nagar"
    },
    "9" : {
      "address" : "SH 12 Road, Shikar pura Road, Sanganer, near Boy School, Bharave Colony, Dada Gurudev Nagar, Sanganer",
      "imageRef" : "2021~October~2021-10-19~2~9",
      "isClean" : false,
      "latLng" : "26.8129342,75.7808049",
      "locality" : " Sanganer",
      "time" : "10:13",
      "user" : "5ey5OTJPSaVtScapKMAk3f1NkXA3",
      "ward" : "89",
      "zone" : "Sanganer"
    },
    "10" : {
      "address" : "SH 12 Road, Shikar pura Road, Sanganer, near Boy School, Bharave Colony, Dada Gurudev Nagar, Sanganer",
      "imageRef" : "2021~October~2021-10-19~2~10",
      "isClean" : false,
      "latLng" : "26.8129342,75.7808049",
      "locality" : " Sanganer",
      "time" : "10:14",
      "user" : "5ey5OTJPSaVtScapKMAk3f1NkXA3",
      "ward" : "89",
      "zone" : "Sanganer"
    },
    "11" : {
      "address" : "RQ6M+WHR, Tripoliya Bazar, Sanganer",
      "imageRef" : "2021~October~2021-10-19~2~11",
      "isClean" : false,
      "latLng" : "26.8123647,75.7839249",
      "locality" : " Sanganer",
      "time" : "10:15",
      "user" : "5ey5OTJPSaVtScapKMAk3f1NkXA3",
      "ward" : "94",
      "zone" : "Sanganer"
    },
    "12" : {
      "address" : "RQ6M+WHR, Tripoliya Bazar, Sanganer",
      "imageRef" : "2021~October~2021-10-19~2~12",
      "isClean" : false,
      "latLng" : "26.8123647,75.7839249",
      "locality" : " Sanganer",
      "time" : "10:15",
      "user" : "5ey5OTJPSaVtScapKMAk3f1NkXA3",
      "ward" : "94",
      "zone" : "Sanganer"
    },
    "13" : {
      "address" : "RQ6M+WHR, Tripoliya Bazar, Sanganer",
      "imageRef" : "2021~October~2021-10-19~2~13",
      "isClean" : false,
      "latLng" : "26.8123647,75.7839249",
      "locality" : " Sanganer",
      "time" : "10:16",
      "user" : "5ey5OTJPSaVtScapKMAk3f1NkXA3",
      "ward" : "94",
      "zone" : "Sanganer"
    },
    "14" : {
      "address" : "Unnamed Road, Dada Gurudev Nagar, Sanganer",
      "imageRef" : "2021~October~2021-10-19~2~14",
      "isClean" : false,
      "latLng" : "26.814355,75.7844768",
      "locality" : " Sanganer",
      "time" : "10:17",
      "user" : "5ey5OTJPSaVtScapKMAk3f1NkXA3",
      "ward" : "93",
      "zone" : "Sanganer"
    },
    "15" : {
      "address" : "14, 14, Pradhan Marg, Moji Nagar, Malviya Nagar",
      "imageRef" : "2021~October~2021-10-19~2~15",
      "isClean" : true,
      "latLng" : "26.858125,75.8090318",
      "locality" : " Malviya Nagar",
      "time" : "10:18",
      "user" : "j7hB3Z4P3OdvSGPcavXtaHNuGBt2",
      "ward" : "132",
      "zone" : "Malviya Nagar"
    },
    "16" : {
      "address" : "Office No 502, 5th Floor, Arihant Plaza Pradhan Marg, In Front of Indian Oil Corporation Ltd Arihant plaza, Vidyut Abhiyanta Colony, Malviya Nagar",
      "imageRef" : "2021~October~2021-10-19~2~16",
      "isClean" : true,
      "latLng" : "26.8511705,75.8120914",
      "locality" : " Malviya Nagar",
      "time" : "10:29",
      "user" : "j7hB3Z4P3OdvSGPcavXtaHNuGBt2",
      "ward" : "130",
      "zone" : "Malviya Nagar"
    },
    "17" : {
      "address" : "4/461, Pradhan Marg, Vidyut Abhiyanta Colony, Sector 4, Malviya Nagar",
      "imageRef" : "2021~October~2021-10-19~2~17",
      "isClean" : true,
      "latLng" : "26.8491396,75.8136876",
      "locality" : " Malviya Nagar",
      "time" : "10:32",
      "user" : "j7hB3Z4P3OdvSGPcavXtaHNuGBt2",
      "ward" : "132",
      "zone" : "Malviya Nagar"
    },
    "18" : {
      "address" : "A419, A419, Shivanand Marg, near Agrasen Bhawan, Sector 2, Malviya Nagar",
      "imageRef" : "2021~October~2021-10-19~2~18",
      "isClean" : true,
      "latLng" : "26.851007,75.8178381",
      "locality" : " Malviya Nagar",
      "time" : "10:34",
      "user" : "j7hB3Z4P3OdvSGPcavXtaHNuGBt2",
      "ward" : "132",
      "zone" : "Malviya Nagar"
    },
    "19" : {
      "address" : "17, Usha Colony, Sector 1, Malviya Nagar",
      "imageRef" : "2021~October~2021-10-19~2~19",
      "isClean" : true,
      "latLng" : "26.855285,75.8230587",
      "locality" : " Malviya Nagar",
      "time" : "10:38",
      "user" : "j7hB3Z4P3OdvSGPcavXtaHNuGBt2",
      "ward" : "Not Found",
      "zone" : "Not Found"
    },
    "20" : {
      "address" : "39, Lalarpura",
      "imageRef" : "2021~October~2021-10-19~2~20",
      "isClean" : true,
      "latLng" : "26.8996526,75.7139423",
      "locality" : " Lalarpura",
      "time" : "10:40",
      "user" : "wtqzVbREAof4XGAD2bdmR1bCZb13",
      "ward" : "Not Found",
      "zone" : "Not Found"
    },
    "21" : {
      "address" : "Sector 3, Near Chauraha, Malviya Nagar, Sector 3, Malviya Nagar",
      "imageRef" : "2021~October~2021-10-19~2~21",
      "isClean" : true,
      "latLng" : "26.8462939,75.8207996",
      "locality" : " Malviya Nagar",
      "time" : "10:42",
      "user" : "QMfpXg6WqQgOMlD3OHLmEVOZwiq2",
      "ward" : "109",
      "zone" : "Jagatpura"
    },
    "22" : {
      "address" : "Sector 3, Near Chauraha, Malviya Nagar, Sector 3, Malviya Nagar",
      "imageRef" : "2021~October~2021-10-19~2~22",
      "isClean" : true,
      "latLng" : "26.8462939,75.8207996",
      "locality" : " Malviya Nagar",
      "time" : "10:43",
      "user" : "QMfpXg6WqQgOMlD3OHLmEVOZwiq2",
      "ward" : "109",
      "zone" : "Jagatpura"
    },
    "23" : {
      "address" : "152, Govind Vihar Rd, Lalarpura",
      "imageRef" : "2021~October~2021-10-19~2~23",
      "isClean" : true,
      "latLng" : "26.9001403,75.7144972",
      "locality" : " Lalarpura",
      "time" : "10:43",
      "user" : "wtqzVbREAof4XGAD2bdmR1bCZb13",
      "ward" : "Not Found",
      "zone" : "Not Found"
    },
    "24" : {
      "address" : "C-1/A, Nandpuri Colony, Jagatpura",
      "imageRef" : "2021~October~2021-10-19~2~24",
      "isClean" : true,
      "latLng" : "26.8423971,75.8145381",
      "locality" : " Jagatpura",
      "time" : "10:45",
      "user" : "j7hB3Z4P3OdvSGPcavXtaHNuGBt2",
      "ward" : "126",
      "zone" : "Malviya Nagar"
    },
    "25" : {
      "address" : "RRV7+MC9, Sector 12, Malviya Nagar",
      "imageRef" : "2021~October~2021-10-19~2~25",
      "isClean" : true,
      "latLng" : "26.8442465,75.813623",
      "locality" : " Malviya Nagar",
      "time" : "10:46",
      "user" : "j7hB3Z4P3OdvSGPcavXtaHNuGBt2",
      "ward" : "126",
      "zone" : "Malviya Nagar"
    },
    "26" : {
      "address" : "8, Girdharipura",
      "imageRef" : "2021~October~2021-10-19~2~26",
      "isClean" : true,
      "latLng" : "26.8971271,75.7170811",
      "locality" : " Girdharipura",
      "time" : "10:47",
      "user" : "wtqzVbREAof4XGAD2bdmR1bCZb13",
      "ward" : "Not Found",
      "zone" : "Not Found"
    },
    "27" : {
      "address" : "8, Girdharipura",
      "imageRef" : "2021~October~2021-10-19~2~27",
      "isClean" : true,
      "latLng" : "26.8971271,75.7170811",
      "locality" : " Girdharipura",
      "time" : "10:48",
      "user" : "wtqzVbREAof4XGAD2bdmR1bCZb13",
      "ward" : "Not Found",
      "zone" : "Not Found"
    },
    "28" : {
      "address" : "95, Suman Vihar, Girdharipura",
      "imageRef" : "2021~October~2021-10-19~2~28",
      "isClean" : true,
      "latLng" : "26.893978,75.7169779",
      "locality" : " Girdharipura",
      "time" : "10:49",
      "user" : "wtqzVbREAof4XGAD2bdmR1bCZb13",
      "ward" : "Not Found",
      "zone" : "Not Found"
    },
    "29" : {
      "address" : "55, Ajmer Rd Bypass, Hanuman Vatika-1, Heerapura, Heerawala",
      "imageRef" : "2021~October~2021-10-19~2~29",
      "isClean" : true,
      "latLng" : "26.8893606,75.7351501",
      "locality" : " Heerawala",
      "time" : "10:51",
      "user" : "LB5ZuA5FjaclXAeRLRT2dIRkowk2",
      "ward" : "60",
      "zone" : "Jhotwara"
    },
    "30" : {
      "address" : "Bikaner - Agra Rd, Jai Jawan-2, Choti Chopad, Sitabari, Durgapura",
      "imageRef" : "2021~October~2021-10-19~2~30",
      "isClean" : true,
      "latLng" : "26.8390138,75.7931748",
      "locality" : " Durgapura",
      "time" : "10:52",
      "user" : "pIRcS951TUOlePNHED9DvD5qz2m2",
      "ward" : "87",
      "zone" : "Sanganer"
    },
    "31" : {
      "address" : "55, Ajmer Rd Bypass, Hanuman Vatika-1, Heerapura, Heerawala",
      "imageRef" : "2021~October~2021-10-19~2~31",
      "isClean" : true,
      "latLng" : "26.8893606,75.7351501",
      "locality" : " Heerawala",
      "time" : "10:52",
      "user" : "LB5ZuA5FjaclXAeRLRT2dIRkowk2",
      "ward" : "60",
      "zone" : "Jhotwara"
    },
    "32" : {
      "address" : "UDB Emerald apartments, Nandpuri Colony, Malviya Nagar",
      "imageRef" : "2021~October~2021-10-19~2~32",
      "isClean" : true,
      "latLng" : "26.8424203,75.8161415",
      "locality" : " Malviya Nagar",
      "time" : "10:52",
      "user" : "QMfpXg6WqQgOMlD3OHLmEVOZwiq2",
      "ward" : "107",
      "zone" : "Jagatpura"
    },
    "33" : {
      "address" : "Jaipur Centre",
      "imageRef" : "2021~October~2021-10-19~2~33",
      "isClean" : true,
      "latLng" : "26.839603,75.7951413",
      "locality" : "Jaipur Centre",
      "time" : "10:53",
      "user" : "QMfpXg6WqQgOMlD3OHLmEVOZwiq2",
      "ward" : "125",
      "zone" : "Malviya Nagar"
    },
    "34" : {
      "address" : "Sahid Major Yogesh Agarwal Cir, Bank Colony, Murlipura Scheme, Murlipura",
      "imageRef" : "2021~October~2021-10-19~2~34",
      "isClean" : true,
      "latLng" : "26.9733222,75.762526",
      "locality" : " Murlipura",
      "time" : "10:53",
      "user" : "1RAhkhXXkQQZaD7DzGdeVuvwzyY2",
      "ward" : "16",
      "zone" : "Murlipura"
    },
    "35" : {
      "address" : "Jaipur Centre",
      "imageRef" : "2021~October~2021-10-19~2~35",
      "isClean" : true,
      "latLng" : "26.839603,75.7951413",
      "locality" : "Jaipur Centre",
      "time" : "10:54",
      "user" : "QMfpXg6WqQgOMlD3OHLmEVOZwiq2",
      "ward" : "125",
      "zone" : "Malviya Nagar"
    },
    "36" : {
      "address" : "32A, Jagatpura",
      "imageRef" : "2021~October~2021-10-19~2~36",
      "isClean" : false,
      "latLng" : "26.8320025,75.8296089",
      "locality" : " Jagatpura",
      "time" : "10:59",
      "user" : "0fwKH9Zi3hZBdTXlse3SMQJ0zjr1",
      "ward" : "112",
      "zone" : "Jagatpura"
    },
    "37" : {
      "address" : "Jaipur Centre",
      "imageRef" : "2021~October~2021-10-19~2~37",
      "isClean" : true,
      "latLng" : "26.8395687,75.7950825",
      "locality" : "Jaipur Centre",
      "time" : "10:59",
      "user" : "QMfpXg6WqQgOMlD3OHLmEVOZwiq2",
      "ward" : "125",
      "zone" : "Malviya Nagar"
    },
    "38" : {
      "address" : "83, Girdhar Marg, Lal Bahadur Nagar East, Sunder Nagar, Malviya Nagar",
      "imageRef" : "2021~October~2021-10-19~2~38",
      "isClean" : true,
      "latLng" : "26.8474983,75.8063286",
      "locality" : " Malviya Nagar",
      "time" : "10:59",
      "user" : "j7hB3Z4P3OdvSGPcavXtaHNuGBt2",
      "ward" : "130",
      "zone" : "Malviya Nagar"
    },
    "39" : {
      "address" : "4, Sawai Mansingh Rd, Durga Vihar, Hardev Colony, Jagatpura",
      "imageRef" : "2021~October~2021-10-19~2~39",
      "isClean" : true,
      "latLng" : "26.8300313,75.7942977",
      "locality" : " Jagatpura",
      "time" : "11:01",
      "user" : "QMfpXg6WqQgOMlD3OHLmEVOZwiq2",
      "ward" : "104",
      "zone" : "Jagatpura"
    },
    "40" : {
      "address" : "4, Sawai Mansingh Rd, Durga Vihar, Hardev Colony, Jagatpura",
      "imageRef" : "2021~October~2021-10-19~2~40",
      "isClean" : true,
      "latLng" : "26.8300313,75.7942977",
      "locality" : " Jagatpura",
      "time" : "11:02",
      "user" : "QMfpXg6WqQgOMlD3OHLmEVOZwiq2",
      "ward" : "104",
      "zone" : "Jagatpura"
    },
    "41" : {
      "address" : "C-37, Flat No 203, First Floor, Mathur Vaishye Nagar, near Ram Mandir Road, Sitabari, Kundan Nagar",
      "imageRef" : "2021~October~2021-10-19~2~41",
      "isClean" : true,
      "latLng" : "26.8290848,75.7924562",
      "locality" : " Kundan Nagar",
      "time" : "11:03",
      "user" : "QMfpXg6WqQgOMlD3OHLmEVOZwiq2",
      "ward" : "104",
      "zone" : "Jagatpura"
    },
    "42" : {
      "address" : "B-22, Sitabari, Kundan Nagar",
      "imageRef" : "2021~October~2021-10-19~2~42",
      "isClean" : true,
      "latLng" : "26.829183,75.7925153",
      "locality" : " Kundan Nagar",
      "time" : "11:03",
      "user" : "QMfpXg6WqQgOMlD3OHLmEVOZwiq2",
      "ward" : "104",
      "zone" : "Jagatpura"
    },
    "43" : {
      "address" : "Tonk Rd, Chandrakala Colony, Durgapura",
      "imageRef" : "2021~October~2021-10-19~2~43",
      "isClean" : true,
      "latLng" : "26.8449918,75.7939097",
      "locality" : " Durgapura",
      "time" : "11:03",
      "user" : "pIRcS951TUOlePNHED9DvD5qz2m2",
      "ward" : "125",
      "zone" : "Malviya Nagar"
    },
    "44" : {
      "address" : "2, Telephone Colony, Barkat Nagar, Tonk Phatak",
      "imageRef" : "2021~October~2021-10-19~2~44",
      "isClean" : true,
      "latLng" : "26.87855,75.7969981",
      "locality" : " Tonk Phatak",
      "time" : "11:04",
      "user" : "IuLu0Y5oXnOBk36uubivHnKRMZE2",
      "ward" : "141",
      "zone" : "Malviya Nagar"
    },
    "45" : {
      "address" : "2, Telephone Colony, Barkat Nagar, Tonk Phatak",
      "imageRef" : "2021~October~2021-10-19~2~45",
      "isClean" : false,
      "latLng" : "26.87855,75.7969981",
      "locality" : " Tonk Phatak",
      "time" : "11:05",
      "user" : "IuLu0Y5oXnOBk36uubivHnKRMZE2",
      "ward" : "141",
      "zone" : "Malviya Nagar"
    },
    "46" : {
      "address" : "RJ SH 12, Dada Gurudev Nagar, Sanganer",
      "imageRef" : "2021~October~2021-10-19~2~46",
      "isClean" : false,
      "latLng" : "26.8180503,75.7867331",
      "locality" : " Sanganer",
      "time" : "11:07",
      "user" : "5ey5OTJPSaVtScapKMAk3f1NkXA3",
      "ward" : "90",
      "zone" : "Sanganer"
    },
    "47" : {
      "address" : "85, RJ SH 12, Dada Gurudev Nagar, Sanganer",
      "imageRef" : "2021~October~2021-10-19~2~47",
      "isClean" : false,
      "latLng" : "26.8186187,75.7865717",
      "locality" : " Sanganer",
      "time" : "11:08",
      "user" : "5ey5OTJPSaVtScapKMAk3f1NkXA3",
      "ward" : "90",
      "zone" : "Sanganer"
    },
    "48" : {
      "address" : "74-167-167A-168-168A, Shipra Path, Mansarovar Sector 7, Shipra Path, Barh Devariya, Mansarovar",
      "imageRef" : "2021~October~2021-10-19~2~48",
      "isClean" : true,
      "latLng" : "26.8574543,75.7729119",
      "locality" : " Mansarovar",
      "time" : "11:09",
      "user" : "EY0cg0gEW0WKz60icDpLpkaWSij2",
      "ward" : "76",
      "zone" : "Mansarovar"
    },
    "49" : {
      "address" : "298, Tonk Rd, Adarsh Basti, Madhuvan Colony, Barkat Nagar",
      "imageRef" : "2021~October~2021-10-19~2~49",
      "isClean" : true,
      "latLng" : "26.8778732,75.7949077",
      "locality" : " Barkat Nagar",
      "time" : "11:10",
      "user" : "IuLu0Y5oXnOBk36uubivHnKRMZE2",
      "ward" : "141",
      "zone" : "Malviya Nagar"
    },
    "50" : {
      "address" : "298, Tonk Rd, Adarsh Basti, Madhuvan Colony, Barkat Nagar",
      "imageRef" : "2021~October~2021-10-19~2~50",
      "isClean" : true,
      "latLng" : "26.8778732,75.7949077",
      "locality" : " Barkat Nagar",
      "time" : "11:11",
      "user" : "IuLu0Y5oXnOBk36uubivHnKRMZE2",
      "ward" : "141",
      "zone" : "Malviya Nagar"
    },
    "51" : {
      "address" : "B-61, Ganesh Colony, J P Colony, Tonk Phatak",
      "imageRef" : "2021~October~2021-10-19~2~51",
      "isClean" : true,
      "latLng" : "26.887677,75.7932788",
      "locality" : " Tonk Phatak",
      "time" : "11:12",
      "user" : "IuLu0Y5oXnOBk36uubivHnKRMZE2",
      "ward" : "145",
      "zone" : "Malviya Nagar"
    },
    "52" : {
      "address" : "SF-35,Jaipur Textile Market, Near, Jagatpura Flyover, Model Town, Jagatpura,, Model Town, Jagatpura",
      "imageRef" : "2021~October~2021-10-19~2~52",
      "isClean" : true,
      "latLng" : "26.8372905,75.8337568",
      "locality" : " Jagatpura",
      "time" : "11:13",
      "user" : "Zl574btXdCeog078wmeikCUVorl1",
      "ward" : "109",
      "zone" : "Jagatpura"
    },
    "53" : {
      "address" : "SF-35,Jaipur Textile Market, Near, Jagatpura Flyover, Model Town, Jagatpura,, Model Town, Jagatpura",
      "imageRef" : "2021~October~2021-10-19~2~53",
      "isClean" : true,
      "latLng" : "26.8372905,75.8337568",
      "locality" : " Jagatpura",
      "time" : "11:13",
      "user" : "Zl574btXdCeog078wmeikCUVorl1",
      "ward" : "109",
      "zone" : "Jagatpura"
    },
    "54" : {
      "address" : "B-61, Ganesh Colony, J P Colony, Tonk Phatak",
      "imageRef" : "2021~October~2021-10-19~2~54",
      "isClean" : true,
      "latLng" : "26.887677,75.7932788",
      "locality" : " Tonk Phatak",
      "time" : "11:14",
      "user" : "IuLu0Y5oXnOBk36uubivHnKRMZE2",
      "ward" : "145",
      "zone" : "Malviya Nagar"
    },
    "55" : {
      "address" : "66, Diggi Malpura Rd, Maruti Colony, Dada Gurudev Nagar, Sanganer",
      "imageRef" : "2021~October~2021-10-19~2~55",
      "isClean" : true,
      "latLng" : "26.8176285,75.7815312",
      "locality" : " Sanganer",
      "time" : "11:14",
      "user" : "EY0cg0gEW0WKz60icDpLpkaWSij2",
      "ward" : "89",
      "zone" : "Sanganer"
    },
    "56" : {
      "address" : "C4, Prem Vihar, Jagatpura",
      "imageRef" : "2021~October~2021-10-19~2~56",
      "isClean" : true,
      "latLng" : "26.8311206,75.8341567",
      "locality" : " Jagatpura",
      "time" : "11:14",
      "user" : "Zl574btXdCeog078wmeikCUVorl1",
      "ward" : "112",
      "zone" : "Jagatpura"
    },
    "57" : {
      "address" : "3, Vishwakarma Industrial Area, Murlipura",
      "imageRef" : "2021~October~2021-10-19~2~57",
      "isClean" : true,
      "latLng" : "26.99664,75.7700345",
      "locality" : " Murlipura",
      "time" : "11:15",
      "user" : "RxDvTuUUsCTs9GcCg5g0iG9fA3t2",
      "ward" : "7",
      "zone" : "Murlipura"
    },
    "58" : {
      "address" : "61, Dada Bari Rd, Gopi Nagar, Dada Gurudev Nagar, Sanganer",
      "imageRef" : "2021~October~2021-10-19~2~58",
      "isClean" : true,
      "latLng" : "26.8140663,75.7752657",
      "locality" : " Sanganer",
      "time" : "11:16",
      "user" : "3rvFxdO6TvYhrDLWd0CRqid8PM33",
      "ward" : "89",
      "zone" : "Sanganer"
    },
    "59" : {
      "address" : "66, Diggi Malpura Rd, Maruti Colony, Dada Gurudev Nagar, Sanganer",
      "imageRef" : "2021~October~2021-10-19~2~59",
      "isClean" : true,
      "latLng" : "26.8176285,75.7815312",
      "locality" : " Sanganer",
      "time" : "11:16",
      "user" : "EY0cg0gEW0WKz60icDpLpkaWSij2",
      "ward" : "89",
      "zone" : "Sanganer"
    },
    "60" : {
      "address" : "Mansarovar, Padmavti Colony, Nirman Nagar, Ranisati Nagar",
      "imageRef" : "2021~October~2021-10-19~2~60",
      "isClean" : true,
      "latLng" : "26.8798647,75.7507038",
      "locality" : " Ranisati Nagar",
      "time" : "11:18",
      "user" : "LB5ZuA5FjaclXAeRLRT2dIRkowk2",
      "ward" : "64",
      "zone" : "Jhotwara"
    },
    "61" : {
      "address" : "C4, Prem Vihar, Jagatpura",
      "imageRef" : "2021~October~2021-10-19~2~61",
      "isClean" : true,
      "latLng" : "26.8311206,75.8341567",
      "locality" : " Jagatpura",
      "time" : "11:20",
      "user" : "Zl574btXdCeog078wmeikCUVorl1",
      "ward" : "112",
      "zone" : "Jagatpura"
    },
    "62" : {
      "address" : "C118, J P Colony, Chitragupta Nagar-II, Imli Phatak, Tonk Phatak",
      "imageRef" : "2021~October~2021-10-19~2~62",
      "isClean" : true,
      "latLng" : "26.8860344,75.7949088",
      "locality" : " Tonk Phatak",
      "time" : "11:22",
      "user" : "IuLu0Y5oXnOBk36uubivHnKRMZE2",
      "ward" : "145",
      "zone" : "Malviya Nagar"
    },
    "63" : {
      "address" : "129, Padmavti Colony, Nirman Nagar, Brijlalpura",
      "imageRef" : "2021~October~2021-10-19~2~63",
      "isClean" : true,
      "latLng" : "26.8814408,75.7498267",
      "locality" : " Brijlalpura",
      "time" : "11:22",
      "user" : "LB5ZuA5FjaclXAeRLRT2dIRkowk2",
      "ward" : "64",
      "zone" : "Jhotwara"
    },
    "64" : {
      "address" : "C118, J P Colony, Chitragupta Nagar-II, Imli Phatak, Tonk Phatak",
      "imageRef" : "2021~October~2021-10-19~2~64",
      "isClean" : true,
      "latLng" : "26.8859347,75.7949041",
      "locality" : " Tonk Phatak",
      "time" : "11:22",
      "user" : "IuLu0Y5oXnOBk36uubivHnKRMZE2",
      "ward" : "145",
      "zone" : "Malviya Nagar"
    },
    "65" : {
      "address" : "129, Padmavti Colony, Nirman Nagar, Brijlalpura",
      "imageRef" : "2021~October~2021-10-19~2~65",
      "isClean" : true,
      "latLng" : "26.8814408,75.7498267",
      "locality" : " Brijlalpura",
      "time" : "11:25",
      "user" : "LB5ZuA5FjaclXAeRLRT2dIRkowk2",
      "ward" : "64",
      "zone" : "Jhotwara"
    },
    "66" : {
      "address" : "129, Padmavti Colony, Nirman Nagar, Brijlalpura",
      "imageRef" : "2021~October~2021-10-19~2~66",
      "isClean" : true,
      "latLng" : "26.8814408,75.7498267",
      "locality" : " Brijlalpura",
      "time" : "11:25",
      "user" : "LB5ZuA5FjaclXAeRLRT2dIRkowk2",
      "ward" : "64",
      "zone" : "Jhotwara"
    },
    "67" : {
      "address" : "3, Kalyan Nagar, Jagatpura",
      "imageRef" : "2021~October~2021-10-19~2~67",
      "isClean" : true,
      "latLng" : "26.8303451,75.8347496",
      "locality" : " Jagatpura",
      "time" : "11:27",
      "user" : "Zl574btXdCeog078wmeikCUVorl1",
      "ward" : "112",
      "zone" : "Jagatpura"
    },
    "68" : {
      "address" : "129, Padmavti Colony, Nirman Nagar, Brijlalpura",
      "imageRef" : "2021~October~2021-10-19~2~68",
      "isClean" : true,
      "latLng" : "26.8814408,75.7498267",
      "locality" : " Brijlalpura",
      "time" : "11:27",
      "user" : "LB5ZuA5FjaclXAeRLRT2dIRkowk2",
      "ward" : "64",
      "zone" : "Jhotwara"
    },
    "69" : {
      "address" : "93, near City of golden domes, Brij Vihar, Jagatpura",
      "imageRef" : "2021~October~2021-10-19~2~69",
      "isClean" : true,
      "latLng" : "26.8327411,75.8355161",
      "locality" : " Jagatpura",
      "time" : "11:27",
      "user" : "Zl574btXdCeog078wmeikCUVorl1",
      "ward" : "112",
      "zone" : "Jagatpura"
    },
    "70" : {
      "address" : "M-92, J.P. Fatak, J P Colony, Tonk Phatak",
      "imageRef" : "2021~October~2021-10-19~2~70",
      "isClean" : true,
      "latLng" : "26.8830019,75.7951141",
      "locality" : " Tonk Phatak",
      "time" : "11:27",
      "user" : "IuLu0Y5oXnOBk36uubivHnKRMZE2",
      "ward" : "145",
      "zone" : "Malviya Nagar"
    },
    "71" : {
      "address" : "VKI Rd Number 14, opp. RDPL, Vishwakarma Industrial Area, Murlipura",
      "imageRef" : "2021~October~2021-10-19~2~71",
      "isClean" : true,
      "latLng" : "26.994269,75.7714878",
      "locality" : " Murlipura",
      "time" : "11:29",
      "user" : "RxDvTuUUsCTs9GcCg5g0iG9fA3t2",
      "ward" : "7",
      "zone" : "Murlipura"
    },
    "72" : {
      "address" : "129, Padmavti Colony, Nirman Nagar, Brijlalpura",
      "imageRef" : "2021~October~2021-10-19~2~72",
      "isClean" : true,
      "latLng" : "26.8814408,75.7498267",
      "locality" : " Brijlalpura",
      "time" : "11:30",
      "user" : "LB5ZuA5FjaclXAeRLRT2dIRkowk2",
      "ward" : "64",
      "zone" : "Jhotwara"
    },
    "73" : {
      "address" : "Rangoli Gardens, Lalarpura",
      "imageRef" : "2021~October~2021-10-19~2~73",
      "isClean" : true,
      "latLng" : "26.9069437,75.7145885",
      "locality" : " Lalarpura",
      "time" : "11:33",
      "user" : "lesTp06fnmbFxUpdCWwLQu8Q5Uz1",
      "ward" : "50",
      "zone" : "Jhotwara"
    },
    "74" : {
      "address" : "206, Jhotwara Rd, Amrapali Circle, Vaishali Nagar",
      "imageRef" : "2021~October~2021-10-19~2~74",
      "isClean" : true,
      "latLng" : "26.89435,75.7334869",
      "locality" : " Vaishali Nagar",
      "time" : "11:33",
      "user" : "q824l6Y9DwXAx5nm9I9C1cImcRo1",
      "ward" : "60",
      "zone" : "Jhotwara"
    },
    "75" : {
      "address" : "Rangoli Gardens, Lalarpura",
      "imageRef" : "2021~October~2021-10-19~2~75",
      "isClean" : true,
      "latLng" : "26.9069437,75.7145885",
      "locality" : " Lalarpura",
      "time" : "11:34",
      "user" : "lesTp06fnmbFxUpdCWwLQu8Q5Uz1",
      "ward" : "50",
      "zone" : "Jhotwara"
    },
    "76" : {
      "address" : "48, Rd Number 14, Vishwakarma Industrial Area, Murlipura",
      "imageRef" : "2021~October~2021-10-19~2~76",
      "isClean" : true,
      "latLng" : "26.9968257,75.7719889",
      "locality" : " Murlipura",
      "time" : "11:35",
      "user" : "RxDvTuUUsCTs9GcCg5g0iG9fA3t2",
      "ward" : "8",
      "zone" : "Murlipura"
    },
    "77" : {
      "address" : "B415, 10 B Scheme, Triveni Nagar, Arjun Nagar",
      "imageRef" : "2021~October~2021-10-19~2~77",
      "isClean" : true,
      "latLng" : "26.8653546,75.7804771",
      "locality" : " Arjun Nagar",
      "time" : "11:36",
      "user" : "36rAylHB1BS70xLwl7Qct26isRE2",
      "ward" : "80",
      "zone" : "Mansarovar"
    },
    "78" : {
      "address" : "111, Shree Ram Nagar - A, Suraj Nagar, Panchyawala",
      "imageRef" : "2021~October~2021-10-19~2~78",
      "isClean" : true,
      "latLng" : "26.9114332,75.7203521",
      "locality" : " Panchyawala",
      "time" : "11:36",
      "user" : "lesTp06fnmbFxUpdCWwLQu8Q5Uz1",
      "ward" : "53",
      "zone" : "Jhotwara"
    },
    "79" : {
      "address" : "VPXJ+QQJ, Chitrakoot",
      "imageRef" : "2021~October~2021-10-19~2~79",
      "isClean" : true,
      "latLng" : "26.899469,75.7318793",
      "locality" : " Chitrakoot",
      "time" : "11:36",
      "user" : "5O4HmxdGWmcOa1J2WhJr16wb8uG3",
      "ward" : "57",
      "zone" : "Jhotwara"
    },
    "80" : {
      "address" : "Shalby Hospital, Chitrakoot Sector 3, Vaishali Nagar",
      "imageRef" : "2021~October~2021-10-19~2~80",
      "isClean" : true,
      "latLng" : "26.9035293,75.7293353",
      "locality" : " Vaishali Nagar",
      "time" : "11:37",
      "user" : "q824l6Y9DwXAx5nm9I9C1cImcRo1",
      "ward" : "57",
      "zone" : "Jhotwara"
    },
    "81" : {
      "address" : "48, Rd Number 14, Vishwakarma Industrial Area, Murlipura",
      "imageRef" : "2021~October~2021-10-19~2~81",
      "isClean" : true,
      "latLng" : "26.9968257,75.7719889",
      "locality" : " Murlipura",
      "time" : "11:37",
      "user" : "RxDvTuUUsCTs9GcCg5g0iG9fA3t2",
      "ward" : "8",
      "zone" : "Murlipura"
    },
    "82" : {
      "address" : "21, near a, Ramdara Colony, Mahaveer Nagar Y, Dada Gurudev Nagar, Sanganer",
      "imageRef" : "2021~October~2021-10-19~2~82",
      "isClean" : true,
      "latLng" : "26.8173129,75.774228",
      "locality" : " Sanganer",
      "time" : "11:37",
      "user" : "EY0cg0gEW0WKz60icDpLpkaWSij2",
      "ward" : "89",
      "zone" : "Sanganer"
    },
    "83" : {
      "address" : "129, Padmavti Colony, Nirman Nagar, Brijlalpura",
      "imageRef" : "2021~October~2021-10-19~2~83",
      "isClean" : true,
      "latLng" : "26.8814408,75.7498267",
      "locality" : " Brijlalpura",
      "time" : "11:37",
      "user" : "LB5ZuA5FjaclXAeRLRT2dIRkowk2",
      "ward" : "64",
      "zone" : "Jhotwara"
    },
    "84" : {
      "address" : "111, Shree Ram Nagar - A, Suraj Nagar, Panchyawala",
      "imageRef" : "2021~October~2021-10-19~2~84",
      "isClean" : true,
      "latLng" : "26.9114332,75.7203521",
      "locality" : " Panchyawala",
      "time" : "11:38",
      "user" : "lesTp06fnmbFxUpdCWwLQu8Q5Uz1",
      "ward" : "53",
      "zone" : "Jhotwara"
    },
    "85" : {
      "address" : "S-67, RIICO COMPLEX, Road No. 14, V.K.I, Vishwakarma Industrial Area",
      "imageRef" : "2021~October~2021-10-19~2~85",
      "isClean" : true,
      "latLng" : "26.9975102,75.7735716",
      "locality" : " Vishwakarma Industrial Area",
      "time" : "11:38",
      "user" : "RxDvTuUUsCTs9GcCg5g0iG9fA3t2",
      "ward" : "8",
      "zone" : "Murlipura"
    },
    "86" : {
      "address" : "27, Lalarpura",
      "imageRef" : "2021~October~2021-10-19~2~86",
      "isClean" : true,
      "latLng" : "26.9055317,75.7237971",
      "locality" : " Lalarpura",
      "time" : "11:39",
      "user" : "5O4HmxdGWmcOa1J2WhJr16wb8uG3",
      "ward" : "53",
      "zone" : "Jhotwara"
    },
    "87" : {
      "address" : "S-67, RIICO COMPLEX, Road No. 14, V.K.I, Vishwakarma Industrial Area",
      "imageRef" : "2021~October~2021-10-19~2~87",
      "isClean" : true,
      "latLng" : "26.9975102,75.7735716",
      "locality" : " Vishwakarma Industrial Area",
      "time" : "11:39",
      "user" : "RxDvTuUUsCTs9GcCg5g0iG9fA3t2",
      "ward" : "8",
      "zone" : "Murlipura"
    },
    "88" : {
      "address" : "111, Shree Ram Nagar - A, Suraj Nagar, Panchyawala",
      "imageRef" : "2021~October~2021-10-19~2~88",
      "isClean" : true,
      "latLng" : "26.9114332,75.7203521",
      "locality" : " Panchyawala",
      "time" : "11:39",
      "user" : "lesTp06fnmbFxUpdCWwLQu8Q5Uz1",
      "ward" : "53",
      "zone" : "Jhotwara"
    },
    "89" : {
      "address" : "19-6-20/D, Mahal Rd, Tirupati Nagar, Vidhyadhar Nagar, Railway Colony, Jagatpura",
      "imageRef" : "2021~October~2021-10-19~2~89",
      "isClean" : true,
      "latLng" : "26.8263235,75.8459867",
      "locality" : " Jagatpura",
      "time" : "11:39",
      "user" : "Zl574btXdCeog078wmeikCUVorl1",
      "ward" : "116",
      "zone" : "Jagatpura"
    },
    "90" : {
      "address" : "SP818F, Road No. 14, Vishwakarma Industrial Area",
      "imageRef" : "2021~October~2021-10-19~2~90",
      "isClean" : true,
      "latLng" : "26.9975578,75.7759265",
      "locality" : " Vishwakarma Industrial Area",
      "time" : "11:40",
      "user" : "RxDvTuUUsCTs9GcCg5g0iG9fA3t2",
      "ward" : "8",
      "zone" : "Murlipura"
    },
    "91" : {
      "address" : "162-D, Gopalpura Bypass Rd, 10-B Scheme, Gangotri Nagar, Gopal Pura Mode",
      "imageRef" : "2021~October~2021-10-19~2~91",
      "isClean" : true,
      "latLng" : "26.8655272,75.7860773",
      "locality" : " Gopal Pura Mode",
      "time" : "11:40",
      "user" : "36rAylHB1BS70xLwl7Qct26isRE2",
      "ward" : "80",
      "zone" : "Mansarovar"
    },
    "92" : {
      "address" : "D-23A, Shree Ram Nagar - A, Lalarpura",
      "imageRef" : "2021~October~2021-10-19~2~92",
      "isClean" : true,
      "latLng" : "26.9094045,75.7261612",
      "locality" : " Lalarpura",
      "time" : "11:41",
      "user" : "lesTp06fnmbFxUpdCWwLQu8Q5Uz1",
      "ward" : "53",
      "zone" : "Jhotwara"
    },
    "93" : {
      "address" : "19-6-20/D, Mahal Rd, Tirupati Nagar, Vidhyadhar Nagar, Railway Colony, Jagatpura",
      "imageRef" : "2021~October~2021-10-19~2~93",
      "isClean" : true,
      "latLng" : "26.8263235,75.8459867",
      "locality" : " Jagatpura",
      "time" : "11:41",
      "user" : "Zl574btXdCeog078wmeikCUVorl1",
      "ward" : "116",
      "zone" : "Jagatpura"
    },
    "94" : {
      "address" : "Sanjay G-1, Janki Vihar, Girdharipura",
      "imageRef" : "2021~October~2021-10-19~2~94",
      "isClean" : true,
      "latLng" : "26.8947917,75.7191778",
      "locality" : " Girdharipura",
      "time" : "11:41",
      "user" : "OeCnghJYjVcG0jAsX9gPY6vGDnl2",
      "ward" : "59",
      "zone" : "Jhotwara"
    },
    "95" : {
      "address" : "161, Gopalpura Bypass Rd, undertriveni Flyover, Arjun Nagar South, Gangotri Nagar, Gopal Pura Mode",
      "imageRef" : "2021~October~2021-10-19~2~95",
      "isClean" : true,
      "latLng" : "26.8653879,75.7861283",
      "locality" : " Gopal Pura Mode",
      "time" : "11:41",
      "user" : "36rAylHB1BS70xLwl7Qct26isRE2",
      "ward" : "80",
      "zone" : "Mansarovar"
    },
    "96" : {
      "address" : "SP818F, Road No. 14, Vishwakarma Industrial Area",
      "imageRef" : "2021~October~2021-10-19~2~96",
      "isClean" : true,
      "latLng" : "26.9975578,75.7759265",
      "locality" : " Vishwakarma Industrial Area",
      "time" : "11:41",
      "user" : "RxDvTuUUsCTs9GcCg5g0iG9fA3t2",
      "ward" : "8",
      "zone" : "Murlipura"
    },
    "97" : {
      "address" : "285, Jagatpura",
      "imageRef" : "2021~October~2021-10-19~2~97",
      "isClean" : true,
      "latLng" : "26.83102,75.8417657",
      "locality" : " Jagatpura",
      "time" : "11:42",
      "user" : "Zl574btXdCeog078wmeikCUVorl1",
      "ward" : "Not Found",
      "zone" : "Not Found"
    },
    "98" : {
      "address" : "SP818F, Road No. 14, Vishwakarma Industrial Area",
      "imageRef" : "2021~October~2021-10-19~2~98",
      "isClean" : true,
      "latLng" : "26.9975578,75.7759265",
      "locality" : " Vishwakarma Industrial Area",
      "time" : "11:42",
      "user" : "RxDvTuUUsCTs9GcCg5g0iG9fA3t2",
      "ward" : "8",
      "zone" : "Murlipura"
    },
    "99" : {
      "address" : "7, Kings Rd, Ajmera Garden, Nirman Nagar, Brijlalpura",
      "imageRef" : "2021~October~2021-10-19~2~99",
      "isClean" : true,
      "latLng" : "26.8928916,75.7511363",
      "locality" : " Brijlalpura",
      "time" : "11:42",
      "user" : "f63WCJ0Lynd58cD0s0IXlxY2ANp2",
      "ward" : "64",
      "zone" : "Jhotwara"
    },
    "100" : {
      "address" : "285, Jagatpura",
      "imageRef" : "2021~October~2021-10-19~2~100",
      "isClean" : true,
      "latLng" : "26.83102,75.8417657",
      "locality" : " Jagatpura",
      "time" : "11:43",
      "user" : "Zl574btXdCeog078wmeikCUVorl1",
      "ward" : "Not Found",
      "zone" : "Not Found"
    },
    "101" : {
      "address" : "rajasthan silindar fectory, vishwkarma Road Number 14 k pass, Vishwakarma Industrial Area",
      "imageRef" : "2021~October~2021-10-19~2~101",
      "isClean" : true,
      "latLng" : "26.9971245,75.7789249",
      "locality" : " Vishwakarma Industrial Area",
      "time" : "11:43",
      "user" : "RxDvTuUUsCTs9GcCg5g0iG9fA3t2",
      "ward" : "8",
      "zone" : "Murlipura"
    },
    "102" : {
      "address" : "21/2, Vishwasariya Nagar Gopalpura Byepass Road",
      "imageRef" : "2021~October~2021-10-19~2~102",
      "isClean" : true,
      "latLng" : "26.8666902,75.7846135",
      "locality" : " Vishwasariya Nagar Gopalpura Byepass Road",
      "time" : "11:43",
      "user" : "36rAylHB1BS70xLwl7Qct26isRE2",
      "ward" : "77",
      "zone" : "Mansarovar"
    },
    "103" : {
      "address" : "7, Kings Rd, Ajmera Garden, Nirman Nagar, Brijlalpura",
      "imageRef" : "2021~October~2021-10-19~2~103",
      "isClean" : true,
      "latLng" : "26.8928989,75.7511566",
      "locality" : " Brijlalpura",
      "time" : "11:43",
      "user" : "f63WCJ0Lynd58cD0s0IXlxY2ANp2",
      "ward" : "64",
      "zone" : "Jhotwara"
    },
    "104" : {
      "address" : "D-23A, Shree Ram Nagar - A, Lalarpura",
      "imageRef" : "2021~October~2021-10-19~2~104",
      "isClean" : true,
      "latLng" : "26.9094045,75.7261612",
      "locality" : " Lalarpura",
      "time" : "11:43",
      "user" : "lesTp06fnmbFxUpdCWwLQu8Q5Uz1",
      "ward" : "53",
      "zone" : "Jhotwara"
    },
    "105" : {
      "address" : "rajasthan silindar fectory, vishwkarma Road Number 14 k pass, Vishwakarma Industrial Area",
      "imageRef" : "2021~October~2021-10-19~2~105",
      "isClean" : true,
      "latLng" : "26.9971245,75.7789249",
      "locality" : " Vishwakarma Industrial Area",
      "time" : "11:43",
      "user" : "RxDvTuUUsCTs9GcCg5g0iG9fA3t2",
      "ward" : "8",
      "zone" : "Murlipura"
    },
    "106" : {
      "address" : "7, Kings Rd, Ajmera Garden, Nirman Nagar, Brijlalpura",
      "imageRef" : "2021~October~2021-10-19~2~106",
      "isClean" : true,
      "latLng" : "26.8928989,75.7511566",
      "locality" : " Brijlalpura",
      "time" : "11:43",
      "user" : "f63WCJ0Lynd58cD0s0IXlxY2ANp2",
      "ward" : "64",
      "zone" : "Jhotwara"
    },
    "107" : {
      "address" : "XQWH+PPC, Vishwakarma Industrial Area",
      "imageRef" : "2021~October~2021-10-19~2~107",
      "isClean" : true,
      "latLng" : "26.9963522,75.7788577",
      "locality" : " Vishwakarma Industrial Area",
      "time" : "11:44",
      "user" : "RxDvTuUUsCTs9GcCg5g0iG9fA3t2",
      "ward" : "8",
      "zone" : "Murlipura"
    },
    "108" : {
      "address" : "7, Kings Rd, Ajmera Garden, Nirman Nagar, Brijlalpura",
      "imageRef" : "2021~October~2021-10-19~2~108",
      "isClean" : true,
      "latLng" : "26.8928989,75.7511566",
      "locality" : " Brijlalpura",
      "time" : "11:44",
      "user" : "f63WCJ0Lynd58cD0s0IXlxY2ANp2",
      "ward" : "64",
      "zone" : "Jhotwara"
    },
    "109" : {
      "address" : "plot no 22 Gandhi path west, abhishek vihar, near shubham memorial school, Lalarpura",
      "imageRef" : "2021~October~2021-10-19~2~109",
      "isClean" : true,
      "latLng" : "26.9053584,75.7227853",
      "locality" : " Lalarpura",
      "time" : "11:44",
      "user" : "lesTp06fnmbFxUpdCWwLQu8Q5Uz1",
      "ward" : "53",
      "zone" : "Jhotwara"
    },
    "110" : {
      "address" : "Sanjay G-1, Janki Vihar, Girdharipura",
      "imageRef" : "2021~October~2021-10-19~2~110",
      "isClean" : true,
      "latLng" : "26.8947917,75.7191778",
      "locality" : " Girdharipura",
      "time" : "11:45",
      "user" : "OeCnghJYjVcG0jAsX9gPY6vGDnl2",
      "ward" : "59",
      "zone" : "Jhotwara"
    },
    "111" : {
      "address" : "Unnamed Road, Dhawas, Girdharipura",
      "imageRef" : "2021~October~2021-10-19~2~111",
      "isClean" : true,
      "latLng" : "26.8953348,75.718159",
      "locality" : " Girdharipura",
      "time" : "11:45",
      "user" : "OeCnghJYjVcG0jAsX9gPY6vGDnl2",
      "ward" : "Not Found",
      "zone" : "Not Found"
    },
    "112" : {
      "address" : "Unnamed Road, Dhawas, Girdharipura",
      "imageRef" : "2021~October~2021-10-19~2~112",
      "isClean" : true,
      "latLng" : "26.8953348,75.718159",
      "locality" : " Girdharipura",
      "time" : "11:45",
      "user" : "OeCnghJYjVcG0jAsX9gPY6vGDnl2",
      "ward" : "Not Found",
      "zone" : "Not Found"
    },
    "113" : {
      "address" : "Jawahar Circle, Vishnu Enclave, Jawahar Circle, Malviya Nagar",
      "imageRef" : "2021~October~2021-10-19~2~113",
      "isClean" : true,
      "latLng" : "26.8423705,75.8017478",
      "locality" : " Malviya Nagar",
      "time" : "11:45",
      "user" : "QMfpXg6WqQgOMlD3OHLmEVOZwiq2",
      "ward" : "125",
      "zone" : "Malviya Nagar"
    },
    "114" : {
      "address" : "XQWH+PPC, Vishwakarma Industrial Area",
      "imageRef" : "2021~October~2021-10-19~2~114",
      "isClean" : true,
      "latLng" : "26.9963522,75.7788577",
      "locality" : " Vishwakarma Industrial Area",
      "time" : "11:45",
      "user" : "RxDvTuUUsCTs9GcCg5g0iG9fA3t2",
      "ward" : "8",
      "zone" : "Murlipura"
    },
    "115" : {
      "address" : "Lalarpura Rd, Maa Hinglaj Nagar, Lalarpura",
      "imageRef" : "2021~October~2021-10-19~2~115",
      "isClean" : true,
      "latLng" : "26.9048535,75.7187444",
      "locality" : " Lalarpura",
      "time" : "11:45",
      "user" : "q824l6Y9DwXAx5nm9I9C1cImcRo1",
      "ward" : "53",
      "zone" : "Jhotwara"
    },
    "116" : {
      "address" : "129, Padmavti Colony, Nirman Nagar, Brijlalpura",
      "imageRef" : "2021~October~2021-10-19~2~116",
      "isClean" : true,
      "latLng" : "26.8814408,75.7498267",
      "locality" : " Brijlalpura",
      "time" : "11:46",
      "user" : "LB5ZuA5FjaclXAeRLRT2dIRkowk2",
      "ward" : "64",
      "zone" : "Jhotwara"
    },
    "117" : {
      "address" : "99, Kings Rd, Vrindavan Vihar, Nirman Nagar, Brijlalpura",
      "imageRef" : "2021~October~2021-10-19~2~117",
      "isClean" : true,
      "latLng" : "26.8909443,75.7511733",
      "locality" : " Brijlalpura",
      "time" : "11:46",
      "user" : "f63WCJ0Lynd58cD0s0IXlxY2ANp2",
      "ward" : "64",
      "zone" : "Jhotwara"
    },
    "118" : {
      "address" : "39B, Shopping Centre, Vishveshvariya Nagar, Arjun Nagar",
      "imageRef" : "2021~October~2021-10-19~2~118",
      "isClean" : true,
      "latLng" : "26.8663343,75.7816747",
      "locality" : " Arjun Nagar",
      "time" : "11:46",
      "user" : "36rAylHB1BS70xLwl7Qct26isRE2",
      "ward" : "80",
      "zone" : "Mansarovar"
    },
    "119" : {
      "address" : "Unnamed Road, Dhawas, Girdharipura",
      "imageRef" : "2021~October~2021-10-19~2~119",
      "isClean" : true,
      "latLng" : "26.8953348,75.718159",
      "locality" : " Girdharipura",
      "time" : "11:46",
      "user" : "OeCnghJYjVcG0jAsX9gPY6vGDnl2",
      "ward" : "Not Found",
      "zone" : "Not Found"
    },
    "120" : {
      "address" : "Plot No.77 neelkanth vihar c lalarpura, Girdharipura",
      "imageRef" : "2021~October~2021-10-19~2~120",
      "isClean" : true,
      "latLng" : "26.8974427,75.7169842",
      "locality" : " Girdharipura",
      "time" : "11:46",
      "user" : "OeCnghJYjVcG0jAsX9gPY6vGDnl2",
      "ward" : "Not Found",
      "zone" : "Not Found"
    },
    "121" : {
      "address" : "99, Kings Rd, Vrindavan Vihar, Nirman Nagar, Brijlalpura",
      "imageRef" : "2021~October~2021-10-19~2~121",
      "isClean" : true,
      "latLng" : "26.8909443,75.7511733",
      "locality" : " Brijlalpura",
      "time" : "11:46",
      "user" : "f63WCJ0Lynd58cD0s0IXlxY2ANp2",
      "ward" : "64",
      "zone" : "Jhotwara"
    },
    "122" : {
      "address" : "plot no 22 Gandhi path west, abhishek vihar, near shubham memorial school, Lalarpura",
      "imageRef" : "2021~October~2021-10-19~2~122",
      "isClean" : true,
      "latLng" : "26.9053584,75.7227853",
      "locality" : " Lalarpura",
      "time" : "11:47",
      "user" : "lesTp06fnmbFxUpdCWwLQu8Q5Uz1",
      "ward" : "53",
      "zone" : "Jhotwara"
    },
    "123" : {
      "address" : "XQWH+PPC, Vishwakarma Industrial Area",
      "imageRef" : "2021~October~2021-10-19~2~123",
      "isClean" : true,
      "latLng" : "26.9963522,75.7788577",
      "locality" : " Vishwakarma Industrial Area",
      "time" : "11:47",
      "user" : "RxDvTuUUsCTs9GcCg5g0iG9fA3t2",
      "ward" : "8",
      "zone" : "Murlipura"
    },
    "124" : {
      "address" : "Plot No.77 neelkanth vihar c lalarpura, Girdharipura",
      "imageRef" : "2021~October~2021-10-19~2~124",
      "isClean" : true,
      "latLng" : "26.8974427,75.7169842",
      "locality" : " Girdharipura",
      "time" : "11:47",
      "user" : "OeCnghJYjVcG0jAsX9gPY6vGDnl2",
      "ward" : "Not Found",
      "zone" : "Not Found"
    },
    "125" : {
      "address" : "99, Kings Rd, Vrindavan Vihar, Nirman Nagar, Brijlalpura",
      "imageRef" : "2021~October~2021-10-19~2~125",
      "isClean" : true,
      "latLng" : "26.8909443,75.7511733",
      "locality" : " Brijlalpura",
      "time" : "11:47",
      "user" : "f63WCJ0Lynd58cD0s0IXlxY2ANp2",
      "ward" : "64",
      "zone" : "Jhotwara"
    },
    "126" : {
      "address" : "235A, Jagatpura",
      "imageRef" : "2021~October~2021-10-19~2~126",
      "isClean" : true,
      "latLng" : "26.831005,75.8421574",
      "locality" : " Jagatpura",
      "time" : "11:47",
      "user" : "Zl574btXdCeog078wmeikCUVorl1",
      "ward" : "Not Found",
      "zone" : "Not Found"
    },
    "127" : {
      "address" : "Plot No.77 neelkanth vihar c lalarpura, Girdharipura",
      "imageRef" : "2021~October~2021-10-19~2~127",
      "isClean" : true,
      "latLng" : "26.8974427,75.7169842",
      "locality" : " Girdharipura",
      "time" : "11:47",
      "user" : "OeCnghJYjVcG0jAsX9gPY6vGDnl2",
      "ward" : "Not Found",
      "zone" : "Not Found"
    },
    "128" : {
      "address" : "200 Ft By Pass, Jhotwara",
      "imageRef" : "2021~October~2021-10-19~2~128",
      "isClean" : true,
      "latLng" : "26.9463173,75.7322427",
      "locality" : " Jhotwara",
      "time" : "11:47",
      "user" : "ev0wnTlCHecAviBhj2QYe4lEAj13",
      "ward" : "Not Found",
      "zone" : "Not Found"
    },
    "129" : {
      "address" : "235A, Jagatpura",
      "imageRef" : "2021~October~2021-10-19~2~129",
      "isClean" : true,
      "latLng" : "26.831005,75.8421574",
      "locality" : " Jagatpura",
      "time" : "11:47",
      "user" : "Zl574btXdCeog078wmeikCUVorl1",
      "ward" : "Not Found",
      "zone" : "Not Found"
    },
    "130" : {
      "address" : "129, Padmavti Colony, Nirman Nagar, Brijlalpura",
      "imageRef" : "2021~October~2021-10-19~2~130",
      "isClean" : true,
      "latLng" : "26.8814408,75.7498267",
      "locality" : " Brijlalpura",
      "time" : "11:47",
      "user" : "LB5ZuA5FjaclXAeRLRT2dIRkowk2",
      "ward" : "64",
      "zone" : "Jhotwara"
    },
    "131" : {
      "address" : "41/42, Maa Hinglaj Nagar, Lalarpura",
      "imageRef" : "2021~October~2021-10-19~2~131",
      "isClean" : true,
      "latLng" : "26.9050029,75.7201123",
      "locality" : " Lalarpura",
      "time" : "11:48",
      "user" : "q824l6Y9DwXAx5nm9I9C1cImcRo1",
      "ward" : "53",
      "zone" : "Jhotwara"
    },
    "132" : {
      "address" : "G-501, Rd Number 12, Vishwakarma Industrial Area",
      "imageRef" : "2021~October~2021-10-19~2~132",
      "isClean" : true,
      "latLng" : "26.9908988,75.7776072",
      "locality" : " Vishwakarma Industrial Area",
      "time" : "11:48",
      "user" : "RxDvTuUUsCTs9GcCg5g0iG9fA3t2",
      "ward" : "8",
      "zone" : "Murlipura"
    },
    "133" : {
      "address" : "VQQ3+JQ6, Nirman Nagar, Brijlalpura",
      "imageRef" : "2021~October~2021-10-19~2~133",
      "isClean" : true,
      "latLng" : "26.8890662,75.7543897",
      "locality" : " Brijlalpura",
      "time" : "11:48",
      "user" : "f63WCJ0Lynd58cD0s0IXlxY2ANp2",
      "ward" : "Not Found",
      "zone" : "Not Found"
    },
    "134" : {
      "address" : "209, A block, Triveni Nagar, Arjun Nagar",
      "imageRef" : "2021~October~2021-10-19~2~134",
      "isClean" : true,
      "latLng" : "26.864181,75.7806944",
      "locality" : " Arjun Nagar",
      "time" : "11:48",
      "user" : "36rAylHB1BS70xLwl7Qct26isRE2",
      "ward" : "80",
      "zone" : "Mansarovar"
    },
    "135" : {
      "address" : "22 Shiv Shakti Nagar, King's Rd, Nirman Nagar, Ranisati Nagar",
      "imageRef" : "2021~October~2021-10-19~2~135",
      "isClean" : true,
      "latLng" : "26.8864695,75.753211",
      "locality" : " Ranisati Nagar",
      "time" : "11:48",
      "user" : "f63WCJ0Lynd58cD0s0IXlxY2ANp2",
      "ward" : "Not Found",
      "zone" : "Not Found"
    },
    "136" : {
      "address" : "Plot No.77 neelkanth vihar c lalarpura, Girdharipura",
      "imageRef" : "2021~October~2021-10-19~2~136",
      "isClean" : true,
      "latLng" : "26.8974427,75.7169842",
      "locality" : " Girdharipura",
      "time" : "11:48",
      "user" : "OeCnghJYjVcG0jAsX9gPY6vGDnl2",
      "ward" : "Not Found",
      "zone" : "Not Found"
    },
    "137" : {
      "address" : "200 Ft By Pass, Jhotwara",
      "imageRef" : "2021~October~2021-10-19~2~137",
      "isClean" : true,
      "latLng" : "26.9463173,75.7322427",
      "locality" : " Jhotwara",
      "time" : "11:48",
      "user" : "ev0wnTlCHecAviBhj2QYe4lEAj13",
      "ward" : "Not Found",
      "zone" : "Not Found"
    },
    "138" : {
      "address" : "G-501, Rd Number 12, Vishwakarma Industrial Area",
      "imageRef" : "2021~October~2021-10-19~2~138",
      "isClean" : true,
      "latLng" : "26.9908988,75.7776072",
      "locality" : " Vishwakarma Industrial Area",
      "time" : "11:48",
      "user" : "RxDvTuUUsCTs9GcCg5g0iG9fA3t2",
      "ward" : "8",
      "zone" : "Murlipura"
    },
    "139" : {
      "address" : "Gate No.5, Bangad Parisar, SMS Hospital, Jawahar Lal Nehru Marg, Ashok Nagar",
      "imageRef" : "2021~October~2021-10-19~2~139",
      "isClean" : true,
      "latLng" : "26.9057352,75.8178013",
      "locality" : " Ashok Nagar",
      "time" : "11:49",
      "user" : "GPotdEk3KiOa4fqpi2UXbBOSYhh2",
      "ward" : "150",
      "zone" : "Malviya Nagar"
    },
    "140" : {
      "address" : "A -50, Gandhi Path W, Maa Hingloj Nagar, Ayodhya Nagar",
      "imageRef" : "2021~October~2021-10-19~2~140",
      "isClean" : true,
      "latLng" : "26.904877,75.7229694",
      "locality" : " Ayodhya Nagar",
      "time" : "11:49",
      "user" : "q824l6Y9DwXAx5nm9I9C1cImcRo1",
      "ward" : "56",
      "zone" : "Jhotwara"
    },
    "141" : {
      "address" : "G-494, Rd Number 9A, Vishwakarma Industrial Area",
      "imageRef" : "2021~October~2021-10-19~2~141",
      "isClean" : true,
      "latLng" : "26.9891726,75.7767137",
      "locality" : " Vishwakarma Industrial Area",
      "time" : "11:49",
      "user" : "RxDvTuUUsCTs9GcCg5g0iG9fA3t2",
      "ward" : "8",
      "zone" : "Murlipura"
    },
    "142" : {
      "address" : "129, Padmavti Colony, Nirman Nagar, Brijlalpura",
      "imageRef" : "2021~October~2021-10-19~2~142",
      "isClean" : true,
      "latLng" : "26.8814408,75.7498267",
      "locality" : " Brijlalpura",
      "time" : "11:50",
      "user" : "LB5ZuA5FjaclXAeRLRT2dIRkowk2",
      "ward" : "64",
      "zone" : "Jhotwara"
    },
    "143" : {
      "address" : "G-494, Rd Number 9A, Vishwakarma Industrial Area",
      "imageRef" : "2021~October~2021-10-19~2~143",
      "isClean" : true,
      "latLng" : "26.9891726,75.7767137",
      "locality" : " Vishwakarma Industrial Area",
      "time" : "11:50",
      "user" : "RxDvTuUUsCTs9GcCg5g0iG9fA3t2",
      "ward" : "8",
      "zone" : "Murlipura"
    },
    "144" : {
      "address" : "C 22, Ram vitaka, Laxmi Nagar, Jhotwara",
      "imageRef" : "2021~October~2021-10-19~2~144",
      "isClean" : true,
      "latLng" : "26.96027,75.7375665",
      "locality" : " Jhotwara",
      "time" : "11:50",
      "user" : "ev0wnTlCHecAviBhj2QYe4lEAj13",
      "ward" : "19",
      "zone" : "Murlipura"
    },
    "145" : {
      "address" : "p.no-122, Vaishali Elegance Road, Gandhi Path W, Lalarpura",
      "imageRef" : "2021~October~2021-10-19~2~145",
      "isClean" : true,
      "latLng" : "26.9018864,75.7158844",
      "locality" : " Lalarpura",
      "time" : "11:50",
      "user" : "OeCnghJYjVcG0jAsX9gPY6vGDnl2",
      "ward" : "Not Found",
      "zone" : "Not Found"
    },
    "146" : {
      "address" : "C 22, Ram vitaka, Laxmi Nagar, Jhotwara",
      "imageRef" : "2021~October~2021-10-19~2~146",
      "isClean" : true,
      "latLng" : "26.96027,75.7375665",
      "locality" : " Jhotwara",
      "time" : "11:50",
      "user" : "ev0wnTlCHecAviBhj2QYe4lEAj13",
      "ward" : "19",
      "zone" : "Murlipura"
    },
    "147" : {
      "address" : "22 Shiv Shakti Nagar, King's Rd, Nirman Nagar, Ranisati Nagar",
      "imageRef" : "2021~October~2021-10-19~2~147",
      "isClean" : true,
      "latLng" : "26.8864695,75.753211",
      "locality" : " Ranisati Nagar",
      "time" : "11:51",
      "user" : "f63WCJ0Lynd58cD0s0IXlxY2ANp2",
      "ward" : "Not Found",
      "zone" : "Not Found"
    },
    "148" : {
      "address" : "58, Gandhi Path W, Lalarpura",
      "imageRef" : "2021~October~2021-10-19~2~148",
      "isClean" : true,
      "latLng" : "26.9052015,75.7239026",
      "locality" : " Lalarpura",
      "time" : "11:51",
      "user" : "q824l6Y9DwXAx5nm9I9C1cImcRo1",
      "ward" : "53",
      "zone" : "Jhotwara"
    },
    "149" : {
      "address" : "G-494, Rd Number 9A, Vishwakarma Industrial Area",
      "imageRef" : "2021~October~2021-10-19~2~149",
      "isClean" : true,
      "latLng" : "26.9891726,75.7767137",
      "locality" : " Vishwakarma Industrial Area",
      "time" : "11:52",
      "user" : "RxDvTuUUsCTs9GcCg5g0iG9fA3t2",
      "ward" : "8",
      "zone" : "Murlipura"
    },
    "150" : {
      "address" : "C 22, Ram vitaka, Laxmi Nagar, Jhotwara",
      "imageRef" : "2021~October~2021-10-19~2~150",
      "isClean" : true,
      "latLng" : "26.96027,75.7375665",
      "locality" : " Jhotwara",
      "time" : "11:52",
      "user" : "ev0wnTlCHecAviBhj2QYe4lEAj13",
      "ward" : "19",
      "zone" : "Murlipura"
    },
    "151" : {
      "address" : "129, Padmavti Colony, Nirman Nagar, Brijlalpura",
      "imageRef" : "2021~October~2021-10-19~2~151",
      "isClean" : true,
      "latLng" : "26.8814408,75.7498267",
      "locality" : " Brijlalpura",
      "time" : "11:52",
      "user" : "LB5ZuA5FjaclXAeRLRT2dIRkowk2",
      "ward" : "64",
      "zone" : "Jhotwara"
    },
    "152" : {
      "address" : "20 kha Chhilra Ki Dhani Near Nangal Puliya, Jhotwara Industrial Area, Jhotwara",
      "imageRef" : "2021~October~2021-10-19~2~152",
      "isClean" : true,
      "latLng" : "26.9656079,75.7443997",
      "locality" : " Jhotwara",
      "time" : "11:52",
      "user" : "ev0wnTlCHecAviBhj2QYe4lEAj13",
      "ward" : "14",
      "zone" : "Murlipura"
    },
    "153" : {
      "address" : "D 469 K, Rd Number 9A, Vishwakarma Industrial Area",
      "imageRef" : "2021~October~2021-10-19~2~153",
      "isClean" : true,
      "latLng" : "26.9891916,75.7742754",
      "locality" : " Vishwakarma Industrial Area",
      "time" : "11:52",
      "user" : "RxDvTuUUsCTs9GcCg5g0iG9fA3t2",
      "ward" : "8",
      "zone" : "Murlipura"
    },
    "154" : {
      "address" : "D 469 K, Rd Number 9A, Vishwakarma Industrial Area",
      "imageRef" : "2021~October~2021-10-19~2~154",
      "isClean" : true,
      "latLng" : "26.9891916,75.7742754",
      "locality" : " Vishwakarma Industrial Area",
      "time" : "11:53",
      "user" : "RxDvTuUUsCTs9GcCg5g0iG9fA3t2",
      "ward" : "8",
      "zone" : "Murlipura"
    },
    "155" : {
      "address" : "Gate No.5, Bangad Parisar, SMS Hospital, Jawahar Lal Nehru Marg, Ashok Nagar",
      "imageRef" : "2021~October~2021-10-19~2~155",
      "isClean" : true,
      "latLng" : "26.9057352,75.8178013",
      "locality" : " Ashok Nagar",
      "time" : "11:53",
      "user" : "GPotdEk3KiOa4fqpi2UXbBOSYhh2",
      "ward" : "150",
      "zone" : "Malviya Nagar"
    },
    "156" : {
      "address" : "p.no-122, Vaishali Elegance Road, Gandhi Path W, Lalarpura",
      "imageRef" : "2021~October~2021-10-19~2~156",
      "isClean" : true,
      "latLng" : "26.9018864,75.7158844",
      "locality" : " Lalarpura",
      "time" : "11:53",
      "user" : "OeCnghJYjVcG0jAsX9gPY6vGDnl2",
      "ward" : "Not Found",
      "zone" : "Not Found"
    },
    "157" : {
      "address" : "20 kha Chhilra Ki Dhani Near Nangal Puliya, Jhotwara Industrial Area, Jhotwara",
      "imageRef" : "2021~October~2021-10-19~2~157",
      "isClean" : true,
      "latLng" : "26.9656079,75.7443997",
      "locality" : " Jhotwara",
      "time" : "11:53",
      "user" : "ev0wnTlCHecAviBhj2QYe4lEAj13",
      "ward" : "14",
      "zone" : "Murlipura"
    },
    "158" : {
      "address" : "Lalarpura Rd, Maa Hinglaj Nagar, Lalarpura",
      "imageRef" : "2021~October~2021-10-19~2~158",
      "isClean" : true,
      "latLng" : "26.9046301,75.7188891",
      "locality" : " Lalarpura",
      "time" : "11:53",
      "user" : "OeCnghJYjVcG0jAsX9gPY6vGDnl2",
      "ward" : "53",
      "zone" : "Jhotwara"
    },
    "159" : {
      "address" : "XQQF+H93, Anaj Mandi, Vishwakarma Industrial Area",
      "imageRef" : "2021~October~2021-10-19~2~159",
      "isClean" : true,
      "latLng" : "26.9889957,75.7733656",
      "locality" : " Vishwakarma Industrial Area",
      "time" : "11:54",
      "user" : "RxDvTuUUsCTs9GcCg5g0iG9fA3t2",
      "ward" : "8",
      "zone" : "Murlipura"
    },
    "160" : {
      "address" : "B-1, B-1, Hospital Rd, near SMS Hospital, Panch Batti, Sangram Colony, Ashok Nagar",
      "imageRef" : "2021~October~2021-10-19~2~160",
      "isClean" : true,
      "latLng" : "26.9066719,75.8143907",
      "locality" : " Ashok Nagar",
      "time" : "11:54",
      "user" : "GPotdEk3KiOa4fqpi2UXbBOSYhh2",
      "ward" : "150",
      "zone" : "Malviya Nagar"
    },
    "161" : {
      "address" : "Lalarpura Rd, Maa Hinglaj Nagar, Lalarpura",
      "imageRef" : "2021~October~2021-10-19~2~161",
      "isClean" : true,
      "latLng" : "26.9046301,75.7188891",
      "locality" : " Lalarpura",
      "time" : "11:54",
      "user" : "OeCnghJYjVcG0jAsX9gPY6vGDnl2",
      "ward" : "53",
      "zone" : "Jhotwara"
    },
    "162" : {
      "address" : "XQQF+H93, Anaj Mandi, Vishwakarma Industrial Area",
      "imageRef" : "2021~October~2021-10-19~2~162",
      "isClean" : true,
      "latLng" : "26.9889957,75.7733656",
      "locality" : " Vishwakarma Industrial Area",
      "time" : "11:54",
      "user" : "RxDvTuUUsCTs9GcCg5g0iG9fA3t2",
      "ward" : "8",
      "zone" : "Murlipura"
    },
    "163" : {
      "address" : "Lalarpura Rd, Maa Hinglaj Nagar, Lalarpura",
      "imageRef" : "2021~October~2021-10-19~2~163",
      "isClean" : true,
      "latLng" : "26.9046301,75.7188891",
      "locality" : " Lalarpura",
      "time" : "11:54",
      "user" : "OeCnghJYjVcG0jAsX9gPY6vGDnl2",
      "ward" : "53",
      "zone" : "Jhotwara"
    },
    "164" : {
      "address" : "129, Padmavti Colony, Nirman Nagar, Brijlalpura",
      "imageRef" : "2021~October~2021-10-19~2~164",
      "isClean" : true,
      "latLng" : "26.8814408,75.7498267",
      "locality" : " Brijlalpura",
      "time" : "11:55",
      "user" : "LB5ZuA5FjaclXAeRLRT2dIRkowk2",
      "ward" : "64",
      "zone" : "Jhotwara"
    },
    "165" : {
      "address" : "B-56, Gandhi Path W, Maa Hinglaj Nagar, Lalarpura",
      "imageRef" : "2021~October~2021-10-19~2~165",
      "isClean" : true,
      "latLng" : "26.9064678,75.7179896",
      "locality" : " Lalarpura",
      "time" : "11:55",
      "user" : "OeCnghJYjVcG0jAsX9gPY6vGDnl2",
      "ward" : "53",
      "zone" : "Jhotwara"
    },
    "166" : {
      "address" : "B-56, Gandhi Path W, Maa Hinglaj Nagar, Lalarpura",
      "imageRef" : "2021~October~2021-10-19~2~166",
      "isClean" : true,
      "latLng" : "26.9064678,75.7179896",
      "locality" : " Lalarpura",
      "time" : "11:55",
      "user" : "OeCnghJYjVcG0jAsX9gPY6vGDnl2",
      "ward" : "53",
      "zone" : "Jhotwara"
    },
    "167" : {
      "address" : "83, Maharana Pratap Marg, Shree Ram Nagar - A, Lalarpura",
      "imageRef" : "2021~October~2021-10-19~2~167",
      "isClean" : true,
      "latLng" : "26.9097427,75.7267969",
      "locality" : " Lalarpura",
      "time" : "11:55",
      "user" : "q824l6Y9DwXAx5nm9I9C1cImcRo1",
      "ward" : "53",
      "zone" : "Jhotwara"
    },
    "168" : {
      "address" : "B-56, Gandhi Path W, Maa Hinglaj Nagar, Lalarpura",
      "imageRef" : "2021~October~2021-10-19~2~168",
      "isClean" : true,
      "latLng" : "26.9064678,75.7179896",
      "locality" : " Lalarpura",
      "time" : "11:56",
      "user" : "OeCnghJYjVcG0jAsX9gPY6vGDnl2",
      "ward" : "53",
      "zone" : "Jhotwara"
    },
    "169" : {
      "address" : "B-1, B-1, Hospital Rd, near SMS Hospital, Panch Batti, Sangram Colony, Ashok Nagar",
      "imageRef" : "2021~October~2021-10-19~2~169",
      "isClean" : true,
      "latLng" : "26.9066719,75.8143907",
      "locality" : " Ashok Nagar",
      "time" : "11:56",
      "user" : "GPotdEk3KiOa4fqpi2UXbBOSYhh2",
      "ward" : "150",
      "zone" : "Malviya Nagar"
    },
    "170" : {
      "address" : "C-147, Jan Path, Nirman Nagar",
      "imageRef" : "2021~October~2021-10-19~2~170",
      "isClean" : true,
      "latLng" : "26.8893122,75.7534589",
      "locality" : " Nirman Nagar",
      "time" : "11:56",
      "user" : "f63WCJ0Lynd58cD0s0IXlxY2ANp2",
      "ward" : "Not Found",
      "zone" : "Not Found"
    },
    "171" : {
      "address" : "XQQF+H93, Anaj Mandi, Vishwakarma Industrial Area",
      "imageRef" : "2021~October~2021-10-19~2~171",
      "isClean" : true,
      "latLng" : "26.9889957,75.7733656",
      "locality" : " Vishwakarma Industrial Area",
      "time" : "11:57",
      "user" : "RxDvTuUUsCTs9GcCg5g0iG9fA3t2",
      "ward" : "8",
      "zone" : "Murlipura"
    },
    "172" : {
      "address" : "B-56, Gandhi Path W, Maa Hinglaj Nagar, Lalarpura",
      "imageRef" : "2021~October~2021-10-19~2~172",
      "isClean" : true,
      "latLng" : "26.9064678,75.7179896",
      "locality" : " Lalarpura",
      "time" : "11:57",
      "user" : "OeCnghJYjVcG0jAsX9gPY6vGDnl2",
      "ward" : "53",
      "zone" : "Jhotwara"
    },
    "173" : {
      "address" : "3, Narayan Nagar Vistar, Deep Nagar, Jhotwara",
      "imageRef" : "2021~October~2021-10-19~2~173",
      "isClean" : true,
      "latLng" : "26.9653557,75.7461828",
      "locality" : " Jhotwara",
      "time" : "11:57",
      "user" : "ev0wnTlCHecAviBhj2QYe4lEAj13",
      "ward" : "14",
      "zone" : "Murlipura"
    },
    "174" : {
      "address" : "14, Gandhi Path W, Maa Hingloj Nagar, Maa Hinglaj Nagar, Lalarpura",
      "imageRef" : "2021~October~2021-10-19~2~174",
      "isClean" : true,
      "latLng" : "26.9049294,75.7198475",
      "locality" : " Lalarpura",
      "time" : "11:57",
      "user" : "OeCnghJYjVcG0jAsX9gPY6vGDnl2",
      "ward" : "53",
      "zone" : "Jhotwara"
    },
    "175" : {
      "address" : "WP6H+Q2R, Hastinapur Vistar, Panchyawala",
      "imageRef" : "2021~October~2021-10-19~2~175",
      "isClean" : true,
      "latLng" : "26.912004,75.7273727",
      "locality" : " Panchyawala",
      "time" : "11:57",
      "user" : "q824l6Y9DwXAx5nm9I9C1cImcRo1",
      "ward" : "53",
      "zone" : "Jhotwara"
    },
    "176" : {
      "address" : "14, Gandhi Path W, Maa Hingloj Nagar, Maa Hinglaj Nagar, Lalarpura",
      "imageRef" : "2021~October~2021-10-19~2~176",
      "isClean" : true,
      "latLng" : "26.9049294,75.7198475",
      "locality" : " Lalarpura",
      "time" : "11:58",
      "user" : "OeCnghJYjVcG0jAsX9gPY6vGDnl2",
      "ward" : "53",
      "zone" : "Jhotwara"
    },
    "177" : {
      "address" : "A-118, B-119 & 120, Road No. 09, V.K.I. Area, Sikar Rd, near Metro Cash & Carry, Vishwakarma Industrial Area",
      "imageRef" : "2021~October~2021-10-19~2~177",
      "isClean" : true,
      "latLng" : "26.9871529,75.7752909",
      "locality" : " Vishwakarma Industrial Area",
      "time" : "11:58",
      "user" : "RxDvTuUUsCTs9GcCg5g0iG9fA3t2",
      "ward" : "8",
      "zone" : "Murlipura"
    },
    "178" : {
      "address" : "21, Gandhi Path W, L.N. Nagar, Bhairav Nagar, Vaishali Nagar",
      "imageRef" : "2021~October~2021-10-19~2~178",
      "isClean" : true,
      "latLng" : "26.9044343,75.7206125",
      "locality" : " Vaishali Nagar",
      "time" : "11:58",
      "user" : "OeCnghJYjVcG0jAsX9gPY6vGDnl2",
      "ward" : "56",
      "zone" : "Jhotwara"
    },
    "179" : {
      "address" : "A-118, B-119 & 120, Road No. 09, V.K.I. Area, Sikar Rd, near Metro Cash & Carry, Vishwakarma Industrial Area",
      "imageRef" : "2021~October~2021-10-19~2~179",
      "isClean" : true,
      "latLng" : "26.9871529,75.7752909",
      "locality" : " Vishwakarma Industrial Area",
      "time" : "11:58",
      "user" : "RxDvTuUUsCTs9GcCg5g0iG9fA3t2",
      "ward" : "8",
      "zone" : "Murlipura"
    },
    "180" : {
      "address" : "21, Gandhi Path W, L.N. Nagar, Bhairav Nagar, Vaishali Nagar",
      "imageRef" : "2021~October~2021-10-19~2~180",
      "isClean" : true,
      "latLng" : "26.9044343,75.7206125",
      "locality" : " Vaishali Nagar",
      "time" : "11:59",
      "user" : "OeCnghJYjVcG0jAsX9gPY6vGDnl2",
      "ward" : "56",
      "zone" : "Jhotwara"
    },
    "181" : {
      "address" : "WQ2V+J47, Jyothi Nagar, Lalkothi",
      "imageRef" : "2021~October~2021-10-19~2~181",
      "isClean" : true,
      "latLng" : "26.9016349,75.7927442",
      "locality" : " Lalkothi",
      "time" : "11:59",
      "user" : "U3dEPvUBhITW1lbJPGGSkDFLU7w2",
      "ward" : "147",
      "zone" : "Malviya Nagar"
    },
    "182" : {
      "address" : "21, Gandhi Path W, L.N. Nagar, Bhairav Nagar, Vaishali Nagar",
      "imageRef" : "2021~October~2021-10-19~2~182",
      "isClean" : true,
      "latLng" : "26.9044343,75.7206125",
      "locality" : " Vaishali Nagar",
      "time" : "11:59",
      "user" : "OeCnghJYjVcG0jAsX9gPY6vGDnl2",
      "ward" : "56",
      "zone" : "Jhotwara"
    },
    "183" : {
      "address" : "C-147, Jan Path, Nirman Nagar",
      "imageRef" : "2021~October~2021-10-19~2~183",
      "isClean" : true,
      "latLng" : "26.8893122,75.7534589",
      "locality" : " Nirman Nagar",
      "time" : "11:59",
      "user" : "f63WCJ0Lynd58cD0s0IXlxY2ANp2",
      "ward" : "Not Found",
      "zone" : "Not Found"
    },
    "184" : {
      "address" : "21, Gandhi Path W, L.N. Nagar, Bhairav Nagar, Vaishali Nagar",
      "imageRef" : "2021~October~2021-10-19~2~184",
      "isClean" : true,
      "latLng" : "26.9044343,75.7206125",
      "locality" : " Vaishali Nagar",
      "time" : "11:59",
      "user" : "OeCnghJYjVcG0jAsX9gPY6vGDnl2",
      "ward" : "56",
      "zone" : "Jhotwara"
    },
    "185" : {
      "address" : "9, Ganesh Nagar, Bhakrota",
      "imageRef" : "2021~October~2021-10-19~2~185",
      "isClean" : true,
      "latLng" : "26.9016833,75.7927384",
      "locality" : " Bhakrota",
      "time" : "11:59",
      "user" : "U3dEPvUBhITW1lbJPGGSkDFLU7w2",
      "ward" : "147",
      "zone" : "Malviya Nagar"
    },
    "186" : {
      "address" : "35,36, Minwara Rd, near Chopra Marriage Garden, Chandra Vihar Colony, Panchyawala",
      "imageRef" : "2021~October~2021-10-19~2~186",
      "isClean" : true,
      "latLng" : "26.9116368,75.7235906",
      "locality" : " Panchyawala",
      "time" : "11:59",
      "user" : "q824l6Y9DwXAx5nm9I9C1cImcRo1",
      "ward" : "53",
      "zone" : "Jhotwara"
    },
    "187" : {
      "address" : "Mayfair residency, 2, Bhura Patel Marg, Kanha Vihar, Gulab Vihar B, Lalarpura",
      "imageRef" : "2021~October~2021-10-19~2~187",
      "isClean" : true,
      "latLng" : "26.9028204,75.7224298",
      "locality" : " Lalarpura",
      "time" : "12:00",
      "user" : "OeCnghJYjVcG0jAsX9gPY6vGDnl2",
      "ward" : "56",
      "zone" : "Jhotwara"
    },
    "188" : {
      "address" : "Mayfair residency, 2, Bhura Patel Marg, Kanha Vihar, Gulab Vihar B, Lalarpura",
      "imageRef" : "2021~October~2021-10-19~2~188",
      "isClean" : true,
      "latLng" : "26.9028204,75.7224298",
      "locality" : " Lalarpura",
      "time" : "12:00",
      "user" : "OeCnghJYjVcG0jAsX9gPY6vGDnl2",
      "ward" : "56",
      "zone" : "Jhotwara"
    },
    "189" : {
      "address" : "Mayfair residency, 2, Bhura Patel Marg, Kanha Vihar, Gulab Vihar B, Lalarpura",
      "imageRef" : "2021~October~2021-10-19~2~189",
      "isClean" : true,
      "latLng" : "26.9028204,75.7224298",
      "locality" : " Lalarpura",
      "time" : "12:00",
      "user" : "OeCnghJYjVcG0jAsX9gPY6vGDnl2",
      "ward" : "56",
      "zone" : "Jhotwara"
    },
    "190" : {
      "address" : "8, Vishwakarma Industrial Area, Murlipura",
      "imageRef" : "2021~October~2021-10-19~2~190",
      "isClean" : true,
      "latLng" : "26.9856608,75.7770266",
      "locality" : " Murlipura",
      "time" : "12:00",
      "user" : "RxDvTuUUsCTs9GcCg5g0iG9fA3t2",
      "ward" : "8",
      "zone" : "Murlipura"
    },
    "191" : {
      "address" : "Chubby Cheese, 1st Floor, Jaggar House, MI Rd, opp. Yaadgar Control Room, Ajmeri Gate, Sangram Colony, Ashok Nagar",
      "imageRef" : "2021~October~2021-10-19~2~191",
      "isClean" : true,
      "latLng" : "26.9163604,75.8169193",
      "locality" : " Ashok Nagar",
      "time" : "12:00",
      "user" : "GPotdEk3KiOa4fqpi2UXbBOSYhh2",
      "ward" : "150",
      "zone" : "Malviya Nagar"
    },
    "192" : {
      "address" : "Mayfair residency, 2, Bhura Patel Marg, Kanha Vihar, Gulab Vihar B, Lalarpura",
      "imageRef" : "2021~October~2021-10-19~2~192",
      "isClean" : true,
      "latLng" : "26.9028204,75.7224298",
      "locality" : " Lalarpura",
      "time" : "12:01",
      "user" : "OeCnghJYjVcG0jAsX9gPY6vGDnl2",
      "ward" : "56",
      "zone" : "Jhotwara"
    },
    "193" : {
      "address" : "3, Narayan Nagar Vistar, Deep Nagar, Jhotwara",
      "imageRef" : "2021~October~2021-10-19~2~193",
      "isClean" : true,
      "latLng" : "26.9653557,75.7461828",
      "locality" : " Jhotwara",
      "time" : "12:01",
      "user" : "ev0wnTlCHecAviBhj2QYe4lEAj13",
      "ward" : "14",
      "zone" : "Murlipura"
    },
    "194" : {
      "address" : "Bhura Patel Marg, Lalarpura",
      "imageRef" : "2021~October~2021-10-19~2~194",
      "isClean" : true,
      "latLng" : "26.9024471,75.7187952",
      "locality" : " Lalarpura",
      "time" : "12:01",
      "user" : "OeCnghJYjVcG0jAsX9gPY6vGDnl2",
      "ward" : "56",
      "zone" : "Jhotwara"
    },
    "195" : {
      "address" : "8, Vishwakarma Industrial Area, Murlipura",
      "imageRef" : "2021~October~2021-10-19~2~195",
      "isClean" : true,
      "latLng" : "26.9856608,75.7770266",
      "locality" : " Murlipura",
      "time" : "12:01",
      "user" : "RxDvTuUUsCTs9GcCg5g0iG9fA3t2",
      "ward" : "8",
      "zone" : "Murlipura"
    },
    "196" : {
      "address" : "129, Padmavti Colony, Nirman Nagar, Brijlalpura",
      "imageRef" : "2021~October~2021-10-19~2~196",
      "isClean" : true,
      "latLng" : "26.8814408,75.7498267",
      "locality" : " Brijlalpura",
      "time" : "12:01",
      "user" : "LB5ZuA5FjaclXAeRLRT2dIRkowk2",
      "ward" : "64",
      "zone" : "Jhotwara"
    },
    "197" : {
      "address" : "A-8, Sahakar Marg, Jyothi Nagar, Lalkothi",
      "imageRef" : "2021~October~2021-10-19~2~197",
      "isClean" : true,
      "latLng" : "26.9012055,75.7923524",
      "locality" : " Lalkothi",
      "time" : "12:01",
      "user" : "U3dEPvUBhITW1lbJPGGSkDFLU7w2",
      "ward" : "147",
      "zone" : "Malviya Nagar"
    },
    "198" : {
      "address" : "Bhura Patel Marg, Lalarpura",
      "imageRef" : "2021~October~2021-10-19~2~198",
      "isClean" : true,
      "latLng" : "26.9024471,75.7187952",
      "locality" : " Lalarpura",
      "time" : "12:02",
      "user" : "OeCnghJYjVcG0jAsX9gPY6vGDnl2",
      "ward" : "56",
      "zone" : "Jhotwara"
    },
    "199" : {
      "address" : "Jaipur, Jyothi Nagar, Lalkothi",
      "imageRef" : "2021~October~2021-10-19~2~199",
      "isClean" : true,
      "latLng" : "26.8996387,75.7937856",
      "locality" : " Lalkothi",
      "time" : "12:02",
      "user" : "U3dEPvUBhITW1lbJPGGSkDFLU7w2",
      "ward" : "147",
      "zone" : "Malviya Nagar"
    },
    "200" : {
      "address" : "82, Ganga Jamuna Colony, Dahar Ka Balaji",
      "imageRef" : "2021~October~2021-10-19~2~200",
      "isClean" : true,
      "latLng" : "26.9654534,75.7563313",
      "locality" : " Dahar Ka Balaji",
      "time" : "12:02",
      "user" : "ev0wnTlCHecAviBhj2QYe4lEAj13",
      "ward" : "15",
      "zone" : "Murlipura"
    },
    "201" : {
      "address" : "Bhura Patel Marg, Lalarpura",
      "imageRef" : "2021~October~2021-10-19~2~201",
      "isClean" : true,
      "latLng" : "26.9024471,75.7187952",
      "locality" : " Lalarpura",
      "time" : "12:02",
      "user" : "OeCnghJYjVcG0jAsX9gPY6vGDnl2",
      "ward" : "56",
      "zone" : "Jhotwara"
    },
    "202" : {
      "address" : "82, Ganga Jamuna Colony, Dahar Ka Balaji",
      "imageRef" : "2021~October~2021-10-19~2~202",
      "isClean" : true,
      "latLng" : "26.9654534,75.7563313",
      "locality" : " Dahar Ka Balaji",
      "time" : "12:02",
      "user" : "ev0wnTlCHecAviBhj2QYe4lEAj13",
      "ward" : "15",
      "zone" : "Murlipura"
    },
    "203" : {
      "address" : "Bhura Patel Marg, Lalarpura",
      "imageRef" : "2021~October~2021-10-19~2~203",
      "isClean" : true,
      "latLng" : "26.9024471,75.7187952",
      "locality" : " Lalarpura",
      "time" : "12:02",
      "user" : "OeCnghJYjVcG0jAsX9gPY6vGDnl2",
      "ward" : "56",
      "zone" : "Jhotwara"
    },
    "204" : {
      "address" : "8, Vishwakarma Industrial Area, Murlipura",
      "imageRef" : "2021~October~2021-10-19~2~204",
      "isClean" : true,
      "latLng" : "26.9856608,75.7770266",
      "locality" : " Murlipura",
      "time" : "12:02",
      "user" : "RxDvTuUUsCTs9GcCg5g0iG9fA3t2",
      "ward" : "8",
      "zone" : "Murlipura"
    },
    "205" : {
      "address" : "E-156, Vikas Nagar B, Amrapali Circle, Vaishali Nagar",
      "imageRef" : "2021~October~2021-10-19~2~205",
      "isClean" : true,
      "latLng" : "26.8978908,75.7235202",
      "locality" : " Vaishali Nagar",
      "time" : "12:03",
      "user" : "OeCnghJYjVcG0jAsX9gPY6vGDnl2",
      "ward" : "59",
      "zone" : "Jhotwara"
    },
    "206" : {
      "address" : "E-156, Vikas Nagar B, Amrapali Circle, Vaishali Nagar",
      "imageRef" : "2021~October~2021-10-19~2~206",
      "isClean" : true,
      "latLng" : "26.8978908,75.7235202",
      "locality" : " Vaishali Nagar",
      "time" : "12:03",
      "user" : "OeCnghJYjVcG0jAsX9gPY6vGDnl2",
      "ward" : "59",
      "zone" : "Jhotwara"
    },
    "207" : {
      "address" : "E-156, Vikas Nagar B, Amrapali Circle, Vaishali Nagar",
      "imageRef" : "2021~October~2021-10-19~2~207",
      "isClean" : true,
      "latLng" : "26.8978908,75.7235202",
      "locality" : " Vaishali Nagar",
      "time" : "12:03",
      "user" : "OeCnghJYjVcG0jAsX9gPY6vGDnl2",
      "ward" : "59",
      "zone" : "Jhotwara"
    },
    "208" : {
      "address" : "Jaipur, Jyothi Nagar, Lalkothi",
      "imageRef" : "2021~October~2021-10-19~2~208",
      "isClean" : true,
      "latLng" : "26.8997584,75.7937551",
      "locality" : " Lalkothi",
      "time" : "12:03",
      "user" : "U3dEPvUBhITW1lbJPGGSkDFLU7w2",
      "ward" : "147",
      "zone" : "Malviya Nagar"
    },
    "209" : {
      "address" : "Plot No. 4, Sikar Rd, Vishwakarma Industrial Area",
      "imageRef" : "2021~October~2021-10-19~2~209",
      "isClean" : true,
      "latLng" : "26.9830931,75.7745106",
      "locality" : " Vishwakarma Industrial Area",
      "time" : "12:03",
      "user" : "RxDvTuUUsCTs9GcCg5g0iG9fA3t2",
      "ward" : "8",
      "zone" : "Murlipura"
    },
    "210" : {
      "address" : "129, Padmavti Colony, Nirman Nagar, Brijlalpura",
      "imageRef" : "2021~October~2021-10-19~2~210",
      "isClean" : true,
      "latLng" : "26.8814408,75.7498267",
      "locality" : " Brijlalpura",
      "time" : "12:04",
      "user" : "LB5ZuA5FjaclXAeRLRT2dIRkowk2",
      "ward" : "64",
      "zone" : "Jhotwara"
    },
    "211" : {
      "address" : "D-717, Jagadamba Nagar, Amrapali Circle, Girdharipura",
      "imageRef" : "2021~October~2021-10-19~2~211",
      "isClean" : true,
      "latLng" : "26.8982136,75.7231567",
      "locality" : " Girdharipura",
      "time" : "12:04",
      "user" : "OeCnghJYjVcG0jAsX9gPY6vGDnl2",
      "ward" : "59",
      "zone" : "Jhotwara"
    },
    "212" : {
      "address" : "29, Dahar Ka Balaji",
      "imageRef" : "2021~October~2021-10-19~2~212",
      "isClean" : true,
      "latLng" : "26.9628181,75.7576518",
      "locality" : " Dahar Ka Balaji",
      "time" : "12:04",
      "user" : "ev0wnTlCHecAviBhj2QYe4lEAj13",
      "ward" : "Not Found",
      "zone" : "Not Found"
    },
    "213" : {
      "address" : "D-717, Jagadamba Nagar, Amrapali Circle, Girdharipura",
      "imageRef" : "2021~October~2021-10-19~2~213",
      "isClean" : true,
      "latLng" : "26.8982136,75.7231567",
      "locality" : " Girdharipura",
      "time" : "12:04",
      "user" : "OeCnghJYjVcG0jAsX9gPY6vGDnl2",
      "ward" : "59",
      "zone" : "Jhotwara"
    },
    "214" : {
      "address" : "Plot No. 4, Sikar Rd, Vishwakarma Industrial Area",
      "imageRef" : "2021~October~2021-10-19~2~214",
      "isClean" : true,
      "latLng" : "26.9830931,75.7745106",
      "locality" : " Vishwakarma Industrial Area",
      "time" : "12:04",
      "user" : "RxDvTuUUsCTs9GcCg5g0iG9fA3t2",
      "ward" : "8",
      "zone" : "Murlipura"
    },
    "215" : {
      "address" : "D-717, Jagadamba Nagar, Amrapali Circle, Girdharipura",
      "imageRef" : "2021~October~2021-10-19~2~215",
      "isClean" : true,
      "latLng" : "26.8982136,75.7231567",
      "locality" : " Girdharipura",
      "time" : "12:05",
      "user" : "OeCnghJYjVcG0jAsX9gPY6vGDnl2",
      "ward" : "59",
      "zone" : "Jhotwara"
    },
    "216" : {
      "address" : "D-717, Jagadamba Nagar, Amrapali Circle, Girdharipura",
      "imageRef" : "2021~October~2021-10-19~2~216",
      "isClean" : true,
      "latLng" : "26.8982136,75.7231567",
      "locality" : " Girdharipura",
      "time" : "12:05",
      "user" : "OeCnghJYjVcG0jAsX9gPY6vGDnl2",
      "ward" : "59",
      "zone" : "Jhotwara"
    },
    "217" : {
      "address" : "29, Dahar Ka Balaji",
      "imageRef" : "2021~October~2021-10-19~2~217",
      "isClean" : true,
      "latLng" : "26.9628181,75.7576518",
      "locality" : " Dahar Ka Balaji",
      "time" : "12:05",
      "user" : "ev0wnTlCHecAviBhj2QYe4lEAj13",
      "ward" : "Not Found",
      "zone" : "Not Found"
    },
    "218" : {
      "address" : "Jaipur, Jyothi Nagar, Lalkothi",
      "imageRef" : "2021~October~2021-10-19~2~218",
      "isClean" : true,
      "latLng" : "26.8997584,75.7937551",
      "locality" : " Lalkothi",
      "time" : "12:07",
      "user" : "U3dEPvUBhITW1lbJPGGSkDFLU7w2",
      "ward" : "147",
      "zone" : "Malviya Nagar"
    },
    "219" : {
      "address" : "E 106, Rd Number 7, Vishwakarma Industrial Area",
      "imageRef" : "2021~October~2021-10-19~2~219",
      "isClean" : true,
      "latLng" : "26.9829425,75.7763764",
      "locality" : " Vishwakarma Industrial Area",
      "time" : "12:08",
      "user" : "RxDvTuUUsCTs9GcCg5g0iG9fA3t2",
      "ward" : "8",
      "zone" : "Murlipura"
    },
    "220" : {
      "address" : "Khirani Phatak Bus Stand, Kanakpura",
      "imageRef" : "2021~October~2021-10-19~2~220",
      "isClean" : true,
      "latLng" : "26.9320824,75.7301251",
      "locality" : " Kanakpura",
      "time" : "12:08",
      "user" : "q824l6Y9DwXAx5nm9I9C1cImcRo1",
      "ward" : "48",
      "zone" : "Jhotwara"
    },
    "221" : {
      "address" : "16, Dahar Ka Balaji",
      "imageRef" : "2021~October~2021-10-19~2~221",
      "isClean" : true,
      "latLng" : "26.9621004,75.7631298",
      "locality" : " Dahar Ka Balaji",
      "time" : "12:08",
      "user" : "ev0wnTlCHecAviBhj2QYe4lEAj13",
      "ward" : "Not Found",
      "zone" : "Not Found"
    },
    "222" : {
      "address" : "E 106, Rd Number 7, Vishwakarma Industrial Area",
      "imageRef" : "2021~October~2021-10-19~2~222",
      "isClean" : true,
      "latLng" : "26.9829425,75.7763764",
      "locality" : " Vishwakarma Industrial Area",
      "time" : "12:09",
      "user" : "RxDvTuUUsCTs9GcCg5g0iG9fA3t2",
      "ward" : "8",
      "zone" : "Murlipura"
    },
    "223" : {
      "address" : "B-2A, Umraav Vihar, Kanakpura",
      "imageRef" : "2021~October~2021-10-19~2~223",
      "isClean" : true,
      "latLng" : "26.9317167,75.7272984",
      "locality" : " Kanakpura",
      "time" : "12:09",
      "user" : "q824l6Y9DwXAx5nm9I9C1cImcRo1",
      "ward" : "48",
      "zone" : "Jhotwara"
    },
    "224" : {
      "address" : "F-24, 3, Sikar Rd, Vishwakarma Industrial Area",
      "imageRef" : "2021~October~2021-10-19~2~224",
      "isClean" : true,
      "latLng" : "26.9790202,75.7745531",
      "locality" : " Vishwakarma Industrial Area",
      "time" : "12:10",
      "user" : "RxDvTuUUsCTs9GcCg5g0iG9fA3t2",
      "ward" : "8",
      "zone" : "Murlipura"
    },
    "225" : {
      "address" : "16, Dahar Ka Balaji",
      "imageRef" : "2021~October~2021-10-19~2~225",
      "isClean" : true,
      "latLng" : "26.9621004,75.7631298",
      "locality" : " Dahar Ka Balaji",
      "time" : "12:11",
      "user" : "ev0wnTlCHecAviBhj2QYe4lEAj13",
      "ward" : "Not Found",
      "zone" : "Not Found"
    },
    "226" : {
      "address" : "F-24, 3, Sikar Rd, Vishwakarma Industrial Area",
      "imageRef" : "2021~October~2021-10-19~2~226",
      "isClean" : true,
      "latLng" : "26.9790202,75.7745531",
      "locality" : " Vishwakarma Industrial Area",
      "time" : "12:11",
      "user" : "RxDvTuUUsCTs9GcCg5g0iG9fA3t2",
      "ward" : "8",
      "zone" : "Murlipura"
    },
    "227" : {
      "address" : "F-24, 3, Sikar Rd, Vishwakarma Industrial Area",
      "imageRef" : "2021~October~2021-10-19~2~227",
      "isClean" : true,
      "latLng" : "26.9790202,75.7745531",
      "locality" : " Vishwakarma Industrial Area",
      "time" : "12:12",
      "user" : "RxDvTuUUsCTs9GcCg5g0iG9fA3t2",
      "ward" : "8",
      "zone" : "Murlipura"
    },
    "228" : {
      "address" : "Shop No. A-17, Inaysk Vihar, Gandhi Path W, Lalarpura",
      "imageRef" : "2021~October~2021-10-19~2~228",
      "isClean" : true,
      "latLng" : "26.9021666,75.7128479",
      "locality" : " Lalarpura",
      "time" : "12:12",
      "user" : "5O4HmxdGWmcOa1J2WhJr16wb8uG3",
      "ward" : "53",
      "zone" : "Jhotwara"
    },
    "229" : {
      "address" : "E-48C, Rd Number 2, Vishwakarma Industrial Area",
      "imageRef" : "2021~October~2021-10-19~2~229",
      "isClean" : true,
      "latLng" : "26.9755314,75.7753741",
      "locality" : " Vishwakarma Industrial Area",
      "time" : "12:12",
      "user" : "RxDvTuUUsCTs9GcCg5g0iG9fA3t2",
      "ward" : "8",
      "zone" : "Murlipura"
    },
    "230" : {
      "address" : "E-48C, Rd Number 2, Vishwakarma Industrial Area",
      "imageRef" : "2021~October~2021-10-19~2~230",
      "isClean" : true,
      "latLng" : "26.9755314,75.7753741",
      "locality" : " Vishwakarma Industrial Area",
      "time" : "12:12",
      "user" : "RxDvTuUUsCTs9GcCg5g0iG9fA3t2",
      "ward" : "8",
      "zone" : "Murlipura"
    },
    "231" : {
      "address" : "XQGF+5JP, Vishwakarma Industrial Area",
      "imageRef" : "2021~October~2021-10-19~2~231",
      "isClean" : true,
      "latLng" : "26.9753548,75.7738547",
      "locality" : " Vishwakarma Industrial Area",
      "time" : "12:13",
      "user" : "RxDvTuUUsCTs9GcCg5g0iG9fA3t2",
      "ward" : "8",
      "zone" : "Murlipura"
    },
    "232" : {
      "address" : "Shop No. A-17, Inaysk Vihar, Gandhi Path W, Lalarpura",
      "imageRef" : "2021~October~2021-10-19~2~232",
      "isClean" : true,
      "latLng" : "26.9021666,75.7128479",
      "locality" : " Lalarpura",
      "time" : "12:13",
      "user" : "5O4HmxdGWmcOa1J2WhJr16wb8uG3",
      "ward" : "53",
      "zone" : "Jhotwara"
    },
    "233" : {
      "address" : "XQGF+5JP, Vishwakarma Industrial Area",
      "imageRef" : "2021~October~2021-10-19~2~233",
      "isClean" : true,
      "latLng" : "26.9753548,75.7738547",
      "locality" : " Vishwakarma Industrial Area",
      "time" : "12:14",
      "user" : "RxDvTuUUsCTs9GcCg5g0iG9fA3t2",
      "ward" : "8",
      "zone" : "Murlipura"
    },
    "234" : {
      "address" : "XQGF+5JP, Vishwakarma Industrial Area",
      "imageRef" : "2021~October~2021-10-19~2~234",
      "isClean" : true,
      "latLng" : "26.9753548,75.7738547",
      "locality" : " Vishwakarma Industrial Area",
      "time" : "12:15",
      "user" : "RxDvTuUUsCTs9GcCg5g0iG9fA3t2",
      "ward" : "8",
      "zone" : "Murlipura"
    },
    "235" : {
      "address" : "a, Rd Number 1, Vishwakarma Industrial Area, Murlipura",
      "imageRef" : "2021~October~2021-10-19~2~235",
      "isClean" : true,
      "latLng" : "26.9733957,75.7722592",
      "locality" : " Murlipura",
      "time" : "12:15",
      "user" : "RxDvTuUUsCTs9GcCg5g0iG9fA3t2",
      "ward" : "8",
      "zone" : "Murlipura"
    },
    "236" : {
      "address" : "a, Rd Number 1, Vishwakarma Industrial Area, Murlipura",
      "imageRef" : "2021~October~2021-10-19~2~236",
      "isClean" : true,
      "latLng" : "26.9733957,75.7722592",
      "locality" : " Murlipura",
      "time" : "12:16",
      "user" : "RxDvTuUUsCTs9GcCg5g0iG9fA3t2",
      "ward" : "8",
      "zone" : "Murlipura"
    },
    "237" : {
      "address" : "95, near Chopra Marriage Garden, Shree Ram Nagar - A, Sunder Nagar, Panchyawala",
      "imageRef" : "2021~October~2021-10-19~2~237",
      "isClean" : true,
      "latLng" : "26.9113834,75.724175",
      "locality" : " Panchyawala",
      "time" : "12:16",
      "user" : "5O4HmxdGWmcOa1J2WhJr16wb8uG3",
      "ward" : "53",
      "zone" : "Jhotwara"
    },
    "238" : {
      "address" : "14, Rd Number 1, Vishwakarma Industrial Area, Murlipura",
      "imageRef" : "2021~October~2021-10-19~2~238",
      "isClean" : true,
      "latLng" : "26.9736472,75.7741368",
      "locality" : " Murlipura",
      "time" : "12:16",
      "user" : "RxDvTuUUsCTs9GcCg5g0iG9fA3t2",
      "ward" : "8",
      "zone" : "Murlipura"
    },
    "239" : {
      "address" : "A-15, New Sanganer Rd, Padam Vihar, Mansarovar",
      "imageRef" : "2021~October~2021-10-19~2~239",
      "isClean" : true,
      "latLng" : "26.8630082,75.7529529",
      "locality" : " Mansarovar",
      "time" : "12:18",
      "user" : "LB5ZuA5FjaclXAeRLRT2dIRkowk2",
      "ward" : "71",
      "zone" : "Mansarovar"
    },
    "240" : {
      "address" : "A-15, New Sanganer Rd, Padam Vihar, Mansarovar",
      "imageRef" : "2021~October~2021-10-19~2~240",
      "isClean" : true,
      "latLng" : "26.8630082,75.7529529",
      "locality" : " Mansarovar",
      "time" : "12:18",
      "user" : "LB5ZuA5FjaclXAeRLRT2dIRkowk2",
      "ward" : "71",
      "zone" : "Mansarovar"
    },
    "241" : {
      "address" : "14, Rd Number 1, Vishwakarma Industrial Area, Murlipura",
      "imageRef" : "2021~October~2021-10-19~2~241",
      "isClean" : true,
      "latLng" : "26.9736472,75.7741368",
      "locality" : " Murlipura",
      "time" : "12:19",
      "user" : "RxDvTuUUsCTs9GcCg5g0iG9fA3t2",
      "ward" : "8",
      "zone" : "Murlipura"
    },
    "242" : {
      "address" : "Vidhyadhar Nagar Rd, Vishwakarma Industrial Area, Vidyadhar Nagar",
      "imageRef" : "2021~October~2021-10-19~2~242",
      "isClean" : true,
      "latLng" : "26.9714582,75.7780731",
      "locality" : " Vidyadhar Nagar",
      "time" : "12:21",
      "user" : "ev0wnTlCHecAviBhj2QYe4lEAj13",
      "ward" : "8",
      "zone" : "Murlipura"
    },
    "243" : {
      "address" : "A-15, New Sanganer Rd, Padam Vihar, Mansarovar",
      "imageRef" : "2021~October~2021-10-19~2~243",
      "isClean" : true,
      "latLng" : "26.8630082,75.7529529",
      "locality" : " Mansarovar",
      "time" : "12:23",
      "user" : "LB5ZuA5FjaclXAeRLRT2dIRkowk2",
      "ward" : "71",
      "zone" : "Mansarovar"
    },
    "244" : {
      "address" : "10, Sirsi Rd, Hanuman Nagar Extension, Paschim Vihar, Vaishali Nagar",
      "imageRef" : "2021~October~2021-10-19~2~244",
      "isClean" : true,
      "latLng" : "26.9204753,75.7351023",
      "locality" : " Vaishali Nagar",
      "time" : "12:23",
      "user" : "5O4HmxdGWmcOa1J2WhJr16wb8uG3",
      "ward" : "42",
      "zone" : "Vidhyadhar"
    },
    "245" : {
      "address" : "10, Sirsi Rd, Hanuman Nagar Extension, Paschim Vihar, Vaishali Nagar",
      "imageRef" : "2021~October~2021-10-19~2~245",
      "isClean" : true,
      "latLng" : "26.9204753,75.7351023",
      "locality" : " Vaishali Nagar",
      "time" : "12:25",
      "user" : "5O4HmxdGWmcOa1J2WhJr16wb8uG3",
      "ward" : "42",
      "zone" : "Vidhyadhar"
    },
    "246" : {
      "address" : "100 Feet Rd",
      "imageRef" : "2021~October~2021-10-19~2~246",
      "isClean" : true,
      "latLng" : "26.918612,75.6458425",
      "locality" : "100 Feet Rd",
      "time" : "12:26",
      "user" : "U3j9UlrmrzfwIQSmhmr88VBOwfn2",
      "ward" : "Not Found",
      "zone" : "Not Found"
    },
    "247" : {
      "address" : "314, 314, Janak Marg, Hanuman Nagar Extension, Khatipura",
      "imageRef" : "2021~October~2021-10-19~2~247",
      "isClean" : true,
      "latLng" : "26.9299521,75.7399074",
      "locality" : " Khatipura",
      "time" : "12:27",
      "user" : "5O4HmxdGWmcOa1J2WhJr16wb8uG3",
      "ward" : "42",
      "zone" : "Vidhyadhar"
    },
    "248" : {
      "address" : "100 Feet Rd",
      "imageRef" : "2021~October~2021-10-19~2~248",
      "isClean" : true,
      "latLng" : "26.918612,75.6458425",
      "locality" : "100 Feet Rd",
      "time" : "12:27",
      "user" : "U3j9UlrmrzfwIQSmhmr88VBOwfn2",
      "ward" : "Not Found",
      "zone" : "Not Found"
    },
    "249" : {
      "address" : "100 Feet Rd",
      "imageRef" : "2021~October~2021-10-19~2~249",
      "isClean" : true,
      "latLng" : "26.918612,75.6458425",
      "locality" : "100 Feet Rd",
      "time" : "12:28",
      "user" : "U3j9UlrmrzfwIQSmhmr88VBOwfn2",
      "ward" : "Not Found",
      "zone" : "Not Found"
    },
    "250" : {
      "address" : "314, 314, Janak Marg, Hanuman Nagar Extension, Khatipura",
      "imageRef" : "2021~October~2021-10-19~2~250",
      "isClean" : true,
      "latLng" : "26.9299521,75.7399074",
      "locality" : " Khatipura",
      "time" : "12:29",
      "user" : "5O4HmxdGWmcOa1J2WhJr16wb8uG3",
      "ward" : "42",
      "zone" : "Vidhyadhar"
    },
    "251" : {
      "address" : "314, 314, Janak Marg, Hanuman Nagar Extension, Khatipura",
      "imageRef" : "2021~October~2021-10-19~2~251",
      "isClean" : true,
      "latLng" : "26.9299521,75.7399074",
      "locality" : " Khatipura",
      "time" : "12:30",
      "user" : "5O4HmxdGWmcOa1J2WhJr16wb8uG3",
      "ward" : "42",
      "zone" : "Vidhyadhar"
    },
    "252" : {
      "address" : "1, Sector-9, Vishwakarma Industrial Area, Vidyadhar Nagar",
      "imageRef" : "2021~October~2021-10-19~2~252",
      "isClean" : true,
      "latLng" : "26.9699359,75.7817104",
      "locality" : " Vidyadhar Nagar",
      "time" : "12:30",
      "user" : "ev0wnTlCHecAviBhj2QYe4lEAj13",
      "ward" : "8",
      "zone" : "Murlipura"
    },
    "253" : {
      "address" : "Sirsi Rd, Bindayaka",
      "imageRef" : "2021~October~2021-10-19~2~253",
      "isClean" : true,
      "latLng" : "26.9211485,75.6602308",
      "locality" : " Bindayaka",
      "time" : "12:32",
      "user" : "U3j9UlrmrzfwIQSmhmr88VBOwfn2",
      "ward" : "45",
      "zone" : "Jhotwara"
    },
    "254" : {
      "address" : "VPCW+GF4, 6D Engineers Colony, Mohan Nagar, Mohru Nagar, Mansarovar",
      "imageRef" : "2021~October~2021-10-19~2~254",
      "isClean" : true,
      "latLng" : "26.8712638,75.7460604",
      "locality" : " Mansarovar",
      "time" : "12:41",
      "user" : "LB5ZuA5FjaclXAeRLRT2dIRkowk2",
      "ward" : "68",
      "zone" : "Mansarovar"
    },
    "255" : {
      "address" : "137, Arya Nagar, Vishwakarma Industrial Area, Murlipura",
      "imageRef" : "2021~October~2021-10-19~2~255",
      "isClean" : true,
      "latLng" : "26.9791018,75.7714475",
      "locality" : " Murlipura",
      "time" : "12:43",
      "user" : "ev0wnTlCHecAviBhj2QYe4lEAj13",
      "ward" : "10",
      "zone" : "Murlipura"
    },
    "256" : {
      "address" : "VPCW+GF4, 6D Engineers Colony, Mohan Nagar, Mohru Nagar, Mansarovar",
      "imageRef" : "2021~October~2021-10-19~2~256",
      "isClean" : true,
      "latLng" : "26.8712638,75.7460604",
      "locality" : " Mansarovar",
      "time" : "12:45",
      "user" : "LB5ZuA5FjaclXAeRLRT2dIRkowk2",
      "ward" : "68",
      "zone" : "Mansarovar"
    },
    "257" : {
      "address" : "Jhotwara, Lajpat Nagar, Bajrang Colony, Jhotwara",
      "imageRef" : "2021~October~2021-10-19~2~257",
      "isClean" : true,
      "latLng" : "26.9417077,75.7624781",
      "locality" : " Jhotwara",
      "time" : "12:46",
      "user" : "5O4HmxdGWmcOa1J2WhJr16wb8uG3",
      "ward" : "34",
      "zone" : "Vidhyadhar"
    },
    "258" : {
      "address" : "137, Arya Nagar, Vishwakarma Industrial Area, Murlipura",
      "imageRef" : "2021~October~2021-10-19~2~258",
      "isClean" : true,
      "latLng" : "26.9791018,75.7714475",
      "locality" : " Murlipura",
      "time" : "12:46",
      "user" : "ev0wnTlCHecAviBhj2QYe4lEAj13",
      "ward" : "10",
      "zone" : "Murlipura"
    },
    "259" : {
      "address" : "Chomupuliya Bus Stand, Sikar Rd, Om Shiv Colony, Dahar Ka Balaji",
      "imageRef" : "2021~October~2021-10-19~2~259",
      "isClean" : true,
      "latLng" : "26.9415675,75.7736135",
      "locality" : " Dahar Ka Balaji",
      "time" : "12:48",
      "user" : "5O4HmxdGWmcOa1J2WhJr16wb8uG3",
      "ward" : "27",
      "zone" : "Vidhyadhar"
    },