{
	"1": {
		"lat": 26.59795,
		"lng": 74.844916,
		"mobile": 9001515924,
		"name": "Ram ji"
	},
	"4": {
		"lat": 26.592619,
		"lng": 74.839564,
		"mobile": 9929190350,
		"name": "Surghyan ji"
	},
	"5": {
		"lat": 26.591525,
		"lng": 74.856013,
		"mobile": 7073391531,
		"name": "Amir Khan"
	},
	"8": {
		"lat": 26.588866,
		"lng": 74.860405,
		"mobile": 9829965123,
		"name": "Rafik"
	},
	"11": {
		"lat": 26.589134,
		"lng": 74.844709,
		"mobile": 9214973849,
		"name": "Hamida Bano "
	},
	"13": {
		"lat": 26.589086,
		"lng": 74.847535,
		"mobile": 8875753363,
		"name": "Sunita Choudhary"
	},
	"15": {
		"lat": 26.589779,
		"lng": 74.836153,
		"mobile": 9521757055,
		"name": "Maniram Jat"
	},
	"16": {
		"lat": 26.58058,
		"lng": 74.832364,
		"mobile": 9828036275,
		"name": "Manendra Singh"
	},
	"19": {
		"lat": 26.578546,
		"lng": 74.837941,
		"mobile": 9252987777,
		"name": "Rakhi Sharma"
	},
	"20": {
		"lat": 26.585394,
		"lng": 74.84904,
		"mobile": 9950081555,
		"name": "Ghanashyam ji Soda"
	},
	"23": {
		"lat": 26.588197,
		"lng": 74.860493,
		"mobile": 9829100123,
		"name": "Mohammad Taki"
	},
	"27": {
		"lat": 26.584577,
		"lng": 74.852393,
		"mobile": 9314239533,
		"name": "Sandhya Sharma"
	},
	"29": {
		"lat": 26.57569,
		"lng": 74.837232,
		"mobile": 8302827390,
		"name": "Beena Rawat"
	},
	"31": {
		"lat": 26.572208,
		"lng": 74.837565,
		"mobile": 9001018915,
		"name": "Mohit Tiwari"
	},
	"36": {
		"lat": 26.580216,
		"lng": 74.849718,
		"mobile": 7737933065,
		"name": "Sonam Jangir w/o Pawan Jangir"
	},
	"37": {
		"lat": 26.5826,
		"lng": 74.852104,
		"mobile": 9001412398,
		"name": "Rikhab reel"
	},
	"41": {
		"lat": 26.581664,
		"lng": 74.860001,
		"mobile": 9829071984,
		"name": "Suresh Dagra ,Nandkishore Saini"
	},
	"42": {
		"lat": 26.572939,
		"lng": 74.853936,
		"mobile": 9001331331,
		"name": "Surender Singh Shekhawat"
	},
	"43": {
		"lat": 26.566473,
		"lng": 74.867836,
		"mobile": 8079030819,
		"name": "Meghraj Morya"
	},
	"44": {
		"lat": 26.572284,
		"lng": 74.866065,
		"mobile": 9829048865,
		"name": "Bhagchand kumawat"
	},
	"47": {
		"lat": 26.559922,
		"lng": 74.876392,
		"mobile": 9982319498,
		"name": "Shankar Sharma"
	},
	"48": {
		"lat": 26.569093,
		"lng": 74.869768,
		"mobile": 9214918870,
		"name": "Minakshi Pareek w/o Hitesh Pareek"
	},
	"49": {
		"lat": 26.565485,
		"lng": 74.876723,
		"mobile": 9214883653,
		"name": "Parmendra joshi"
	},
	"50": {
		"lat": 26.567943,
		"lng": 74.877586,
		"mobile": 7426807450,
		"name": "Mamta Sharma"
	},
	"51": {
		"lat": 26.565302,
		"lng": 74.877084,
		"mobile": 9960998588,
		"name": "Vikram Gurjar"
	},
	"52": {
		"lat": 26.570412,
		"lng": 74.87841,
		"mobile": 9829933212,
		"name": "Tansen ji Hada"
	},
	"53": {
		"lat": 26.581691,
		"lng": 74.863743,
		"mobile": "9950155556, 8766666100",
		"name": "Nandu kanwar w/o prithvi raj singh"
	},
	"55": {
		"lat": 26.58779,
		"lng": 74.876003,
		"mobile": 9460240653,
		"name": "Seema Sharma"
	},
	"56": {
		"lat": 26.589228,
		"lng": 74.8631,
		"mobile": 9214660894,
		"name": "Pappu"
	},
	"57": {
		"lat": 26.594155,
		"lng": 74.860087,
		"mobile": 8432006400,
		"name": "Kishenlal Gurjar"
	},
	"59": {
		"lat": 26.59389,
		"lng": 74.858443,
		"mobile": 8852995760,
		"name": "Balram"
	},
	"60": {
		"lat": 26.599582,
		"lng": 74.86045,
		"mobile": 8769380085,
		"name": "Lakshmi Devi w/o Kanharam"
	},
	"12_14": {
		"lat": 26.591062,
		"lng": 74.841182,
		"mobile": 9887966588,
		"name": "Ramvtar ji"
	},
	"17_18": {
		"lat": 26.570662,
		"lng": 74.820478,
		"mobile": 9413041976,
		"name": "Ramsingh Meena"
	},
	"21_28": {
		"lat": 26.587975,
		"lng": 74.851475,
		"mobile": 9252030840,
		"name": "Manohar ji tarani"
	},
	"22_26": {
		"lat": 26.587312,
		"lng": 74.852515,
		"mobile": "9829897969, 7014869431",
		"name": "Dhannalal Yadav"
	},
	"24_25": {
		"lat": 26.583765,
		"lng": 74.859463,
		"moblie": 9829070247,
		"name": "Shushil ji Ajmera"
	},
	"2_3": {
		"lat": 26.594486,
		"lng": 74.849604,
		"mobile": 7976998400,
		"name": "Manju ji"
	},
	"32_33": {
		"lat": 26.578942,
		"lng": 74.858703,
		"mobile": 7976846177,
		"name": "Manish Singh"
	},
	"34_35": {
		"lat": 26.573235,
		"lng": 74.844605,
		"mobile": 7737718696,
		"name": "Giriraj Gurjar"
	},
	"39_40": {
		"lat": 26.579036,
		"lng": 74.856145,
		"mobile": 8078623198,
		"name": "Manish Tailor"
	},
	"45_46": {
		"lat": 26.568166,
		"lng": 74.867319,
		"mobile": 9829702350,
		"name": "Ahmad Noor"
	},
	"6_7": {
		"lat": 26.594534,
		"lng": 74.846283,
		"mobile": 8949210315,
		"name": "Salim"
	},
	"9_10": {
		"lat": 26.588563,
		"lng": 74.849378,
		"mobile": 9828298002,
		"name": "Virju Singh"
	}
}